[
  {
    "id": "pleiades:48210386",
    "type": "temple",
    "name": "Tempio Grande at Vulci",
    "lat": 42.419683799999994,
    "lng": 11.62832065,
    "startYear": -264,
    "endYear": 400,
    "source": "Pleiades",
    "category": "religion",
    "description": "A major urban sanctuary at Vulci with a long period of use, stretching from the archaic period into the Roman period.",
    "estimatedTemporal": true,
    "qid": "Q931172"
  },
  {
    "id": "pleiades:265899",
    "type": "sanctuary",
    "name": "Fortuna",
    "lat": 38.208848,
    "lng": -1.143263,
    "startYear": -208,
    "endYear": 400,
    "source": "Pleiades",
    "category": "religion",
    "description": "An ancient place, cited: BAtlas 27 D3 Fortuna",
    "props": {
      "ancientName": "Fortuna"
    },
    "estimatedTemporal": true
  },
  {
    "id": "pleiades:275647",
    "type": "temple",
    "name": "Jouima",
    "lat": 35.561466,
    "lng": -5.845549,
    "startYear": 43,
    "endYear": 400,
    "source": "Pleiades",
    "category": "religion",
    "description": "An ancient place, cited: BAtlas 28 C2 Jouima",
    "estimatedTemporal": true
  },
  {
    "id": "pleiades:285395",
    "type": "temple",
    "name": "Agueneb",
    "lat": 33.907941,
    "lng": 1.369109,
    "startYear": -500,
    "endYear": 400,
    "source": "Pleiades",
    "category": "religion",
    "description": "An ancient place, cited: BAtlas 29 G3 Agueneb",
    "estimatedTemporal": true
  },
  {
    "id": "pleiades:285435",
    "type": "temple",
    "name": "Djedars",
    "lat": 35.094724,
    "lng": 1.199725,
    "startYear": -212,
    "endYear": 400,
    "source": "Pleiades",
    "category": "religion",
    "description": "An ancient place, cited: BAtlas 29 G1 Djedars",
    "estimatedTemporal": true
  },
  {
    "id": "pleiades:285514",
    "type": "temple",
    "name": "Ste-Barbe-du-Tlélat",
    "lat": 35.548873,
    "lng": -0.447241,
    "startYear": -212,
    "endYear": 400,
    "source": "Pleiades",
    "category": "religion",
    "description": "An ancient place, cited: BAtlas 29 E1 Ste-Barbe-du-Tlélat",
    "estimatedTemporal": true
  },
  {
    "id": "pleiades:305060",
    "type": "sanctuary",
    "name": "Chettaba",
    "lat": 36.328033,
    "lng": 6.451106,
    "startYear": -212,
    "endYear": 400,
    "source": "Pleiades",
    "category": "religion",
    "description": "An ancient place, cited: BAtlas 31 E4 Chettaba",
    "estimatedTemporal": true
  },
  {
    "id": "pleiades:770872725",
    "type": "temple",
    "name": "Unnamed Gallo-Roman temple",
    "lat": 47.3240420307284,
    "lng": 1.29909693665355,
    "startYear": -50,
    "endYear": 400,
    "source": "Pleiades",
    "category": "religion",
    "description": "The site of an unnamed Gallo-Roman temple is situated in Thésée, Arrondissement of Romorantin-Lanthenay, Centre-Val de Loire, France. This temple site is located close to the ruins at Bâtiments des potiers de Pouillé.",
    "estimatedTemporal": true
  },
  {
    "id": "pleiades:697343073",
    "type": "sanctuary",
    "name": "Khwaja Ali Sehyaka/Sehyak",
    "lat": 30.290889,
    "lng": 63.177708,
    "startYear": 150,
    "endYear": 250,
    "source": "Pleiades",
    "category": "religion",
    "description": "This \"Mesopotamian-style temple\" site located near modern Dishu in Afghanistan's Helmand province was excavated in the 1970s. Carbon-14 dates and \"Greek-style architectural fragments and fine red pottery\" led the excavators to date the use of the site from the late Hellenistic and Parthian period to \"the beginning of the Sasanian period in the 3rd century\" CE. Finds included a fragmentary bilingual (Greek/Aramaic) inscription possibly mentioning a Parthian king Phraates and the Iranian deity Ahuramazda.",
    "props": {
      "ancientName": "Khwaja Ali Sehyaka"
    },
    "estimatedTemporal": true
  },
  {
    "id": "pleiades:246984898",
    "type": "sanctuary",
    "name": "Ursins Gallo-Roman temple",
    "lat": 46.7353535,
    "lng": 6.6683386,
    "startYear": -50,
    "endYear": 400,
    "source": "Pleiades",
    "category": "religion",
    "description": "Site of a Gallo-Roman temple.",
    "estimatedTemporal": true,
    "qid": "Q3517675"
  },
  {
    "id": "pleiades:367202371",
    "type": "temple",
    "name": "Sun Temple of Niuserre",
    "lat": 29.90401660615738,
    "lng": 31.194110041648404,
    "startYear": -27,
    "endYear": 400,
    "source": "Pleiades",
    "category": "religion",
    "description": "Temple dedicated to the god Ra in the 5th dynasty by the pharaoh Niuserre (Nyuserre).",
    "estimatedTemporal": true
  },
  {
    "id": "pleiades:786277755",
    "type": "sanctuary",
    "name": "Temple of Enodia",
    "lat": 39.3893036365249,
    "lng": 22.742368596108903,
    "startYear": -144,
    "endYear": 400,
    "source": "Pleiades",
    "category": "religion",
    "qid": "Q130739415",
    "description": "Pherai was the main cult center of the goddess Enodia. Today, the foundations of the temple of Enodia (or Ennodia) at found at the site.",
    "props": {
      "ancientName": "Temple of Enodia"
    },
    "estimatedTemporal": true
  },
  {
    "id": "pleiades:243075423",
    "type": "temple",
    "name": "Temple of Veiovis",
    "lat": 41.892778,
    "lng": 12.483611,
    "startYear": -337,
    "endYear": 400,
    "source": "Pleiades",
    "category": "religion",
    "qid": "Q764141",
    "description": "The Temple of Veiovis, also attested as Aedes Vediovis, was a temple of ancient Rome located on the Capitoline Hill in a location known as \"inter duos lucos\" that is interpreted to mean a saddle between the two summits of the hill. The remains of a temple podium were discovered beneath the northwest corner of the Palazzo Senatore in 1938-1939.",
    "props": {
      "ancientName": "Temple of Veiovis"
    },
    "estimatedTemporal": true
  },
  {
    "id": "pleiades:565793497",
    "type": "shrine",
    "name": "Lupercal",
    "lat": 41.8893064,
    "lng": 12.4871093,
    "startYear": -337,
    "endYear": 400,
    "source": "Pleiades",
    "category": "religion",
    "qid": "Q1235116",
    "description": "A cave located at the foot of the Palatine Hill in Rome in which the she-wolf was said to have been found suckling the twins, Romulus and Remus.",
    "props": {
      "ancientName": "Lupercal"
    },
    "estimatedTemporal": true
  },
  {
    "id": "pleiades:335229932",
    "type": "sanctuary",
    "name": "Northern sanctuary at Kythnos",
    "lat": 37.408566050000005,
    "lng": 24.394852600000004,
    "startYear": -500,
    "endYear": 400,
    "source": "Pleiades",
    "category": "religion",
    "description": "Religious structure in Kythnos constructed in the Archaic period.",
    "estimatedTemporal": true
  },
  {
    "id": "pleiades:739961553",
    "type": "temple",
    "name": "Esterzili",
    "lat": 39.7490002,
    "lng": 9.3273206,
    "startYear": -230,
    "endYear": 400,
    "source": "Pleiades",
    "category": "religion",
    "qid": "Q1270818",
    "description": "The Domu de Orgia at Esterzili is the largest nuragic \"megaron\" structure thus far discovered in Sardinia.",
    "estimatedTemporal": true
  },
  {
    "id": "pleiades:946753455",
    "type": "temple",
    "name": "So-called Oratory of Phalaris",
    "lat": 37.296636173950695,
    "lng": 13.58857788526974,
    "startYear": -247,
    "endYear": 400,
    "source": "Pleiades",
    "category": "religion",
    "description": "A small, rectangular Greek temple-type building dated to the first century B.C. and located in the upper agora of Agrigento, on the Poggetto di San Nicola. The name \"Oratory\" comes from its later use as a Christian chapel.",
    "props": {
      "ancientName": "Oratory of Phalaris, Oratory of Phalarys"
    },
    "estimatedTemporal": true
  },
  {
    "id": "pleiades:837997920",
    "type": "sanctuary",
    "name": "Windmill Hill (Athens)",
    "lat": 37.9672,
    "lng": 23.73592,
    "startYear": -77,
    "endYear": 400,
    "source": "Pleiades",
    "category": "religion",
    "description": "A now-disappeared terrace wall and rock cuttings were thought to be the remains of an ancient sanctuary of uncertain identity.",
    "estimatedTemporal": true
  },
  {
    "id": "pleiades:690508611",
    "type": "temple",
    "name": "Mithraeum at Vindovala",
    "lat": 55.001553,
    "lng": -1.828568,
    "startYear": 51,
    "endYear": 400,
    "source": "Pleiades",
    "category": "religion",
    "qid": "Q7376826",
    "description": "A temple sacred to Mithras located at the Roman fort of Vindovala (Rudchester) on Hadrian's Wall.",
    "estimatedTemporal": true
  },
  {
    "id": "pleiades:86419549",
    "type": "temple",
    "name": "Temple of Claudius",
    "lat": 51.890594,
    "lng": 0.903104,
    "startYear": 43,
    "endYear": 400,
    "source": "Pleiades",
    "category": "religion",
    "qid": "Q764886",
    "description": "A large classical-style Roman temple built shortly after the conquest of Britannia in A.D. 43 by the emperor Claudius. Its remains lie beneath Colchester Castle.",
    "props": {
      "ancientName": "Templum Claudii"
    },
    "estimatedTemporal": true
  },
  {
    "id": "pleiades:58370951",
    "type": "temple",
    "name": "Large Temple at Sikait",
    "lat": 24.6308553,
    "lng": 34.7970383,
    "startYear": -27,
    "endYear": 400,
    "source": "Pleiades",
    "category": "religion",
    "qid": "Q56083253",
    "description": "A large rock-cut temple at Sikait in Egypt's Eastern desert.",
    "estimatedTemporal": true
  },
  {
    "id": "pleiades:426309852",
    "type": "temple",
    "name": "Temple of Castor and Pollux, Cora",
    "lat": 41.641643062793136,
    "lng": 12.913119802156487,
    "startYear": -337,
    "endYear": 400,
    "source": "Pleiades",
    "category": "religion",
    "qid": "Q3983310",
    "description": "The Temple of Castor and Pollux at Cora was originally built between the fourth and the second centuries B.C. The partially extant architrave carries an inscription of the first century B.C.",
    "estimatedTemporal": true
  },
  {
    "id": "pleiades:96151228",
    "type": "sanctuary",
    "name": "Gremoulias ancient sanctuary",
    "lat": 38.02366575273294,
    "lng": 22.15659452815674,
    "startYear": -144,
    "endYear": 400,
    "source": "Pleiades",
    "category": "religion",
    "qid": "Q111086660",
    "description": "A sanctuary -- with remains of at least two successive temples (6th C BCE and 4th C BCE), a great altar, and votive deposits -- located on the modern Gremoulias saddle, 3.5km SE of Kalavryta in the northern Peloponnese. The site is not known from ancient literature. Scholars speculate that the deity worshiped may have been Artemis and the site may have been an extra-urban sanctuary of nearby Kynaitha.",
    "props": {
      "ancientName": "Gkremoulas, Gkremoulás, Gremoulás, Gremoulas"
    },
    "estimatedTemporal": true
  },
  {
    "id": "pleiades:147989",
    "type": "sanctuary",
    "name": "Allègre",
    "lat": 44.199232,
    "lng": 4.232932,
    "startYear": -50,
    "endYear": 400,
    "source": "Pleiades",
    "category": "religion",
    "description": "The site of sulphur springs that also revealed evidence for a sanctuary that included 24 altars, so of which carried dedications either to nymphs or mother goddesses. A number of Roman artifacts indicate activity at the site from the Flavian to the Antonine period.",
    "props": {
      "ancientName": "Allègre-les-Fumades"
    },
    "estimatedTemporal": true
  },
  {
    "id": "pleiades:148046",
    "type": "temple",
    "name": "Château-Bas (Roman Temple)",
    "lat": 43.681945127355974,
    "lng": 5.197203980041348,
    "startYear": -110,
    "endYear": 400,
    "source": "Pleiades",
    "category": "religion",
    "qid": "Q516783",
    "description": "An ancient place, cited: BAtlas 15 E2 Château-Bas",
    "estimatedTemporal": true
  },
  {
    "id": "pleiades:148047",
    "type": "sanctuary",
    "name": "Châtelard de Lardiers",
    "lat": 44.0595785,
    "lng": 5.697114,
    "startYear": -50,
    "endYear": 400,
    "source": "Pleiades",
    "category": "religion",
    "description": "A Celto-Ligurian oppidum and sanctuary.",
    "props": {
      "ancientName": "Castellar, Lardiers"
    },
    "estimatedTemporal": true
  },
  {
    "id": "pleiades:148061",
    "type": "temple",
    "name": "Coste Guizon",
    "lat": 44.208742,
    "lng": 3.409764,
    "startYear": -50,
    "endYear": 400,
    "source": "Pleiades",
    "category": "religion",
    "description": "An ancient place, cited: BAtlas 15 A1 Coste Guizon",
    "estimatedTemporal": true
  },
  {
    "id": "pleiades:148104",
    "type": "sanctuary",
    "name": "Lachau",
    "lat": 44.231291,
    "lng": 5.636884,
    "startYear": -50,
    "endYear": 400,
    "source": "Pleiades",
    "category": "religion",
    "description": "A Gallo-Roman sanctuary.",
    "estimatedTemporal": true
  },
  {
    "id": "pleiades:148143",
    "type": "sanctuary",
    "name": "Notre-Dame-de-Laval",
    "lat": 43.941769,
    "lng": 4.489537,
    "startYear": -50,
    "endYear": 400,
    "source": "Pleiades",
    "category": "religion",
    "description": "A pre-Roman and Gallo-Roman sanctuary at the locality called l'Ermitage de Notre-Dame-de-Laval.",
    "props": {
      "ancientName": "Notre-Dame-de-Laval"
    },
    "estimatedTemporal": true,
    "containedInQid": "Q22953578"
  },
  {
    "id": "pleiades:148146",
    "type": "sanctuary",
    "name": "Octon",
    "lat": 43.65493,
    "lng": 3.303714,
    "startYear": -50,
    "endYear": 400,
    "source": "Pleiades",
    "category": "religion",
    "description": "An ancient place, cited: BAtlas 15 A2 Octon",
    "estimatedTemporal": true,
    "containedInQid": "Q136067326"
  },
  {
    "id": "pleiades:148174",
    "type": "sanctuary",
    "name": "Roquepertuse",
    "lat": 43.532580141230156,
    "lng": 5.271336381890937,
    "startYear": -48,
    "endYear": 400,
    "source": "Pleiades",
    "category": "religion",
    "qid": "Q968431",
    "description": "An ancient place, cited: BAtlas 15 E2 Roquepertuse",
    "props": {
      "ancientName": "Roquepertuse"
    },
    "estimatedTemporal": true
  },
  {
    "id": "pleiades:148175",
    "type": "sanctuary",
    "name": "Roujan",
    "lat": 43.503911,
    "lng": 3.312483,
    "startYear": -110,
    "endYear": 400,
    "source": "Pleiades",
    "category": "religion",
    "description": "An ancient place, cited: BAtlas 15 A2 Roujan",
    "estimatedTemporal": true
  },
  {
    "id": "pleiades:157797",
    "type": "sanctuary",
    "name": "L’Acapte",
    "lat": 43.061896,
    "lng": 6.1486729,
    "startYear": -500,
    "endYear": 400,
    "source": "Pleiades",
    "category": "religion",
    "description": "Site of a rural sanctuary dedicated to Aristaeus, son of Apollo.",
    "estimatedTemporal": true
  },
  {
    "id": "pleiades:157855",
    "type": "sanctuary",
    "name": "Fox-Amphoux",
    "lat": 43.58614,
    "lng": 6.101579,
    "startYear": -110,
    "endYear": 400,
    "source": "Pleiades",
    "category": "religion",
    "description": "At Fox-Amphoux the remains of a Roman villa were discovered, adjacent to those of a sanctuary ad fines that may have been dedicated to the Capitoline triad. The site was in use from the time of Augustus until the third century AD.",
    "props": {
      "ancientName": "Fox-Amphoux"
    },
    "estimatedTemporal": true
  },
  {
    "id": "pleiades:276676984",
    "type": "sanctuary",
    "name": "Temple of Zeus Olympius (Jerash)",
    "lat": 32.276805945625405,
    "lng": 35.89034192885204,
    "startYear": 6,
    "endYear": 400,
    "source": "Pleiades",
    "category": "religion",
    "qid": "Q82074340",
    "description": "The monumental sanctuary of Zeus Olympius at Jerash dates to the 160s CE.",
    "props": {
      "ancientName": "Tempel des Zeus Olympius"
    },
    "estimatedTemporal": true
  },
  {
    "id": "pleiades:673950517",
    "type": "temple",
    "name": "Asea Vigla",
    "lat": 37.4338624,
    "lng": 22.3248715,
    "startYear": -144,
    "endYear": 400,
    "source": "Pleiades",
    "category": "religion",
    "qid": "Q111082717",
    "description": "A Doric temple dated to the sixth century BCE.",
    "props": {
      "ancientName": "Asea Vigla temple"
    },
    "estimatedTemporal": true
  },
  {
    "id": "pleiades:898745908",
    "type": "temple",
    "name": "Temple of Venus Genetrix",
    "lat": 41.8941432733696,
    "lng": 12.484843845321317,
    "startYear": -96,
    "endYear": 4,
    "source": "Pleiades",
    "category": "religion",
    "qid": "Q2459870",
    "description": "The Temple of Venus Genetrix located in the Forum Iulium was dedicated ca. 46 BCE.",
    "props": {
      "ancientName": "Tempio di Venere Genitrice al Foro di Cesare"
    },
    "estimatedTemporal": true
  },
  {
    "id": "pleiades:254082752",
    "type": "temple",
    "name": "Temple of Talamonaccio",
    "lat": 42.55176275512819,
    "lng": 11.169746681072011,
    "startYear": -500,
    "endYear": 400,
    "source": "Pleiades",
    "category": "religion",
    "qid": "Q3517625",
    "description": "An Etruscan temple of the fourth century BCE, associated with the ancient settlement of Telamon. It lies on Mount Talamonaccio, across the bay from the modern village of Talamone, north of Orbetello, Italy.",
    "estimatedTemporal": true
  },
  {
    "id": "pleiades:115852119",
    "type": "temple",
    "name": "Temple to Nefertari at Abu Simbel",
    "lat": 22.3367165,
    "lng": 31.6272865,
    "startYear": -500,
    "endYear": 400,
    "source": "Pleiades",
    "category": "religion",
    "description": "The smaller of the two temples at Abu Simbel, dedicated to the goddess Hathor and the deified queen Nefertari. The temple was relocated between 1964 and 1968 to prevent its submersion under Lake Nasser after the construction of the Aswan High Dam.",
    "estimatedTemporal": true,
    "qid": "Q6655437"
  },
  {
    "id": "pleiades:133577441",
    "type": "sanctuary",
    "name": "Camp celtique de la Bure",
    "lat": 48.326764,
    "lng": 6.940044,
    "startYear": -50,
    "endYear": 400,
    "source": "Pleiades",
    "category": "religion",
    "qid": "Q2935231",
    "description": "A Gallo-Roman settlement of a commercial nature located on the Meurthe river. Archaeological evidence for earthworks, as well as ritual activity, has been discovered. The Gallo-Roman ramparts, in a later phase, make use of marble sculpture as spolia.",
    "estimatedTemporal": true
  },
  {
    "id": "pleiades:912820",
    "type": "temple",
    "name": "Bard-i Nishande",
    "lat": 32.03529052889415,
    "lng": 49.33459019371017,
    "startYear": -500,
    "endYear": 400,
    "source": "Pleiades",
    "category": "religion",
    "description": "Bard-i Nishande is the site of a ruined ancient landscape consisting of multiple complexes. According to K. Schippmann, these complexes include a ruler's residence or \"castle\", a terraced platform used for ritual activity, and a lower town.",
    "props": {
      "ancientName": "Bardneshāndeh, Bard Neshandeh, Bard-i Nishandi, Bard-è Néchandeh "
    },
    "estimatedTemporal": true
  },
  {
    "id": "pleiades:912875",
    "type": "temple",
    "name": "Kai Ka'us",
    "lat": 30.707126,
    "lng": 50.137002,
    "startYear": -500,
    "endYear": 400,
    "source": "Pleiades",
    "category": "religion",
    "description": "An ancient place, cited: BAtlas 93 G3 Kai Ka'us",
    "estimatedTemporal": true
  },
  {
    "id": "pleiades:912882",
    "type": "temple",
    "name": "Khayrabad Bala",
    "lat": 30.499441,
    "lng": 50.465353,
    "startYear": -500,
    "endYear": 400,
    "source": "Pleiades",
    "category": "religion",
    "description": "An ancient place, cited: BAtlas 93 G3 Khayrabad Bala",
    "estimatedTemporal": true
  },
  {
    "id": "pleiades:912934",
    "type": "sanctuary",
    "name": "Shami",
    "lat": 32.053345050000004,
    "lng": 49.6903363,
    "startYear": -150,
    "endYear": -50,
    "source": "Pleiades",
    "category": "religion",
    "description": "Site in the Shami Valley (Khuzestan Province, Iran), a settlement or sanctuary of the Parthian period (ca. 2nd century BCE-2nd century CE). In 1936, a team led by Marc Aurel Stein uncovered a bronze sculpture (the \"Shami statue\") at the site.",
    "props": {
      "ancientName": "Kal-e Chendar, Kal Chenār"
    },
    "estimatedTemporal": true
  },
  {
    "id": "pleiades:459238841",
    "type": "temple",
    "name": "Temple of \"Artemis Epikrateia\"",
    "lat": 38.66238938842765,
    "lng": 20.99687675316567,
    "startYear": -500,
    "endYear": 400,
    "source": "Pleiades",
    "category": "religion",
    "description": "A classical/hellenistic temple located in the likely territory of Acarnanian Alyzeia. The temple site lies over 6km southeast from the ancient walled city (about a kilometer south of modern Paliovarka, Greece) at a site known in modern times as Drymonas Archontochoriou. It is perched on rising ground with a view westward to the channel and the island of Karnos (modern Kalamos). Inscriptions have been recovered from the site, and an unlooted portion of a votive deposit was scientifically excavated in the 1990s.",
    "props": {
      "ancientName": "Drymonas Archontochoriou"
    },
    "estimatedTemporal": true
  },
  {
    "id": "pleiades:43496934",
    "type": "sanctuary",
    "name": "Ara della Regina",
    "lat": 42.25881351320144,
    "lng": 11.801539315731208,
    "startYear": -264,
    "endYear": 400,
    "source": "Pleiades",
    "category": "religion",
    "qid": "Q2859314",
    "description": "A fourth to third century B.C. sanctuary at Tarquinia.",
    "props": {
      "ancientName": "Ara della Regina"
    },
    "estimatedTemporal": true
  },
  {
    "id": "pleiades:609762511",
    "type": "temple",
    "name": "Temple of Seti I",
    "lat": 26.1845358,
    "lng": 31.9183799,
    "startYear": -27,
    "endYear": 400,
    "source": "Pleiades",
    "category": "religion",
    "qid": "Q1536148",
    "description": "The Temple of Seti I at Abydos is also known as the \"Great Temple of Abydos\".",
    "estimatedTemporal": true
  },
  {
    "id": "pleiades:438960368",
    "type": "temple",
    "name": "Temple of Ramesses II",
    "lat": 26.1868288,
    "lng": 31.9164026,
    "startYear": -27,
    "endYear": 400,
    "source": "Pleiades",
    "category": "religion",
    "qid": "Q1881992",
    "description": "The Temple of Ramesses II at Abydos in Egypt.",
    "estimatedTemporal": true
  },
  {
    "id": "pleiades:218039420",
    "type": "sanctuary",
    "name": "Aliphera sanctuary",
    "lat": 37.528915477173705,
    "lng": 21.866914742432865,
    "startYear": -144,
    "endYear": 400,
    "source": "Pleiades",
    "category": "religion",
    "description": "Pausanias observed sanctuaries of both Asclepius and Athena at Aliphera, as well as an altar of Zeus Lecheates.",
    "estimatedTemporal": true,
    "containedInQid": "Q38281053"
  },
  {
    "id": "pleiades:477915982",
    "type": "temple",
    "name": "Deir el-Shelwit",
    "lat": 25.69515427320102,
    "lng": 32.57874777789502,
    "startYear": -27,
    "endYear": 400,
    "source": "Pleiades",
    "category": "religion",
    "qid": "Q820028",
    "description": "A small temple dedicated to Isis on West bank of the Nile at Luxor. Its ancient name is unknown.",
    "estimatedTemporal": true
  },
  {
    "id": "pleiades:514380156",
    "type": "sanctuary",
    "name": "Sanctuary of Montélu",
    "lat": 45.8488517,
    "lng": 0.7674574,
    "startYear": -50,
    "endYear": 400,
    "source": "Pleiades",
    "category": "religion",
    "description": "The Sanctuary of Montélu lies to the west of Chassenon. The building, only partially excavated, is of an octagonal plan and oriented to the cardinal points.",
    "estimatedTemporal": true
  },
  {
    "id": "pleiades:576630079",
    "type": "shrine",
    "name": "Bakcheion",
    "lat": 37.97154671717833,
    "lng": 23.721425581615396,
    "startYear": 50,
    "endYear": 150,
    "source": "Pleiades",
    "category": "religion",
    "qid": "Q136416727",
    "description": "A sanctuary to the west of the Acropolis of Athens, which was the clubhouse for a private religious association called the Iobakchoi, in the 2nd century AD.",
    "props": {
      "ancientName": "Bakcheîon, Baccheion"
    },
    "estimatedTemporal": true
  },
  {
    "id": "pleiades:238098309",
    "type": "temple",
    "name": "Serapeum",
    "lat": 41.75328855710104,
    "lng": 12.283785330585786,
    "startYear": 76,
    "endYear": 176,
    "source": "Pleiades",
    "category": "religion",
    "description": "The Serapeum in Ostia's Regio III was built between 123 and 126 CE thanks to private patronage.",
    "estimatedTemporal": true
  },
  {
    "id": "pleiades:261794683",
    "type": "temple",
    "name": "Templum Veneris et Romae",
    "lat": 41.890857586431984,
    "lng": 12.489665349994286,
    "startYear": 71,
    "endYear": 171,
    "source": "Pleiades",
    "category": "religion",
    "qid": "Q430792",
    "description": "A double temple sacred to Venus Felix and Roma Aeterna built by Hadrian on the slope of the Velian hill to the north of the Sacra Via beginning in 121 CE.",
    "props": {
      "ancientName": "Templum Veneris et Romae"
    },
    "estimatedTemporal": true
  },
  {
    "id": "pleiades:119455743",
    "type": "sanctuary",
    "name": "Temple of Hercules at Montorio al Vomano",
    "lat": 42.5784399,
    "lng": 13.5942773,
    "startYear": -301,
    "endYear": 400,
    "source": "Pleiades",
    "category": "religion",
    "qid": "Q26220411",
    "description": "A sanctuary of Hercules located in the territory of Teramo near the Vomano river.",
    "estimatedTemporal": true
  },
  {
    "id": "pleiades:375591100",
    "type": "temple",
    "name": "Temple of Athena at Paestum",
    "lat": 40.42457,
    "lng": 15.0052578,
    "startYear": -271,
    "endYear": 400,
    "source": "Pleiades",
    "category": "religion",
    "qid": "Q3983228",
    "description": "A Late Archaic Doric Temple of Athena (ca. 500 B.C.) at Paestum.",
    "props": {
      "ancientName": "Temple of Athena"
    },
    "estimatedTemporal": true
  },
  {
    "id": "pleiades:363965",
    "type": "temple",
    "name": "el-Garrusc",
    "lat": 31.160761,
    "lng": 16.9848,
    "startYear": -91,
    "endYear": 400,
    "source": "Pleiades",
    "category": "religion",
    "description": "An ancient place, cited: BAtlas 37 B1 el-Garrusc",
    "estimatedTemporal": true
  },
  {
    "id": "pleiades:364007",
    "type": "temple",
    "name": "Quarrush",
    "lat": 31.148582,
    "lng": 16.95207,
    "startYear": -91,
    "endYear": 400,
    "source": "Pleiades",
    "category": "religion",
    "description": "An ancient place, cited: BAtlas 37 B1 Quarrush",
    "estimatedTemporal": true
  },
  {
    "id": "pleiades:373762",
    "type": "temple",
    "name": "Bu Darag",
    "lat": 32.818179,
    "lng": 21.840833,
    "startYear": -91,
    "endYear": 400,
    "source": "Pleiades",
    "category": "religion",
    "description": "An ancient place, cited: BAtlas 38 C1 Bu Darag",
    "estimatedTemporal": true
  },
  {
    "id": "pleiades:373794",
    "type": "sanctuary",
    "name": "Gasr ar-Rakam",
    "lat": 32.566261,
    "lng": 22.602681,
    "startYear": -91,
    "endYear": 400,
    "source": "Pleiades",
    "category": "religion",
    "description": "An ancient place, cited: BAtlas 38 D1 Gasr ar-Rakam",
    "estimatedTemporal": true,
    "containedInQid": "Q106410435"
  },
  {
    "id": "pleiades:373797",
    "type": "temple",
    "name": "Gasr Bu Zayd",
    "lat": 32.582681,
    "lng": 22.547967,
    "startYear": -91,
    "endYear": 400,
    "source": "Pleiades",
    "category": "religion",
    "description": "An ancient place, cited: BAtlas 38 D1 Gasr Bu Zayd",
    "estimatedTemporal": true
  },
  {
    "id": "pleiades:373816",
    "type": "temple",
    "name": "Gasr Zeitun",
    "lat": 32.624289,
    "lng": 22.827284,
    "startYear": -91,
    "endYear": 400,
    "source": "Pleiades",
    "category": "religion",
    "description": "An ancient place, cited: BAtlas 38 D1 Gasr Zeitun",
    "estimatedTemporal": true,
    "qid": "Q106417749"
  },
  {
    "id": "pleiades:373882",
    "type": "temple",
    "name": "Ruus el-Aslab",
    "lat": 32.923801,
    "lng": 22.1138,
    "startYear": -500,
    "endYear": 400,
    "source": "Pleiades",
    "category": "religion",
    "description": "An ancient place, cited: BAtlas 38 D1 Ruus el-Aslab",
    "estimatedTemporal": true
  },
  {
    "id": "pleiades:373887",
    "type": "temple",
    "name": "Serapeion",
    "lat": 31.328274,
    "lng": 20.10588,
    "startYear": -500,
    "endYear": 400,
    "source": "Pleiades",
    "category": "religion",
    "description": "An ancient place, cited: BAtlas 38 B2 Serapeion",
    "props": {
      "ancientName": "Serapeion"
    },
    "estimatedTemporal": true
  },
  {
    "id": "pleiades:373909",
    "type": "temple",
    "name": "Wadi Senab",
    "lat": 32.7501975,
    "lng": 21.7786585,
    "startYear": -91,
    "endYear": 400,
    "source": "Pleiades",
    "category": "religion",
    "description": "An ancient place, cited: BAtlas 38 C1 Wadi Senab",
    "estimatedTemporal": true
  },
  {
    "id": "pleiades:375265",
    "type": "temple",
    "name": "Temple at Asgafa",
    "lat": 32.7894,
    "lng": 22.2969,
    "startYear": -91,
    "endYear": 400,
    "source": "Pleiades",
    "category": "religion",
    "description": "An ancient place, cited: BAtlas 38 D1 no. 29 (Asgafa)",
    "estimatedTemporal": true
  },
  {
    "id": "pleiades:383709",
    "type": "sanctuary",
    "name": "Minerva Cabardiacensis",
    "lat": 44.8438053,
    "lng": 9.5173805,
    "startYear": -188,
    "endYear": 400,
    "source": "Pleiades",
    "category": "religion",
    "description": "An ancient place, cited: BAtlas 39 F4 Minerva Cabardiacensis",
    "props": {
      "ancientName": "Minerva Cabardiacensis"
    },
    "estimatedTemporal": true
  },
  {
    "id": "pleiades:383713",
    "type": "sanctuary",
    "name": "Monte S. Martino",
    "lat": 45.916602,
    "lng": 10.8187883,
    "startYear": -14,
    "endYear": 400,
    "source": "Pleiades",
    "category": "religion",
    "description": "The remains of a multi-period pre-Roman and Roman sanctuary.",
    "props": {
      "ancientName": "Monte S. Martino"
    },
    "estimatedTemporal": true
  },
  {
    "id": "pleiades:383760",
    "type": "shrine",
    "name": "Riva S. Vitale",
    "lat": 45.9051555,
    "lng": 8.971070999999998,
    "startYear": -14,
    "endYear": 400,
    "source": "Pleiades",
    "category": "religion",
    "description": "An ancient place, cited: BAtlas 39 D2 Riva S. Vitale",
    "props": {
      "ancientName": "Riva S. Vitale"
    },
    "estimatedTemporal": true
  },
  {
    "id": "pleiades:584889481",
    "type": "temple",
    "name": "Temple of Hera, Olympia",
    "lat": 37.638869125,
    "lng": 21.6297937,
    "startYear": -144,
    "endYear": 400,
    "source": "Pleiades",
    "category": "religion",
    "qid": "Q633572",
    "description": "The Temple of Hera at Olympia, also known as the Heraion, is a peripteral temple located in the northwest corner of the Altis precinct, dedicated to Hera. Built ca. 600-590 B.C., the Heraion is the oldest temple at Olympia and one of the earliest known examples of the Doric order in Greece.",
    "props": {
      "ancientName": "Temple of Hera, Olympia"
    },
    "estimatedTemporal": true
  },
  {
    "id": "pleiades:550819",
    "type": "sanctuary",
    "name": "Phanai",
    "lat": 38.2070923,
    "lng": 25.9305917,
    "startYear": -500,
    "endYear": 400,
    "source": "Pleiades",
    "category": "religion",
    "description": "A large ancient sanctuary of Apollo, located on the southwest coast of the island of Chios.",
    "props": {
      "ancientName": "Phanai"
    },
    "estimatedTemporal": true,
    "containedInQid": "Q25164045"
  },
  {
    "id": "pleiades:550844",
    "type": "temple",
    "name": "Prepelaion?",
    "lat": 38.13465,
    "lng": 27.115106,
    "startYear": -126,
    "endYear": 400,
    "source": "Pleiades",
    "category": "religion",
    "description": "An ancient place, cited: BAtlas 56 E5 Prepelaion?",
    "props": {
      "ancientName": "Prepelaion"
    },
    "estimatedTemporal": true
  },
  {
    "id": "pleiades:550885",
    "type": "sanctuary",
    "name": "Skala Polykhnitou",
    "lat": 39.107795,
    "lng": 26.173588,
    "startYear": -77,
    "endYear": 400,
    "source": "Pleiades",
    "category": "religion",
    "description": "An ancient place, cited: BAtlas 56 C3 Skala Polykhnitou",
    "estimatedTemporal": true
  },
  {
    "id": "pleiades:550892",
    "type": "sanctuary",
    "name": "Smintheion",
    "lat": 39.536207099825425,
    "lng": 26.11774149528415,
    "startYear": -500,
    "endYear": 400,
    "source": "Pleiades",
    "category": "religion",
    "qid": "Q65072495",
    "description": "Homer mentions the temple of Apollo Smintheus as the shrine where Chryses was priest. The second-century B.C. remains of an Ionic sanctuary with an adjacent town are located in the southwestern Troad near modern Gülpinar.",
    "props": {
      "ancientName": "Smintheion"
    },
    "estimatedTemporal": true
  },
  {
    "id": "pleiades:550918",
    "type": "sanctuary",
    "name": "Thea Larmene, T.",
    "lat": 38.645519,
    "lng": 28.535958,
    "startYear": -126,
    "endYear": 400,
    "source": "Pleiades",
    "category": "religion",
    "description": "An ancient place, cited: BAtlas 56 H4 Thea Larmene, T.",
    "props": {
      "ancientName": "Thea Larmene, T."
    },
    "estimatedTemporal": true
  },
  {
    "id": "pleiades:550956",
    "type": "sanctuary",
    "name": "Zeus Antigonios, T.",
    "lat": 38.981673,
    "lng": 28.612245,
    "startYear": -126,
    "endYear": 400,
    "source": "Pleiades",
    "category": "religion",
    "description": "An ancient place, cited: BAtlas 56 H3 Zeus Antigonios, T.",
    "props": {
      "ancientName": "Zeus Antigonios, T."
    },
    "estimatedTemporal": true
  },
  {
    "id": "pleiades:570096",
    "type": "sanctuary",
    "name": "Apollo Korythos Sanctuary",
    "lat": 36.8640412,
    "lng": 21.9186273,
    "startYear": -500,
    "endYear": 400,
    "source": "Pleiades",
    "category": "religion",
    "qid": "Q25164241",
    "description": "A multi-phase sanctuary of Apollo that begins in the archaic period. Pausanias visited the sanctuary and observed two cult statues of the god. One of these, sacred to Apollo Corynthus, was of wood. The other, sacred to Apollo Argeotas, was of bronze.",
    "props": {
      "ancientName": "Apollo Korythos, T."
    },
    "estimatedTemporal": true
  },
  {
    "id": "pleiades:570097",
    "type": "sanctuary",
    "name": "Apollo Maleatas, T.",
    "lat": 37.12702,
    "lng": 22.710967,
    "startYear": -144,
    "endYear": 400,
    "source": "Pleiades",
    "category": "religion",
    "description": "A cult of Apollo Maleatas has been identified at Profitis Ilias, Kosmas thanks to epigraphic evidence.",
    "props": {
      "ancientName": "Apollo Maleatas, T."
    },
    "estimatedTemporal": true
  },
  {
    "id": "pleiades:570119",
    "type": "sanctuary",
    "name": "Sanctuary of Artemis Limnatis on Mount Lapithos",
    "lat": 37.546685,
    "lng": 21.699566,
    "startYear": 1850,
    "endYear": 1950,
    "source": "Pleiades",
    "category": "religion",
    "description": "This sanctuary, located near the modern village of Artemida in Elis (Greece), was excavated in the early 20th century.",
    "props": {
      "ancientName": "Heiligtum der Artemis Limnatis"
    },
    "estimatedTemporal": true
  },
  {
    "id": "pleiades:570120",
    "type": "sanctuary",
    "name": "Sanctuary of Artemis Limnatis in the Taygetos",
    "lat": 36.96028,
    "lng": 22.253477,
    "startYear": -500,
    "endYear": 400,
    "source": "Pleiades",
    "category": "religion",
    "description": "A sanctuary in the Taygetos mountains, attested in both literary and epigraphic texts, its precise location cannot yet be determined; however scattered and reused architectural components and inscriptions have been found in the area of the Chapel of Panagia Kapsocherovolousa, Volimos, northwest of modern Alagonia in the Peloponnese. Of uncertain foundation date, but confirmed by the Roman Senate under Tiberius as belonging to the Messenians (as part of the Ager Denthaliatis), rather than the Spartans.",
    "props": {
      "ancientName": "Limnatis Artemis"
    },
    "estimatedTemporal": true
  },
  {
    "id": "pleiades:570148",
    "type": "temple",
    "name": "Bassai",
    "lat": 37.42964394536577,
    "lng": 21.90032237307956,
    "startYear": 350,
    "endYear": 450,
    "source": "Pleiades",
    "category": "religion",
    "qid": "Q464923",
    "description": "The Temple of Apollo Epikourios (often Latinized as Epicurius) at Bassae is an innovative mid-5th century B.C. Doric temple in Arcadia. The temple preserves the oldest Corinthian capital yet found. It was added to the UNESCO World Heritage List in 1986.",
    "props": {
      "ancientName": "Bassai"
    },
    "estimatedTemporal": true
  },
  {
    "id": "pleiades:570196",
    "type": "sanctuary",
    "name": "Didymoi",
    "lat": 37.500047,
    "lng": 23.154194,
    "startYear": -144,
    "endYear": 400,
    "source": "Pleiades",
    "category": "religion",
    "qid": "Q125936606",
    "description": "A place described by Pausanias who indicates that three sanctuaries are to be found here, namely those of Apollo, Poseidon, and Demeter.",
    "props": {
      "ancientName": "Didymoi"
    },
    "estimatedTemporal": true
  },
  {
    "id": "pleiades:570216",
    "type": "sanctuary",
    "name": "Sanctuary of Eleusinian Demeter in Laconia",
    "lat": 37.0138,
    "lng": 22.4198,
    "startYear": -144,
    "endYear": 400,
    "source": "Pleiades",
    "category": "religion",
    "description": "An extensive sanctuary mentioned by Pausanias and located at the modern village of Kalyvia Sochas by virtue of the discovery of a number of inscriptions on the site. Very little of the sanctuary is visible today, as the site was damaged by a number of floods and only ever partly excavated. Modern signage in the village marks the location of some finds.",
    "props": {
      "ancientName": "Kalyvia Sochas, Kalývia Sokhás"
    },
    "estimatedTemporal": true
  },
  {
    "id": "pleiades:570288",
    "type": "sanctuary",
    "name": "Heraion",
    "lat": 38.02810774060178,
    "lng": 22.852818722677043,
    "startYear": -500,
    "endYear": 400,
    "source": "Pleiades",
    "category": "religion",
    "qid": "Q2070087",
    "description": "The Heraion of Perachora.",
    "props": {
      "ancientName": "Heraion"
    },
    "estimatedTemporal": true
  },
  {
    "id": "pleiades:570289",
    "type": "sanctuary",
    "name": "Heraion (Argolis)",
    "lat": 37.69209410714744,
    "lng": 22.774771642852013,
    "startYear": -144,
    "endYear": 400,
    "source": "Pleiades",
    "category": "religion",
    "qid": "Q1607754",
    "description": "The Argive Heraion was a major ancient sanctuary sacred to Hera located in the Argolid.",
    "props": {
      "ancientName": "Heraion Argolis"
    },
    "estimatedTemporal": true
  },
  {
    "id": "pleiades:570291",
    "type": "temple",
    "name": "Hermai",
    "lat": 37.32399,
    "lng": 22.543094,
    "startYear": -144,
    "endYear": 400,
    "source": "Pleiades",
    "category": "religion",
    "qid": "Q123501155",
    "description": "An ancient place, cited: BAtlas 58 D3 Hermai",
    "props": {
      "ancientName": "Hermai"
    },
    "estimatedTemporal": true
  },
  {
    "id": "pleiades:570302",
    "type": "sanctuary",
    "name": "Hyperteleaton",
    "lat": 36.732977,
    "lng": 22.904198,
    "startYear": 1750,
    "endYear": 1850,
    "source": "Pleiades",
    "category": "religion",
    "qid": "Q60792068",
    "description": "Sanctuary of Apollo Hyperteleatas, partially excavated in 1885 and 1968. In ancient literature the sanctuary is only mentioned by Pausanias, in whose time it was called the Hyperteleaton and was dedicated to Asclepius. The site is located south of Phoiniki in the southeastern Peloponnese at a place known in the 19th century called Chasanaga.",
    "props": {
      "ancientName": "Chasanaga, Chassanaga"
    },
    "estimatedTemporal": true
  },
  {
    "id": "pleiades:629225363",
    "type": "sanctuary",
    "name": "Aphrodite sanctuary at Lokroi Epizephyrioi",
    "lat": 38.2111226,
    "lng": 16.237691,
    "startYear": -500,
    "endYear": 400,
    "source": "Pleiades",
    "category": "religion",
    "description": "The worship of Aphrodite is significant in the colonial city of Lokroi Epizephyrioi.",
    "estimatedTemporal": true,
    "qid": "Q123352497"
  },
  {
    "id": "pleiades:502577470",
    "type": "temple",
    "name": "Temple E at Selinus",
    "lat": 37.5867781,
    "lng": 12.8344372,
    "startYear": -500,
    "endYear": 400,
    "source": "Pleiades",
    "category": "religion",
    "qid": "Q3983181",
    "description": "A fifth century B.C. Doric temple, sacred to perhaps Hera or Dionysus, located on the eastern hill at Selinus.",
    "estimatedTemporal": true
  },
  {
    "id": "pleiades:502577471",
    "type": "sanctuary",
    "name": "Temple of Demeter at the Sanctuary of Demeter Malophoros, Selinus",
    "lat": 37.58686507723378,
    "lng": 12.816941730400163,
    "startYear": -300,
    "endYear": -200,
    "source": "Pleiades",
    "category": "religion",
    "qid": "Q16331965",
    "description": "The Temple of Demeter was used for the worship of Demeter (Malophoros), goddess of fertility, grain, and agriculture. Built in the seventh century BC, the temple was used continuously until its abandonment ca. 250 BC",
    "props": {
      "ancientName": "Sanctuary of Demeter Malophoros"
    },
    "estimatedTemporal": true
  },
  {
    "id": "pleiades:963047542",
    "type": "temple",
    "name": "Ramesseum",
    "lat": 25.72779980402695,
    "lng": 32.61023137926131,
    "startYear": -27,
    "endYear": 400,
    "source": "Pleiades",
    "category": "religion",
    "qid": "Q311581",
    "description": "The funerary temple of Ramesses II, built within the area known as the Ipet-isut, \"The Most Selected of Places\", along the Nile River.",
    "props": {
      "ancientName": "Ramesseum"
    },
    "estimatedTemporal": true
  },
  {
    "id": "pleiades:503731094",
    "type": "temple",
    "name": "Temple of Jupiter (Silifke)",
    "lat": 36.375833549999996,
    "lng": 33.930188449999996,
    "startYear": -66,
    "endYear": 400,
    "source": "Pleiades",
    "category": "religion",
    "description": "A second-century CE temple sacred to Jupiter.",
    "props": {
      "ancientName": "Temple of Jupiter (Silifke)"
    },
    "qid": "Q4903971",
    "estimatedTemporal": true
  },
  {
    "id": "pleiades:124319311",
    "type": "sanctuary",
    "name": "Santuari Sanniti del Monte Cila",
    "lat": 41.3666578,
    "lng": 14.3652285,
    "startYear": -291,
    "endYear": 400,
    "source": "Pleiades",
    "category": "religion",
    "description": "The ruins of a sanctuary associated with the Samnites located on Monte Cila, where a megalithic fortification is also attested.",
    "estimatedTemporal": true
  },
  {
    "id": "pleiades:116141527",
    "type": "temple",
    "name": "Sanctuary of Apollo Ismenios, Thebes",
    "lat": 38.31647645,
    "lng": 23.3224642,
    "startYear": -77,
    "endYear": 400,
    "source": "Pleiades",
    "category": "religion",
    "qid": "Q106526588",
    "description": "At Thebes, the foundations of a Doric temple dating to the Archaic and Classical periods were excavated by the American School of Classical Studies in 2015-6.",
    "estimatedTemporal": true
  },
  {
    "id": "pleiades:237645058",
    "type": "temple",
    "name": "Dún Ailinne",
    "lat": 53.1133208,
    "lng": -6.7751535,
    "startYear": -500,
    "endYear": 400,
    "source": "Pleiades",
    "category": "religion",
    "description": "An ancient ceremonial site located in County Kildare, Ireland. The circular enclosure once covered ca. 13 ha.",
    "estimatedTemporal": true,
    "qid": "Q524928"
  },
  {
    "id": "pleiades:627870063",
    "type": "sanctuary",
    "name": "Asklepieion of Pheneos",
    "lat": 37.909042031619826,
    "lng": 22.30752398810052,
    "startYear": -144,
    "endYear": 400,
    "source": "Pleiades",
    "category": "religion",
    "qid": "Q111381592",
    "description": "The Asklepieion of Pheneos dates to the later second century BCE. It was identified via excavation in the late 1950s.",
    "estimatedTemporal": true
  },
  {
    "id": "pleiades:837295553",
    "type": "temple",
    "name": "Temple of Ellesyia",
    "lat": 22.622568,
    "lng": 31.962662,
    "startYear": -500,
    "endYear": 400,
    "source": "Pleiades",
    "category": "religion",
    "qid": "Q3517517",
    "description": "A small rock-cut temple dedicated to Amun, Horus, and Satis dated to the 18th Dynasty. Originally located near Qasr Ibrim/Premis, the temple was relocated to the Museo Egizio in Turin, Italy, in the 1960s prior to the area's flooding beneath the surface of Lake Nasser.",
    "estimatedTemporal": true
  },
  {
    "id": "pleiades:713767971",
    "type": "temple",
    "name": "Mahabodhi Temple",
    "lat": 24.695459631707845,
    "lng": 84.99144152946182,
    "startYear": -500,
    "endYear": 400,
    "source": "Pleiades",
    "category": "religion",
    "qid": "Q4513",
    "description": "One of the four main Buddhist pilgrimage sites, identified as the place where Gautama Buddha attained Enlightenment. The first temple on the site was built by Emperor Asoka in the third century B.C., and the present temple dates from the fifth or sixth centuries. It is one of the earliest Buddhist temples built entirely in brick, still standing in India, from the late Gupta period. The site was largely abandoned from the twelfth-eighteenth centuries. It was named a UNESCO World Heritage Site in 2002.",
    "props": {
      "ancientName": "Mahabodhi Temple"
    },
    "estimatedTemporal": true
  },
  {
    "id": "pleiades:116781940",
    "type": "sanctuary",
    "name": "Frascole, S. Martino a Poggio",
    "lat": 43.89267,
    "lng": 11.52182,
    "startYear": -223,
    "endYear": 400,
    "source": "Pleiades",
    "category": "religion",
    "description": "A stips votiva was discovered at the site of the Christian church of San Martino a Poggio - Frascole in 1887. The main ancient activity at the site likely took place during the middle of the third century B.C.",
    "estimatedTemporal": true
  },
  {
    "id": "pleiades:676148653",
    "type": "temple",
    "name": "Temple of Roma and Augustus, Leptis Magna",
    "lat": 32.639576090362155,
    "lng": 14.294857584803797,
    "startYear": -58,
    "endYear": 42,
    "source": "Pleiades",
    "category": "religion",
    "qid": "Q82074409",
    "description": "The Temple of Roma and Augustus at Leptis Magna is a large temple (ca. 46 x 20 meters) situated on the so-called \"Old Forum\". It was initially erected between 8 BCE and 19 CE using limestone from Ras el-Hammam. The temple has a pseudo-peripteral temple and is oriented to the southeast. Reconstruction and restoration in the second century CE used marble instead of the original limestone.",
    "props": {
      "ancientName": "Tempel der Roma und des Augustus Leptis Magna"
    },
    "estimatedTemporal": true
  },
  {
    "id": "pleiades:676148654",
    "type": "temple",
    "name": "Capitolium of Terracina",
    "lat": 41.292175571707304,
    "lng": 13.248659968336318,
    "startYear": -500,
    "endYear": 400,
    "source": "Pleiades",
    "category": "religion",
    "qid": "Q30524229",
    "description": "A Tuscanic podium temple that is often referred to as being of the Capitolium type was built at Terracina in the middle of the first century BCE.",
    "estimatedTemporal": true
  },
  {
    "id": "pleiades:645513764",
    "type": "sanctuary",
    "name": "Tawern Roman temple complex",
    "lat": 49.664408,
    "lng": 6.509593,
    "startYear": -50,
    "endYear": 400,
    "source": "Pleiades",
    "category": "religion",
    "description": "This reconstructed (in-situ) temple complex stands on a hill called Metzenberg, just to the southwest of modern Tawern in Germany. A partially excavated Gallo-Roman vicus lies at the foot of the hill, closer to town.",
    "estimatedTemporal": true
  },
  {
    "id": "pleiades:534036732",
    "type": "temple",
    "name": "Re-Buried Hellenistic Temple and Workshops",
    "lat": 32.927364,
    "lng": 35.077894,
    "startYear": -63,
    "endYear": 400,
    "source": "Pleiades",
    "category": "religion",
    "description": "Excavations on site of post office at 49 Ben Ami St. revealed Hellenistic remains, including a dedication to Zeus Soter on behalf of Antiochos VII by a courtier (SEG XIX 9094). This inscription was associated with Hellenistic architecture of a temple-like character. Nearby workshops also uncovered.",
    "estimatedTemporal": true
  },
  {
    "id": "pleiades:844876",
    "type": "temple",
    "name": "Beşdut",
    "lat": 40.703576,
    "lng": 33.965162,
    "startYear": -63,
    "endYear": 400,
    "source": "Pleiades",
    "category": "religion",
    "description": "An ancient place, cited: BAtlas 86 E3 Beşdut",
    "estimatedTemporal": true
  },
  {
    "id": "pleiades:845043",
    "type": "sanctuary",
    "name": "Poseidon, T.",
    "lat": 41.686799,
    "lng": 32.250706,
    "startYear": -500,
    "endYear": 400,
    "source": "Pleiades",
    "category": "religion",
    "description": "An ancient place, cited: BAtlas 86 C2 Poseidon, T.",
    "props": {
      "ancientName": "Poseidon, T."
    },
    "estimatedTemporal": true
  },
  {
    "id": "pleiades:845063",
    "type": "temple",
    "name": "Sipahiler",
    "lat": 41.134943,
    "lng": 32.449381,
    "startYear": -63,
    "endYear": 400,
    "source": "Pleiades",
    "category": "religion",
    "description": "An ancient place, cited: BAtlas 86 C2 Sipahiler",
    "estimatedTemporal": true
  },
  {
    "id": "pleiades:854698",
    "type": "temple",
    "name": "Komosarue",
    "lat": 45.335039,
    "lng": 37.129524,
    "startYear": -500,
    "endYear": 400,
    "source": "Pleiades",
    "category": "religion",
    "description": "An ancient place, cited: BAtlas 87 M2 Komosarue",
    "estimatedTemporal": true
  },
  {
    "id": "pleiades:854731",
    "type": "temple",
    "name": "Satyrou Mnema",
    "lat": 45.34421,
    "lng": 36.81803,
    "startYear": 68,
    "endYear": 400,
    "source": "Pleiades",
    "category": "religion",
    "description": "An ancient place, cited: BAtlas 87 L2 Satyrou Mnema",
    "props": {
      "ancientName": "Satyrou Mnema"
    },
    "estimatedTemporal": true
  },
  {
    "id": "pleiades:624813669",
    "type": "sanctuary",
    "name": "Mut el-Kharab",
    "lat": 25.485236,
    "lng": 28.968881,
    "startYear": -27,
    "endYear": 400,
    "source": "Pleiades",
    "category": "religion",
    "qid": "Q14215956",
    "description": "The settlement of Mut el-Kharab, located in Egypt's Dakhleh Oasis. A temple to the god Seth was built at this location.",
    "estimatedTemporal": true
  },
  {
    "id": "pleiades:638754",
    "type": "sanctuary",
    "name": "Apollo, T.",
    "lat": 37.463994,
    "lng": 30.91288,
    "startYear": -25,
    "endYear": 400,
    "source": "Pleiades",
    "category": "religion",
    "description": "An ancient place, cited: BAtlas 65 E3 Apollo, T.",
    "props": {
      "ancientName": "Apollo, T."
    },
    "estimatedTemporal": true
  },
  {
    "id": "pleiades:638837",
    "type": "sanctuary",
    "name": "Aksu - Zindan Mağarası Sanctuary",
    "lat": 37.8119089,
    "lng": 31.0845675,
    "startYear": -25,
    "endYear": 400,
    "source": "Pleiades",
    "category": "religion",
    "description": "An ancient sanctuary complex, incorporating a cave known today as Zindan Mağarası, which overlooks a bend in the river Aksu (locally Zindan Deresi; a tributary of the Eurymedon) in Turkey's Isparta province. Archaeological and epigraphic evidence demonstrate human activity from the Hellenistic to the Seljuk period, with the dedication of a temple to the Vigenon Mother of the Gods during the reign of Marcus Aurelius. A Roman-era bridge and road section has also been identified as part of the complex, which was probably associated with the nearby city of Timbriada. The sanctuary also honored the god Eurymedon. A Christian monastery succeeded the sanctuary, spoliating its buildings for construction material.",
    "props": {
      "ancientName": "Zindan Mağarası"
    },
    "estimatedTemporal": true
  },
  {
    "id": "pleiades:638856",
    "type": "temple",
    "name": "Hephaistion",
    "lat": 36.446284,
    "lng": 30.462478,
    "startYear": -164,
    "endYear": 400,
    "source": "Pleiades",
    "category": "religion",
    "description": "An ancient place, cited: BAtlas 65 D5 Hephaistion",
    "props": {
      "ancientName": "Hephaistion"
    },
    "estimatedTemporal": true
  },
  {
    "id": "pleiades:638958",
    "type": "sanctuary",
    "name": "Letoon",
    "lat": 36.33171046743071,
    "lng": 29.289564791223324,
    "startYear": -164,
    "endYear": 400,
    "source": "Pleiades",
    "category": "religion",
    "qid": "Q703480",
    "description": "Sanctuary of Leto and center of the Lycian federation.",
    "props": {
      "ancientName": "Letoon"
    },
    "estimatedTemporal": true
  },
  {
    "id": "pleiades:638994",
    "type": "sanctuary",
    "name": "Men Karou, T.",
    "lat": 37.915011,
    "lng": 28.941208,
    "startYear": -126,
    "endYear": 400,
    "source": "Pleiades",
    "category": "religion",
    "description": "An ancient place, cited: BAtlas 65 A2 Men Karou, T.",
    "props": {
      "ancientName": "Men Karou, T."
    },
    "estimatedTemporal": true
  },
  {
    "id": "pleiades:639083",
    "type": "sanctuary",
    "name": "Roma et Augustus, T.",
    "lat": 37.520416,
    "lng": 30.138833,
    "startYear": -126,
    "endYear": 400,
    "source": "Pleiades",
    "category": "religion",
    "description": "An ancient place, cited: BAtlas 65 D2 Roma et Augustus, T.",
    "props": {
      "ancientName": "Roma et Augustus, T."
    },
    "estimatedTemporal": true
  },
  {
    "id": "pleiades:857274",
    "type": "sanctuary",
    "name": "Phasiane Theos",
    "lat": 42.179957,
    "lng": 41.64496,
    "startYear": -500,
    "endYear": 400,
    "source": "Pleiades",
    "category": "religion",
    "description": "An ancient place, cited: BAtlas 87 G2 Phasiane Theos",
    "props": {
      "ancientName": "Phasiane Theos"
    },
    "estimatedTemporal": true
  },
  {
    "id": "pleiades:75740664",
    "type": "sanctuary",
    "name": "Hagar Qin Megalithic Temple Complex (Malta)",
    "lat": 35.82761580042932,
    "lng": 14.442203554593087,
    "startYear": -3250,
    "endYear": -3150,
    "source": "Pleiades",
    "category": "religion",
    "qid": "Q343053",
    "description": "Ħaġar Qim is a megalithic temple complex (ca. 3600-3200 BC), included in the UNESCO World Heritage List.",
    "props": {
      "ancientName": "Ħaġar Qim"
    },
    "estimatedTemporal": true
  },
  {
    "id": "pleiades:601235773",
    "type": "sanctuary",
    "name": "Tas-Silġ",
    "lat": 35.843994076944334,
    "lng": 14.553632180253194,
    "startYear": -216,
    "endYear": 400,
    "source": "Pleiades",
    "category": "religion",
    "description": "A hilltop on Malta that is the locus of multi-period settlement and religious activity from the Neolithic period to late antiquity.",
    "props": {
      "ancientName": "Tas-Silg"
    },
    "estimatedTemporal": true
  },
  {
    "id": "pleiades:103018178",
    "type": "sanctuary",
    "name": "Arx of Cosa",
    "lat": 42.410833,
    "lng": 11.286111,
    "startYear": -500,
    "endYear": 400,
    "source": "Pleiades",
    "category": "religion",
    "description": "The citadel of the ancient city and location of its Capitolium.",
    "estimatedTemporal": true,
    "qid": "Q546547"
  },
  {
    "id": "pleiades:358880029",
    "type": "temple",
    "name": "Ešasurra",
    "lat": 32.530856,
    "lng": 44.424226,
    "startYear": 117,
    "endYear": 400,
    "source": "Pleiades",
    "category": "religion",
    "description": "The temple of the god Išhara, Ešasurra (“House of the Womb”), was located in the Šuanna district (modern Ishin Aswad) of Babylon. According to the Babylonian topographical text Tintir = Babylon Tablet IV, this was one of two temples in that part of the city, which was located in the southern part of the eastern half of Babylon.",
    "props": {
      "ancientName": "Ešasurra"
    },
    "estimatedTemporal": true
  },
  {
    "id": "pleiades:95873554",
    "type": "temple",
    "name": "Temple of Vespasian",
    "lat": 40.7495988033982,
    "lng": 14.485197005885531,
    "startYear": -337,
    "endYear": 400,
    "source": "Pleiades",
    "category": "religion",
    "qid": "Q3983287",
    "description": "The \"Temple of Vespasian\" (VII, 9, 2), also referred to as Aedes Genii Augusti, is situated between the Temple of the Lares Publici and the Building of Eumachia on the eastern side of the forum of Pompeii. Its precise attribution is still a matter of debate.",
    "props": {
      "ancientName": "Temple of Vespasian"
    },
    "estimatedTemporal": true
  },
  {
    "id": "pleiades:100249112",
    "type": "temple",
    "name": "Temple of Fortuna Augusta",
    "lat": 40.7507127052256,
    "lng": 14.484411687586846,
    "startYear": -337,
    "endYear": 400,
    "source": "Pleiades",
    "category": "religion",
    "qid": "Q3983204",
    "description": "A Corinthian order temple in Pompeii dedicated to Fortuna Redux and likely dating to the late first century BC (VII, 4, 1).",
    "props": {
      "ancientName": "Tempio della Fortuna"
    },
    "estimatedTemporal": true
  },
  {
    "id": "pleiades:220380718",
    "type": "sanctuary",
    "name": "Area archeologica di Colle della Noce",
    "lat": 41.608342264852666,
    "lng": 12.548510418670745,
    "startYear": -337,
    "endYear": 400,
    "source": "Pleiades",
    "category": "religion",
    "qid": "Q56579328",
    "description": "The ancient temple in the sacred area of Colle della Noce dates to the fifth and fourth century BCE.",
    "estimatedTemporal": true
  },
  {
    "id": "pleiades:705163201",
    "type": "sanctuary",
    "name": "Sanctuary of Poseidon at Kalaureia, Poros",
    "lat": 37.522566445381145,
    "lng": 23.480099155704764,
    "startYear": -500,
    "endYear": 400,
    "source": "Pleiades",
    "category": "religion",
    "qid": "Q38281326",
    "description": "A sanctuary sacred to Poseidon on the island of Poros.",
    "props": {
      "ancientName": "Sanctuary of Poseidon at Kalaureia"
    },
    "estimatedTemporal": true
  },
  {
    "id": "pleiades:885585406",
    "type": "temple",
    "name": "Chapel of Hakor",
    "lat": 25.71877342452229,
    "lng": 32.65599195352351,
    "startYear": -27,
    "endYear": 42,
    "source": "Pleiades",
    "category": "religion",
    "description": "Chapel for the Sacred Barque of Amun-Ra in Karnak, established by the Egyptian pharaoh Hakor of the Twenty-ninth dynasty who reigned from 392/1 to 379/8 BCE.",
    "estimatedTemporal": true
  },
  {
    "id": "pleiades:127288246",
    "type": "sanctuary",
    "name": "Gallo-Roman fanum at Lapanouse-de-Cernon",
    "lat": 43.9962525,
    "lng": 3.098374,
    "startYear": -50,
    "endYear": 400,
    "source": "Pleiades",
    "category": "religion",
    "description": "The remains of a possible Gallo-Roman fanum were recovered, including an enclosure surrounding a rectangular structure along with terra sigillata from La Graufesenque.",
    "estimatedTemporal": true,
    "containedInQid": "Q126692545"
  },
  {
    "id": "pleiades:891993831",
    "type": "shrine",
    "name": "Coventina's Well",
    "lat": 55.034675,
    "lng": -2.224318,
    "startYear": 51,
    "endYear": 400,
    "source": "Pleiades",
    "category": "religion",
    "qid": "Q107978385",
    "description": "A shrine to a Celtic water goddess situated near the Roman fort of Brocolitia at present-day Carrawburgh, along Hadrian's Wall.",
    "estimatedTemporal": true
  },
  {
    "id": "pleiades:432746",
    "type": "sanctuary",
    "name": "Campochiaro",
    "lat": 41.43924008259997,
    "lng": 14.508506524393301,
    "startYear": -291,
    "endYear": 400,
    "source": "Pleiades",
    "category": "religion",
    "qid": "Q106604622",
    "description": "An Italic sanctuary sacred to Hercules located in località Civitella in the comune of Campochiaro. The site is to be connected with the Pentrian Samnites.",
    "props": {
      "ancientName": "Campochiaro"
    },
    "estimatedTemporal": true
  },
  {
    "id": "pleiades:151986836",
    "type": "temple",
    "name": "Temple of Maharraqa",
    "lat": 22.800667,
    "lng": 32.547597,
    "startYear": -500,
    "endYear": 400,
    "source": "Pleiades",
    "category": "religion",
    "qid": "Q291839",
    "description": "A temple sacred to Isis and Osiris of Roman date, relocated before the completion of the Aswan dam in the 1960s.",
    "estimatedTemporal": true
  },
  {
    "id": "pleiades:216823",
    "type": "sanctuary",
    "name": "Glava Panega",
    "lat": 43.092008,
    "lng": 24.150619,
    "startYear": 51,
    "endYear": 400,
    "source": "Pleiades",
    "category": "religion",
    "description": "An ancient place, cited: BAtlas 22 B5 Glava Panega",
    "estimatedTemporal": true
  },
  {
    "id": "pleiades:216828",
    "type": "temple",
    "name": "Gura Dobrogei",
    "lat": 44.48143,
    "lng": 28.525035,
    "startYear": -27,
    "endYear": 400,
    "source": "Pleiades",
    "category": "religion",
    "description": "An ancient place, cited: BAtlas 22 F4 Gura Dobrogei",
    "estimatedTemporal": true,
    "containedInQid": "Q12098469"
  },
  {
    "id": "pleiades:216862",
    "type": "temple",
    "name": "Kasnakovo",
    "lat": 42.012805,
    "lng": 25.490277,
    "startYear": 51,
    "endYear": 400,
    "source": "Pleiades",
    "category": "religion",
    "description": "An ancient place, cited: BAtlas 22 C6 Kasnakovo",
    "estimatedTemporal": true
  },
  {
    "id": "pleiades:226579",
    "type": "sanctuary",
    "name": "Demeter, T.",
    "lat": 46.570868,
    "lng": 32.159713,
    "startYear": -500,
    "endYear": 400,
    "source": "Pleiades",
    "category": "religion",
    "description": "An ancient place, cited: BAtlas 23 F2 Demeter, T.",
    "props": {
      "ancientName": "Demeter, T."
    },
    "estimatedTemporal": true
  },
  {
    "id": "pleiades:226614",
    "type": "sanctuary",
    "name": "Gurzuf",
    "lat": 44.552758,
    "lng": 34.287505,
    "startYear": -500,
    "endYear": 400,
    "source": "Pleiades",
    "category": "religion",
    "description": "According to Hind, a sanctuary dating ca. third century BC to second century AD was identified at the Gurzuf Pass. Silver and bronze statuettes of Graeco-Roman divinities were recovered.",
    "estimatedTemporal": true
  },
  {
    "id": "pleiades:226713",
    "type": "sanctuary",
    "name": "Parthenion, T.",
    "lat": 44.5,
    "lng": 33.5,
    "startYear": -500,
    "endYear": 400,
    "source": "Pleiades",
    "category": "religion",
    "description": "An ancient place, cited: BAtlas 23 G4 Parthenion, T.",
    "props": {
      "ancientName": "Parthenion, T."
    },
    "estimatedTemporal": true
  },
  {
    "id": "pleiades:226714",
    "type": "shrine",
    "name": "Parthenion? Akron",
    "lat": 44.514846,
    "lng": 33.491262,
    "startYear": -500,
    "endYear": 400,
    "source": "Pleiades",
    "category": "religion",
    "qid": "Q2394403",
    "description": "An ancient place, cited: BAtlas 23 G4 Parthenion? Akron",
    "props": {
      "ancientName": "Parthenion Akron"
    },
    "estimatedTemporal": true
  },
  {
    "id": "pleiades:416772250",
    "type": "temple",
    "name": "New Year's Festival House at Assur",
    "lat": 35.46053302949843,
    "lng": 43.25345166615267,
    "startYear": -731,
    "endYear": -631,
    "source": "Pleiades",
    "category": "religion",
    "description": "As part of his post-689-BC religious reforms, the Neo-Assyrian king Sennacherib (704–681 BC) had a new New Year’s festival house (akītu-house) constructed outside the western wall of Assur. This was an attempt to replicate the cultic topography of Babylon. The Sumerian ceremonial names of that holy building and its cella are Eabbaugga (\"House Where Tiāmat Is Put To Death\") and Edubdubabba (\"House That Makes Tiāmat Tremble”) respectively.",
    "props": {
      "ancientName": "Eabbaugga"
    },
    "qid": "Q200200",
    "estimatedTemporal": true
  },
  {
    "id": "pleiades:56036937",
    "type": "temple",
    "name": "Dilmun Temple at Saar",
    "lat": 26.18363846505683,
    "lng": 50.48970995637473,
    "startYear": -1950,
    "endYear": -1850,
    "source": "Pleiades",
    "category": "religion",
    "description": "20th century BCE Dilmun temple on the highest part of the ancient settlement mound at Saar in modern Bahrain.",
    "estimatedTemporal": true
  },
  {
    "id": "pleiades:357004422",
    "type": "temple",
    "name": "Sri Ahobila Narasimha Swamy Temple",
    "lat": 15.124439305864387,
    "lng": 78.73617884429487,
    "startYear": 1250,
    "endYear": 1350,
    "source": "Pleiades",
    "category": "religion",
    "description": "Main temple in Ahobilam dedicated to the man-lion form of the Hindu god Vishnu built or expanded in the 14th century, sacked by the Mughals in 1578, then restored and expanded at various times up to the present day.",
    "estimatedTemporal": true
  },
  {
    "id": "pleiades:217100040",
    "type": "sanctuary",
    "name": "Templum Sol",
    "lat": 41.891775,
    "lng": 12.486137,
    "startYear": -337,
    "endYear": 400,
    "source": "Pleiades",
    "category": "religion",
    "qid": "Q4536138",
    "description": "A sanctuary in the Campus Agrippae that was dedicated by Aurelian on December 25, 274, and funded by means of spoils taken from Palmyra.",
    "props": {
      "ancientName": "Temple of the Sun (Rome)"
    },
    "estimatedTemporal": true
  },
  {
    "id": "pleiades:322517289",
    "type": "sanctuary",
    "name": "Asklepieion and Lerna",
    "lat": 37.910627500000004,
    "lng": 22.8772885,
    "startYear": -144,
    "endYear": 400,
    "source": "Pleiades",
    "category": "religion",
    "qid": "Q25461264",
    "description": "A sanctuary complex on the northern margins of ancient Corinth near the theater.",
    "props": {
      "ancientName": "Temple of Asklepios and Lerna Spring"
    },
    "estimatedTemporal": true
  },
  {
    "id": "pleiades:551465182",
    "type": "temple",
    "name": "Apollo-Grannus-Tempel",
    "lat": 48.561646187426085,
    "lng": 10.409031615531584,
    "startYear": 6,
    "endYear": 400,
    "source": "Pleiades",
    "category": "religion",
    "description": "A Roman temple in Faimingen near Lauingen in Bavaria.",
    "estimatedTemporal": true
  },
  {
    "id": "pleiades:346004678",
    "type": "sanctuary",
    "name": "Santuario rupestre di Silvano",
    "lat": 41.2923868,
    "lng": 13.2550536,
    "startYear": -500,
    "endYear": 400,
    "source": "Pleiades",
    "category": "religion",
    "description": "The so-called rock-cut sanctuary of Silvanus at Terracina.",
    "props": {
      "ancientName": "Santuario rupestre di Silvano"
    },
    "estimatedTemporal": true
  },
  {
    "id": "pleiades:346004679",
    "type": "sanctuary",
    "name": "Asklepieion at Zea",
    "lat": 37.93698206991362,
    "lng": 23.653113988544803,
    "startYear": -450,
    "endYear": -350,
    "source": "Pleiades",
    "category": "religion",
    "description": "A sanctuary of Asklepios above Zea harbour in Piraeus, founded in the late 5th century BC and active through the Imperial period. Sections of the sanctuary were explored archaeologically in the 1880s and 2000s.",
    "props": {
      "ancientName": "Asklēpieion"
    },
    "estimatedTemporal": true,
    "qid": "Q75296641"
  },
  {
    "id": "pleiades:977420436",
    "type": "temple",
    "name": "Temple of Artemis Azzanathkona Phase 2",
    "lat": 34.750963934416276,
    "lng": 40.72718771854823,
    "startYear": 117,
    "endYear": 400,
    "source": "Pleiades",
    "category": "religion",
    "qid": "Q118390422",
    "description": "Temple at Dura-Europos dedicated to Artemis Azzanathkona, tutelary deity of the Euphrates island settlement Anath; building complex later used for Roman military record keeping in addition to worship.",
    "estimatedTemporal": true
  },
  {
    "id": "pleiades:319662579",
    "type": "temple",
    "name": "Temple of Dionysos at Teos",
    "lat": 38.17722800645671,
    "lng": 26.784877671236025,
    "startYear": -500,
    "endYear": 400,
    "source": "Pleiades",
    "category": "religion",
    "qid": "Q56440191",
    "description": "A Temple of Dionysos in the Ionic order begun in the Hellenistic period.",
    "estimatedTemporal": true
  },
  {
    "id": "pleiades:314616533",
    "type": "temple",
    "name": "Temple of Derr",
    "lat": 22.732406731536233,
    "lng": 32.2621810357831,
    "startYear": -500,
    "endYear": 400,
    "source": "Pleiades",
    "category": "religion",
    "description": "A rock-cut temple (speos) located in Lower Nubia, the Temple of Derr was built by Pharaoh Ramesses II (19th Dynasty). The temple was relocated to its current position in 1964 along with the Temple of Amada.",
    "props": {
      "ancientName": "Temple of Derr"
    },
    "estimatedTemporal": true,
    "qid": "Q7698721"
  },
  {
    "id": "pleiades:656052375",
    "type": "sanctuary",
    "name": "Pachyammos sanctuary",
    "lat": 34.73602160012528,
    "lng": 32.43552961599697,
    "startYear": -500,
    "endYear": 400,
    "source": "Pleiades",
    "category": "religion",
    "qid": "Q112771862",
    "description": "The remains of a robbed-out Hellenistic temple complex were excavated at Pachyammos to the south of Paphos, Cyprus, between 2015 and 2019. The site included a peripteral temple in antis.",
    "props": {
      "ancientName": "Pachyammos sanctuary"
    },
    "estimatedTemporal": true
  },
  {
    "id": "pleiades:7162996",
    "type": "temple",
    "name": "Qasr el-Aguz",
    "lat": 25.717021574485486,
    "lng": 32.600638515258765,
    "startYear": -27,
    "endYear": 400,
    "source": "Pleiades",
    "category": "religion",
    "description": "Site in Luxor (Egypt) associated with a Ptolemaic temple dedicated to the god Thoth.",
    "props": {
      "ancientName": "Qasr el-Aguz"
    },
    "estimatedTemporal": true,
    "containedInQid": "Q11944144"
  },
  {
    "id": "pleiades:777728190",
    "type": "temple",
    "name": "Eurmeiminanki",
    "lat": 32.39177257023264,
    "lng": 44.341734384475714,
    "startYear": 117,
    "endYear": 400,
    "source": "Pleiades",
    "category": "religion",
    "description": "The ziggurat of the god the god Nabû at Borsippa. The Sumerian ceremonial name Eurmeiminanki means \"House which Gathers the Seven (Me's) of Heaven and Underworld.\"",
    "estimatedTemporal": true
  },
  {
    "id": "pleiades:284453587",
    "type": "temple",
    "name": "Elugalgalgasisa",
    "lat": 30.962778646832714,
    "lng": 46.103250216921985,
    "startYear": 117,
    "endYear": 400,
    "source": "Pleiades",
    "category": "religion",
    "qid": "Q202927",
    "description": "The ziggurat of the god Sîn at Ur. The Sumerian ceremonial name Elugalgalgasisa means \"House of the King who Lets Counsel Flourish\". The platform temple was originally built during the Early Bronze Age and was then restored in the sixth century B.C. by King Nabonidus.",
    "props": {
      "ancientName": "Ziggurat of Ur"
    },
    "estimatedTemporal": true
  },
  {
    "id": "pleiades:209082201",
    "type": "temple",
    "name": "Ebabbar",
    "lat": 33.05892803211073,
    "lng": 44.25193774106971,
    "startYear": 117,
    "endYear": 400,
    "source": "Pleiades",
    "category": "religion",
    "description": "The temple of the god Šamaš at Sippar. The Sumerian ceremonial name Ebabbar means \"Shining House.\"",
    "props": {
      "ancientName": "Ebabbar"
    },
    "estimatedTemporal": true
  },
  {
    "id": "pleiades:635795593",
    "type": "temple",
    "name": "Temple B",
    "lat": 41.89536860801969,
    "lng": 12.47685790433766,
    "startYear": -337,
    "endYear": 400,
    "source": "Pleiades",
    "category": "religion",
    "qid": "Q104585698",
    "description": "A temple vowed by Q. Lutatius Catulus at the battle of Vercellae (30 June, 101 B.C.). The sanctuary is a tholos-type temple and was sometimes referred to as 'aedes Catuli'.",
    "props": {
      "ancientName": "Fortuna Huiusce Diei in Campo"
    },
    "estimatedTemporal": true
  },
  {
    "id": "pleiades:935764097",
    "type": "sanctuary",
    "name": "Sanctuary of Kodros, Neleus and Basile at Athens",
    "lat": 37.967689,
    "lng": 23.729282,
    "startYear": -77,
    "endYear": 400,
    "source": "Pleiades",
    "category": "religion",
    "description": "A sanctuary located between the Phaleron gate and the Itonian gate of Athens.",
    "props": {
      "ancientName": "Sanctuary of Kodros and Neleus and Basile"
    },
    "qid": "Q24204307",
    "estimatedTemporal": true
  },
  {
    "id": "pleiades:32079425",
    "type": "sanctuary",
    "name": "Bouri cult site (Megara)",
    "lat": 38.074741843605786,
    "lng": 23.171650781727156,
    "startYear": -144,
    "endYear": 400,
    "source": "Pleiades",
    "category": "religion",
    "description": "An Archaic coastal sanctuary located at Alepochori, Megara, Greece.",
    "props": {
      "ancientName": "Bouri cult site (Megara)"
    },
    "estimatedTemporal": true
  },
  {
    "id": "pleiades:442962448",
    "type": "sanctuary",
    "name": "Giza",
    "lat": 29.970055997040458,
    "lng": 31.12668227565419,
    "startYear": -27,
    "endYear": 400,
    "source": "Pleiades",
    "category": "religion",
    "qid": "Q12508",
    "description": "The site of Giza encompasses the Giza Necropolis, a large archaeological site famous for its pyramid complexes and monumental sculpture.",
    "props": {
      "ancientName": "Giza, Gizah, Gizeh, Giseh"
    },
    "estimatedTemporal": true
  },
  {
    "id": "pleiades:267069707",
    "type": "temple",
    "name": "Temple of Nabu at Palmyra",
    "lat": 34.54960133408389,
    "lng": 38.27036182225517,
    "startYear": -63,
    "endYear": 400,
    "source": "Pleiades",
    "category": "religion",
    "qid": "Q21129741",
    "description": "A temple dedicated to the Babylonian god of wisdom.",
    "estimatedTemporal": true
  },
  {
    "id": "pleiades:581528584",
    "type": "temple",
    "name": "Temple of Thelsae",
    "lat": 33.639822611238664,
    "lng": 36.68883018081224,
    "startYear": -63,
    "endYear": 400,
    "source": "Pleiades",
    "category": "religion",
    "description": "A well-preserved Roman period temple located in modern Dmeir, Syria. The sanctuary was later converted into a fortification.",
    "estimatedTemporal": true
  },
  {
    "id": "pleiades:407584240",
    "type": "shrine",
    "name": "Sanctuary of the People and Graces",
    "lat": 37.976214,
    "lng": 23.721839,
    "startYear": -77,
    "endYear": 400,
    "source": "Pleiades",
    "category": "religion",
    "qid": "Q125116985",
    "description": "An open air sanctuary in Athens, dedicated to the People (Demos) of Athens and the Graces (Charites), located between the Dipylon Gate and the Agora. Archaeological remains were partially destroyed during construction of the Athens-Piraeus railway",
    "props": {
      "ancientName": "Sanctuary of the People and Graces"
    },
    "estimatedTemporal": true
  },
  {
    "id": "pleiades:278568881",
    "type": "sanctuary",
    "name": "Sanctuary of Bendis",
    "lat": 37.95405,
    "lng": 23.539,
    "startYear": -500,
    "endYear": 400,
    "source": "Pleiades",
    "category": "religion",
    "description": "Sanctuary of Bendis located on the Acropolis of Salamis",
    "props": {
      "ancientName": "Sanctuary of Bendis"
    },
    "estimatedTemporal": true,
    "qid": "Q113003913"
  },
  {
    "id": "pleiades:867719962",
    "type": "sanctuary",
    "name": "Temple of Jupiter Anxur",
    "lat": 41.291638334041124,
    "lng": 13.260010474786705,
    "startYear": -500,
    "endYear": 400,
    "source": "Pleiades",
    "category": "religion",
    "qid": "Q3983252",
    "description": "A late Republican sanctuary of the city of Terracina that is typically dated ca. 100-70 B.C.",
    "props": {
      "ancientName": "Temple of Jupiter Anxur"
    },
    "estimatedTemporal": true
  },
  {
    "id": "pleiades:13022744",
    "type": "temple",
    "name": "Spathari (temple)",
    "lat": 38.6861,
    "lng": 21.29541,
    "startYear": -144,
    "endYear": 400,
    "source": "Pleiades",
    "category": "religion",
    "description": "A temple in Acarnania, located between Stratos (modern Sourovigli) and modern Lepenou. The temple seems to have been constructed in the Greek Archaic period on the site of an earlier Helladic settlement. The temple continued in operation into the Roman period.",
    "estimatedTemporal": true,
    "qid": "Q113532055"
  },
  {
    "id": "pleiades:831413464",
    "type": "shrine",
    "name": "Sanctuary of Aphrodite/Isis",
    "lat": 37.9708479,
    "lng": 23.726015,
    "startYear": -77,
    "endYear": 400,
    "source": "Pleiades",
    "category": "religion",
    "description": "A sanctuary on the south slope of the Acropolis of Athens, dedicated to Aphrodite in the Classical period and associated with Isis from the late first century BC. A temple was built in the Hadrianic period.",
    "props": {
      "ancientName": "Eiseion"
    },
    "qid": "Q24204307",
    "estimatedTemporal": true
  },
  {
    "id": "pleiades:270173116",
    "type": "shrine",
    "name": "Triangular Shrine",
    "lat": 37.974042,
    "lng": 23.721933,
    "startYear": -77,
    "endYear": 400,
    "source": "Pleiades",
    "category": "religion",
    "description": "A triangular shrine located at a crossroads to the southwest of the Athenian Agora, probably dedicated to a hero, built in the late fifth century BC with evidence for earlier religious activity in the seventh century BC.",
    "props": {
      "ancientName": "Triangular Shrine"
    },
    "estimatedTemporal": true,
    "qid": "Q24204702"
  },
  {
    "id": "pleiades:570500582",
    "type": "sanctuary",
    "name": "Temple of Apollo at Corinth",
    "lat": 37.906033525,
    "lng": 22.879194374999997,
    "startYear": -144,
    "endYear": 400,
    "source": "Pleiades",
    "category": "religion",
    "qid": "Q3561843",
    "description": "The second temple of Apollo at Corinth whose reconstructed remains are visible on the site today. The structure dates ca. 540 B.C.",
    "estimatedTemporal": true
  },
  {
    "id": "pleiades:570500583",
    "type": "sanctuary",
    "name": "Mithraeum at Vulci",
    "lat": 42.4194343,
    "lng": 11.6299585,
    "startYear": -264,
    "endYear": 400,
    "source": "Pleiades",
    "category": "religion",
    "qid": "Q108509806",
    "description": "A mithraeum was discovered at Vulci in 1975 during excavations of a Roman aristocratic house. The shrine was well preserved with two tauroctony scenes dating to the third century. The site was destroyed in the fourth century A.D.",
    "estimatedTemporal": true
  },
  {
    "id": "pleiades:778145952",
    "type": "temple",
    "name": "So-called Temple of the Dioscuri",
    "lat": 32.817702556810616,
    "lng": 21.857637422076255,
    "startYear": -91,
    "endYear": 400,
    "source": "Pleiades",
    "category": "religion",
    "qid": "Q104776460",
    "description": "A temple on the acropolis of Cyrene, probably built around the seventh century BCE.",
    "props": {
      "ancientName": "Tempietto Ipetrale"
    },
    "estimatedTemporal": true
  },
  {
    "id": "pleiades:778145953",
    "type": "temple",
    "name": "So-called Temple of Cybele",
    "lat": 32.81746589154961,
    "lng": 21.857743254303205,
    "startYear": -91,
    "endYear": 400,
    "source": "Pleiades",
    "category": "religion",
    "description": "A recently discovered temple on the acropolis of Cyrene.",
    "props": {
      "ancientName": "Temple of Cybele"
    },
    "estimatedTemporal": true
  },
  {
    "id": "pleiades:357884165",
    "type": "temple",
    "name": "So-called Temple of Aphrodite",
    "lat": 32.8174354,
    "lng": 21.8576607,
    "startYear": -91,
    "endYear": 400,
    "source": "Pleiades",
    "category": "religion",
    "description": "A temple located on the acropolis of Cyrene.",
    "props": {
      "ancientName": "Temple of Aphrodite"
    },
    "estimatedTemporal": true,
    "qid": "Q82073859"
  },
  {
    "id": "pleiades:183817905",
    "type": "temple",
    "name": "Temple East of Lavinium",
    "lat": 41.661501,
    "lng": 12.48422,
    "startYear": -450,
    "endYear": -350,
    "source": "Pleiades",
    "category": "religion",
    "description": "From the 5th century BC.",
    "estimatedTemporal": true,
    "qid": "Q1352586"
  },
  {
    "id": "pleiades:183817917",
    "type": "temple",
    "name": "Unlabeled feature captured",
    "lat": 41.737926,
    "lng": 13.164441,
    "startYear": -301,
    "endYear": 400,
    "source": "Pleiades",
    "category": "religion",
    "description": "Unlabeled feature captured from the Barrington Atlas",
    "estimatedTemporal": true
  },
  {
    "id": "pleiades:872106931",
    "type": "sanctuary",
    "name": "Sanctuary of Pan at Paneas",
    "lat": 33.248758961729344,
    "lng": 35.69469435773489,
    "startYear": -250,
    "endYear": -150,
    "source": "Pleiades",
    "category": "religion",
    "description": "The Paneion at Caesarea Philippi, a sanctuary site dedicated to Pan centered around a natural cave and spring site on the southwestern slopess of Mount Hermon. The sanctuary was first built in the Hellenistic period (before 200 BCE). A temple to Augustus was constructed in front of the cave during the reign of Herod the Great in 19 BCE, and the site was further expanded through 220 CE.",
    "estimatedTemporal": true,
    "qid": "Q128225683"
  },
  {
    "id": "pleiades:706151554",
    "type": "temple",
    "name": "Cerreto Sannita",
    "lat": 41.305665958621695,
    "lng": 14.56281588541819,
    "startYear": -291,
    "endYear": 400,
    "source": "Pleiades",
    "category": "religion",
    "qid": "Q3983249",
    "description": "A Samnite temple dedicated to Flora.",
    "props": {
      "ancientName": "Tempio di Flora (Cerreto Sannita)"
    },
    "estimatedTemporal": true
  },
  {
    "id": "pleiades:380378608",
    "type": "temple",
    "name": "Sanctuary of Artemis Munychia (Piraeus)",
    "lat": 37.9356,
    "lng": 23.6592,
    "startYear": -500,
    "endYear": 400,
    "source": "Pleiades",
    "category": "religion",
    "qid": "Q12878108",
    "description": "A now mostly destroyed ancient temple dedicated to Artemis Munychia on the promontory above Mikrolimani. A Yacht Club in the 1930s was built on top of the promontory.",
    "props": {
      "ancientName": "Mounychias naos Artemidos"
    },
    "estimatedTemporal": true
  },
  {
    "id": "pleiades:832104041",
    "type": "sanctuary",
    "name": "Acropolis of Cumae",
    "lat": 40.849,
    "lng": 14.054,
    "startYear": -500,
    "endYear": 400,
    "source": "Pleiades",
    "category": "religion",
    "qid": "Q94273600",
    "description": "The Acropolis of Cumae was used across multiple periods, beginning with the foundation of the Greek colony in the eighth century B.C.",
    "estimatedTemporal": true
  },
  {
    "id": "pleiades:251060662",
    "type": "sanctuary",
    "name": "Macchia delle Valli, Vetralla",
    "lat": 42.28819843441121,
    "lng": 12.065732021607554,
    "startYear": -337,
    "endYear": 400,
    "source": "Pleiades",
    "category": "religion",
    "qid": "Q55685742",
    "description": "A rock-cut Etrusco-Roman sanctuary sacred to Demeter that was discovered during rescue excavations in 2006 following looting activity. The sanctuary, set in a grove, remained in use until the second century A.D.",
    "estimatedTemporal": true
  },
  {
    "id": "pleiades:284997408",
    "type": "sanctuary",
    "name": "Vigna Parrocchiale archaeological area",
    "lat": 42.00248474165228,
    "lng": 12.107775508967926,
    "startYear": -500,
    "endYear": 400,
    "source": "Pleiades",
    "category": "religion",
    "qid": "Q104147049",
    "description": "A complex of civic and sacred buildings in the urban area of ancient Caere, including the so-called \"elliptical building\". ",
    "props": {
      "ancientName": "Vigna Parrocchiale"
    },
    "estimatedTemporal": true
  },
  {
    "id": "pleiades:94809617",
    "type": "sanctuary",
    "name": "Filitosa",
    "lat": 41.7471115,
    "lng": 8.87118,
    "startYear": -230,
    "endYear": 400,
    "source": "Pleiades",
    "category": "religion",
    "description": "Filitosa is a megalithic site in southern Corsica that was in use from the Neolithic period until Roman times. A number of menhirs have been discovered at the site.",
    "estimatedTemporal": true,
    "qid": "Q1025950"
  },
  {
    "id": "pleiades:630598189",
    "type": "temple",
    "name": "Temple of Aphrodite (Thessalonica)",
    "lat": 40.6403224,
    "lng": 22.9406719,
    "startYear": -144,
    "endYear": 400,
    "source": "Pleiades",
    "category": "religion",
    "description": "The remains of a marble temple executed in the Ionic order.",
    "estimatedTemporal": true
  },
  {
    "id": "pleiades:728329645",
    "type": "temple",
    "name": "Temple of Apollo at Thermos",
    "lat": 38.55976612788222,
    "lng": 21.66815598423154,
    "startYear": -144,
    "endYear": 400,
    "source": "Pleiades",
    "category": "religion",
    "qid": "Q3983221",
    "description": "A temple to the Apollo was built in the late seventh century B.C. atop the ruins of the previous megaron in Thermos.",
    "props": {
      "ancientName": "Temple of Apollo at Thermos"
    },
    "estimatedTemporal": true
  },
  {
    "id": "pleiades:119445131",
    "type": "temple",
    "name": "Kiosk of Qertassi",
    "lat": 23.960174749999997,
    "lng": 32.86762925,
    "startYear": -27,
    "endYear": 400,
    "source": "Pleiades",
    "category": "religion",
    "qid": "Q925318",
    "description": "The so-called Kiosk of Qertassi is an unfinished Roman kiosk that may date to the reign of Trajan. Originally located at Qertassi, the remains of the temple were relocated to New Kalabsha in Southern Egypt as part of the International Campaign to Save the Monuments of Nubia in the twentieth century.",
    "props": {
      "ancientName": "Kiosk of Qertassi"
    },
    "estimatedTemporal": true
  },
  {
    "id": "pleiades:763458797",
    "type": "temple",
    "name": "Yeha Temple",
    "lat": 14.28571035675155,
    "lng": 39.01911802700529,
    "startYear": -500,
    "endYear": 400,
    "source": "Pleiades",
    "category": "religion",
    "qid": "Q56072973",
    "description": "The Yeha Temple is alleged to be among the oldest known extant structures in Ethiopia. It is executed in the Sabaean style and may date to the seventh century BCE.",
    "estimatedTemporal": true
  },
  {
    "id": "pleiades:238864239",
    "type": "sanctuary",
    "name": "Sanctuary at Leben",
    "lat": 34.93233435528632,
    "lng": 24.924217501317692,
    "startYear": -500,
    "endYear": 400,
    "source": "Pleiades",
    "category": "religion",
    "description": "Leben is known for a sanctuary of Asklepios dating to the first and second centuries CE.",
    "props": {
      "ancientName": "santuario di Asclepio a Lebena"
    },
    "qid": "Q11931287",
    "estimatedTemporal": true
  },
  {
    "id": "pleiades:866779647",
    "type": "temple",
    "name": "Temple of Iuno Moneta at Signia",
    "lat": 41.696925,
    "lng": 13.024731,
    "startYear": -301,
    "endYear": 400,
    "source": "Pleiades",
    "category": "religion",
    "qid": "Q110239443",
    "description": "The remains of the Temple of Iuno Moneta on the acropolis of Segni support the later (tenth century) church of St. Peter.",
    "props": {
      "ancientName": "Tempel der Juno Moneta, Juno Moneta (Tempel der)"
    },
    "estimatedTemporal": true
  },
  {
    "id": "pleiades:305091",
    "type": "sanctuary",
    "name": "el Hofra",
    "lat": 36.366909,
    "lng": 6.620453,
    "startYear": -212,
    "endYear": 400,
    "source": "Pleiades",
    "category": "religion",
    "description": "An ancient place, cited: BAtlas 31 F4 el Hofra",
    "estimatedTemporal": true
  },
  {
    "id": "pleiades:305154",
    "type": "temple",
    "name": "es-Soumaa",
    "lat": 36.260804,
    "lng": 6.692398,
    "startYear": -212,
    "endYear": 400,
    "source": "Pleiades",
    "category": "religion",
    "description": "An ancient place, cited: BAtlas 31 F4 es-Soumaa",
    "estimatedTemporal": true
  },
  {
    "id": "pleiades:315102",
    "type": "sanctuary",
    "name": "Pagus Assalitanus",
    "lat": 36.412262,
    "lng": 9.342684,
    "startYear": -144,
    "endYear": 400,
    "source": "Pleiades",
    "category": "religion",
    "description": "Pagus Assalitanus, located in Africa Proconsularis, lies some 6 km southeast of Thubursicu Bure.",
    "props": {
      "ancientName": "Pagus Assalitanus"
    },
    "estimatedTemporal": true
  },
  {
    "id": "pleiades:315145",
    "type": "sanctuary",
    "name": "Saturnus Balcaranensis, T.",
    "lat": 36.713866,
    "lng": 10.315167,
    "startYear": -256,
    "endYear": 400,
    "source": "Pleiades",
    "category": "religion",
    "description": "An ancient place, cited: BAtlas 32 F3 Saturnus Balcaranensis, T.",
    "props": {
      "ancientName": "Saturnus Balcaranensis, T."
    },
    "estimatedTemporal": true
  },
  {
    "id": "pleiades:315166",
    "type": "temple",
    "name": "Sidi-Mechrig",
    "lat": 37.159408,
    "lng": 9.118354,
    "startYear": -500,
    "endYear": 400,
    "source": "Pleiades",
    "category": "religion",
    "description": "An ancient place, cited: BAtlas 32 D2 Sidi-Mechrig",
    "estimatedTemporal": true
  },
  {
    "id": "pleiades:818918654",
    "type": "temple",
    "name": "Ain Dara temple",
    "lat": 36.459628,
    "lng": 36.8525669,
    "startYear": -790,
    "endYear": -690,
    "source": "Pleiades",
    "category": "religion",
    "qid": "Q82073668",
    "description": "The Ain Dara temple, an archaeological site located near the village of Ain Dara, in Afrin, Syria, was the location of an Iron Age Syro-Hittite temple. The structure was noted for the similarities it bore to Solomon's Temple in Jerusalem. The site was in use from ca. 1300 until 740 BCE. It finds comparison with the temples at Emar, Mumbaqa, and Ebla's Temple D. In January 2018 the ruins of the temple were substantially damaged by air strikes carried out by the Turkish Air Force during the Afrin offensive. The site also subsequently suffered further damage, wanton destruction, and looting.",
    "props": {
      "ancientName": "Ain Dara Temple"
    },
    "estimatedTemporal": true
  },
  {
    "id": "pleiades:903510061",
    "type": "temple",
    "name": "Kordin Temples",
    "lat": 35.87710501705802,
    "lng": 14.508950958020057,
    "startYear": -216,
    "endYear": 400,
    "source": "Pleiades",
    "category": "religion",
    "qid": "Q2402686",
    "description": "A group of megalithic temples on Malta constructed during the Neolithic period.",
    "estimatedTemporal": true
  },
  {
    "id": "pleiades:767047425",
    "type": "sanctuary",
    "name": "Cancho Roano",
    "lat": 38.70107860152815,
    "lng": -5.686039846026315,
    "startYear": -203,
    "endYear": 400,
    "source": "Pleiades",
    "category": "religion",
    "qid": "Q2060316",
    "description": "A pre-Roman sanctuary of the Iberian peninsula.",
    "estimatedTemporal": true
  },
  {
    "id": "pleiades:135828744",
    "type": "sanctuary",
    "name": "Sanctuary of Sol Indiges",
    "lat": 41.647818403100274,
    "lng": 12.437643838378408,
    "startYear": -500,
    "endYear": 400,
    "source": "Pleiades",
    "category": "religion",
    "qid": "Q123755783",
    "description": "The remains of the Sanctuary of Sol Indiges are located near Pomezia, Italy. The original phase of the sanctuary dates to the last quarter of the sixth century BCE, with subsequent rebuilding in the late fourth century BCE.",
    "props": {
      "ancientName": "Sol Indiges, Locus Solis Indigetis"
    },
    "estimatedTemporal": true
  },
  {
    "id": "pleiades:732220284",
    "type": "temple",
    "name": "Sarapieion C at Delos",
    "lat": 37.39734569281252,
    "lng": 25.270521296302768,
    "startYear": -500,
    "endYear": 400,
    "source": "Pleiades",
    "category": "religion",
    "description": "One of three shrines sacred to Serapis identified by archaeologists working at Delos in the nineteenth century.",
    "estimatedTemporal": true,
    "qid": "Q131911921"
  },
  {
    "id": "pleiades:732220285",
    "type": "temple",
    "name": "Sarapieion A",
    "lat": 37.398155,
    "lng": 25.269526,
    "startYear": -500,
    "endYear": 400,
    "source": "Pleiades",
    "category": "religion",
    "description": "The earliest of the three shrines sacred to Serapis identified by archaeologists working at Delos in the nineteenth century.",
    "estimatedTemporal": true
  },
  {
    "id": "pleiades:511519023",
    "type": "sanctuary",
    "name": "Temple of Fortuna (Jublains)",
    "lat": 48.260608478927246,
    "lng": -0.4986126385466991,
    "startYear": -50,
    "endYear": 400,
    "source": "Pleiades",
    "category": "religion",
    "qid": "Q22962384",
    "description": "Centerpoint of sanctuary at modern Jublains",
    "estimatedTemporal": true
  },
  {
    "id": "pleiades:326151648",
    "type": "temple",
    "name": "Temple of Thutmose III",
    "lat": 25.7379286,
    "lng": 32.6059799,
    "startYear": -1475,
    "endYear": -1375,
    "source": "Pleiades",
    "category": "religion",
    "qid": "Q86675259",
    "description": "The Temple of Thutmose III at Deir el-Bahari was built ca. 1435-1425 BCE.",
    "props": {
      "ancientName": "Temple of Thutmose III"
    },
    "estimatedTemporal": true
  },
  {
    "id": "pleiades:453271405",
    "type": "sanctuary",
    "name": "Bona Dea Subsaxana, Aedes",
    "lat": 41.88053117540595,
    "lng": 12.489673173208395,
    "startYear": -337,
    "endYear": 400,
    "source": "Pleiades",
    "category": "religion",
    "qid": "Q541336",
    "description": "An ancient sanctuary of the Aventine Hill in Rome.",
    "props": {
      "ancientName": "Temple of Bona Dea"
    },
    "estimatedTemporal": true
  },
  {
    "id": "pleiades:763337277",
    "type": "temple",
    "name": "Temple of Baalshamin",
    "lat": 34.553419868472844,
    "lng": 38.26999306396337,
    "startYear": -63,
    "endYear": 400,
    "source": "Pleiades",
    "category": "religion",
    "qid": "Q20871005",
    "description": "Temple in Palmyra dedicated to the Canaanite god Baalshamin.",
    "props": {
      "ancientName": "Temple of Baalshamin"
    },
    "estimatedTemporal": true
  },
  {
    "id": "pleiades:717610741",
    "type": "sanctuary",
    "name": "Tempio di Grasceta dei Cavallari",
    "lat": 42.1812003,
    "lng": 11.9415067,
    "startYear": -337,
    "endYear": 400,
    "source": "Pleiades",
    "category": "religion",
    "qid": "Q131565042",
    "description": "The temple of Grasceta dei Cavallari is an Etrusco-Roman sanctuary located in the municipality of Tolfa. This sanctuary sits at the foot of Mount Mazza, above a pass near Tarquinia and Caere's ancient borders. The temple was small, with a rectangular platform and an octastyle arrangement.",
    "estimatedTemporal": true
  },
  {
    "id": "pleiades:165170193",
    "type": "sanctuary",
    "name": "Saint-Sernin-sur-Rance",
    "lat": 43.8847922,
    "lng": 2.6034391,
    "startYear": -50,
    "endYear": 400,
    "source": "Pleiades",
    "category": "religion",
    "description": "Remains of a rustic temple and a menhir were discovered in the early 1960s near Boutaran.",
    "props": {
      "ancientName": "Saint-Sernin-sur-Rance"
    },
    "qid": "Q1727349",
    "estimatedTemporal": true
  },
  {
    "id": "pleiades:96853716",
    "type": "temple",
    "name": "Bayon at Angkor Thom",
    "lat": 13.441222854899785,
    "lng": 103.85891557744947,
    "startYear": 1150,
    "endYear": 1250,
    "source": "Pleiades",
    "category": "religion",
    "qid": "Q654024",
    "description": "A temple in the Khmer capital of Angkor Thom, constructed in the late 12th or early 13th century CE.",
    "estimatedTemporal": true
  },
  {
    "id": "pleiades:199455019",
    "type": "sanctuary",
    "name": "Temple of Apollo (Side)",
    "lat": 36.76424251328941,
    "lng": 31.386705072521632,
    "startYear": -500,
    "endYear": 400,
    "source": "Pleiades",
    "category": "religion",
    "description": "A Roman temple at Side dating to the reign of Antoninus Pius.",
    "estimatedTemporal": true,
    "qid": "Q4500686"
  },
  {
    "id": "pleiades:589838168",
    "type": "sanctuary",
    "name": "Zar Trypa Cave Sanctuary",
    "lat": 39.82,
    "lng": 22.642,
    "startYear": -144,
    "endYear": 400,
    "source": "Pleiades",
    "category": "religion",
    "description": "A cave sanctuary, dedicated to the Nymphs, located on the east side of Mount Ossa's western \"Psila Dendra\" ridge north of the modern village of Spilia. Epigraphic and other evidence indicates the sanctuary was active from the Classical through Roman periods.",
    "props": {
      "ancientName": "Zar Trypa"
    },
    "estimatedTemporal": true
  },
  {
    "id": "pleiades:540510822",
    "type": "sanctuary",
    "name": "Pigades",
    "lat": 35.29037156607154,
    "lng": 33.087664854864045,
    "startYear": -50,
    "endYear": 400,
    "source": "Pleiades",
    "category": "religion",
    "qid": "Q22986752",
    "description": "A Late Bronze Age settlement and sanctuary.",
    "estimatedTemporal": true
  },
  {
    "id": "pleiades:81187433",
    "type": "temple",
    "name": "Doric temple",
    "lat": 40.7482879,
    "lng": 14.4879835,
    "startYear": -337,
    "endYear": 400,
    "source": "Pleiades",
    "category": "religion",
    "qid": "Q3983179",
    "description": "A temple of the Doric order (VIII,7,30-34) located in the so-called Triangular Forum of Pompeii.",
    "estimatedTemporal": true
  },
  {
    "id": "pleiades:646165662",
    "type": "sanctuary",
    "name": "Tabard Square Temple Complex",
    "lat": 51.500468,
    "lng": -0.090677,
    "startYear": 43,
    "endYear": 400,
    "source": "Pleiades",
    "category": "religion",
    "qid": "Q56293373",
    "description": "A Romano-Celtic temple complex located near the junction of Stane Street and Watling Street in modern Southwark.",
    "estimatedTemporal": true
  },
  {
    "id": "pleiades:484080361",
    "type": "sanctuary",
    "name": "Marasà Sud",
    "lat": 38.20853650286351,
    "lng": 16.238155100240775,
    "startYear": -500,
    "endYear": 400,
    "source": "Pleiades",
    "category": "religion",
    "qid": "Q123352497",
    "description": "An ancient sanctuary dedicated to Aphrodite located at Locri Epizephyrii.",
    "props": {
      "ancientName": "Aphrodite sanctuary of Marasà Sud"
    },
    "estimatedTemporal": true
  },