[{"id":"pleiades:267272","type":"bridge","name":"Unnamed bridge at Isturgi on the Guadalquivir river","lat":38.0330123,"lng":-4.0614776,"qid":"Q97630143","source":"Pleiades","props":{"description":"Its ancient name is unknown.","ancientName":"Puente romano de Andújar"},"category":"infrastructure","description":"Its ancient name is unknown.","estimatedTemporal":true,"startYear":-200,"endYear":500},{"id":"pleiades:267273","type":"bridge","name":"Puente sobre el Arroyo Rabanales","lat":37.902847,"lng":-4.732364,"source":"Pleiades","props":{"description":"A bridge, originally of Roman date, over the modern Arroyo Rabanales (a tributary of the Guadalquivir) just east of Cordoba, Spain. The bridge was in use as late as the 1920s."},"category":"infrastructure","containedInQid":"Q6091651","description":"A bridge, originally of Roman date, over the modern Arroyo Rabanales (a tributary of the Guadalquivir) just east of Cordoba, Spain. The bridge was in use as late as the 1920s.","estimatedTemporal":true,"startYear":-200,"endYear":500},{"id":"pleiades:267274","type":"bridge","name":"Untitled","lat":37.5,"lng":-4.5,"source":"Pleiades","props":{"description":"An ancient place, cited: BAtlas 27 A4 unnamed bridge (Ad Decumum on R. Guadalmellato)"},"category":"infrastructure","description":"An ancient place, cited: BAtlas 27 A4 unnamed bridge (Ad Decumum on R. Guadalmellato)","estimatedTemporal":true,"startYear":-200,"endYear":500},{"id":"pleiades:267275","type":"bridge","name":"Untitled","lat":37.5,"lng":-4.5,"source":"Pleiades","props":{"description":"An ancient place, cited: BAtlas 27 A4 unnamed bridge (Campillo Bajo on R. Guadalquivir)"},"category":"infrastructure"},{"id":"pleiades:267276","type":"bridge","name":"Villa del Río Roman Bridge","lat":37.98719284487926,"lng":-4.271617220391354,"source":"Pleiades","props":{"description":"A Roman bridge over the Arroyo Salado de Porcuna, located just east of modern Villa del Río in Spain's Cordoba province."},"category":"infrastructure","description":"A Roman bridge over the Arroyo Salado de Porcuna, located just east of modern Villa del Río in Spain's Cordoba province.","estimatedTemporal":true,"startYear":-200,"endYear":500},{"id":"pleiades:267277","type":"bridge","name":"Puente de Cañete","lat":37.8784531,"lng":-4.2135188,"qid":"Q108337284","source":"Pleiades","props":{"description":"The remains of a Roman bridge known locally as Puente Viejo or Puente de Cañete lying one mile west west of Obulco on the Arroyo Salado. The bridge may have been associated with a conjectured secondary Roman road or route between Corduba and Catulo because although unmentioned in the Antonine Itinerary, the bridge's location lies between two mentioned stations: Calpurniana and Vircao."},"category":"infrastructure","description":"The remains of a Roman bridge known locally as Puente Viejo or Puente de Cañete lying one mile west west of Obulco on the Arroyo Salado. The bridge may have been associated with a conjectured secondary Roman road or route between Corduba and Catulo because although unmentioned in the Antonine Itinerary, the bridge's location lies between two mentioned stations: Calpurniana and Vircao.","estimatedTemporal":true,"startYear":-200,"endYear":500},{"id":"pleiades:267278","type":"bridge","name":"Untitled","lat":39.726715,"lng":-3.929833,"source":"Pleiades","props":{"description":"An ancient place, cited: BAtlas 27 B2 unnamed bridge (Orgaz, SE Toledo)"},"category":"infrastructure","description":"An ancient place, cited: BAtlas 27 B2 unnamed bridge (Orgaz, SE Toledo)","estimatedTemporal":true,"startYear":-126,"endYear":500},{"id":"pleiades:267279","type":"bridge","name":"Unnamed Bridge","lat":37.59907341189635,"lng":-4.670408684201695,"source":"Pleiades","props":{"description":"This archaeologically attested Roman bridge was located east of Salaria on the Guadalquivir River."},"category":"infrastructure","description":"This archaeologically attested Roman bridge was located east of Salaria on the Guadalquivir River.","estimatedTemporal":true,"startYear":-200,"endYear":500},{"id":"pleiades:267280","type":"bridge","name":"Untitled","lat":37.5,"lng":-3.5,"source":"Pleiades","props":{"description":"An ancient place, cited: BAtlas 27 B4 unnamed bridge (NW Calecula)"},"category":"infrastructure","description":"An ancient place, cited: BAtlas 27 B4 unnamed bridge (NW Calecula)","estimatedTemporal":true,"startYear":-200,"endYear":500},{"id":"pleiades:267281","type":"bridge","name":"Untitled","lat":39.8846041,"lng":-2.2654996,"source":"Pleiades","props":{"description":"An ancient place, cited: BAtlas 27 C2 unnamed bridge (El Castellar, NW Valeria)"},"category":"infrastructure","description":"An ancient place, cited: BAtlas 27 C2 unnamed bridge (El Castellar, NW Valeria)","estimatedTemporal":true,"startYear":-170,"endYear":500},{"id":"pleiades:267282","type":"bridge","name":"Untitled","lat":39.4090773,"lng":-2.4159727,"source":"Pleiades","props":{"description":"An ancient place, cited: BAtlas 27 C2 unnamed bridge (S. Clemente on R. Rus, SW Valeria)"},"category":"infrastructure","description":"An ancient place, cited: BAtlas 27 C2 unnamed bridge (S. Clemente on R. Rus, SW Valeria)","estimatedTemporal":true,"startYear":-170,"endYear":500},{"id":"pleiades:267283","type":"bridge","name":"Puente Mocho (Río Guadalimar)","lat":38.279861,"lng":-2.9638124,"qid":"Q6091223","source":"Pleiades","props":{"description":"A Roman bridge located between Chiclana and Beas de Segura, S Mariana."},"category":"infrastructure","description":"A Roman bridge located between Chiclana and Beas de Segura, S Mariana.","estimatedTemporal":true,"startYear":-200,"endYear":500},{"id":"pleiades:267284","type":"bridge","name":"Puente de Génave Roman Bridge","lat":38.35542585,"lng":-2.8031491500000003,"qid":"Q97632198","source":"Pleiades","props":{"description":"Known locally as the Puente Romano or Puente Viejo, this single-arched bridge crosses the modern Río Guadalimar at Puente de Génave in Andalusia, Spain."},"category":"infrastructure","description":"Known locally as the Puente Romano or Puente Viejo, this single-arched bridge crosses the modern Río Guadalimar at Puente de Génave in Andalusia, Spain.","estimatedTemporal":true,"startYear":-200,"endYear":500},{"id":"pleiades:267285","type":"bridge","name":"Untitled","lat":37.929107,"lng":-2.952102,"source":"Pleiades","props":{"description":"An ancient place, cited: BAtlas 27 C4 unnamed bridge (W Tugia, Las Herrerías, Cazorla on R. Guadalquivir)"},"category":"infrastructure","description":"An ancient place, cited: BAtlas 27 C4 unnamed bridge (W Tugia, Las Herrerías, Cazorla on R. Guadalquivir)","estimatedTemporal":true,"startYear":-200,"endYear":500},{"id":"pleiades:296717","type":"bridge","name":"Untitled","lat":36.532654,"lng":1.691148,"source":"Pleiades","props":{"description":"An ancient place, cited: BAtlas 30 C3 unnamed bridge (S Cartili, Oued Damous)"},"category":"infrastructure","description":"An ancient place, cited: BAtlas 30 C3 unnamed bridge (S Cartili, Oued Damous)","estimatedTemporal":true,"startYear":-200,"endYear":500},{"id":"pleiades:296718","type":"bridge","name":"Unnamed bridges (west of Iol Caesarea)","lat":36.599367101229554,"lng":2.183035622598022,"source":"Pleiades","props":{"description":"A pair of bridges located west of Iol Caesarea, spanning the Oued el Kantara and Oued Rassoul (marked with one symbol on BAtlas)."},"category":"infrastructure","containedInQid":"Q127430450","description":"A pair of bridges located west of Iol Caesarea, spanning the Oued el Kantara and Oued Rassoul (marked with one symbol on BAtlas).","estimatedTemporal":true,"startYear":-200,"endYear":500},{"id":"pleiades:296719","type":"bridge","name":"Untitled","lat":36.424197,"lng":2.379871,"source":"Pleiades","props":{"description":"An ancient place, cited: BAtlas 30 D4 unnamed bridge (N Sidi Aissa, Sidi-Salah)"},"category":"infrastructure","description":"An ancient place, cited: BAtlas 30 D4 unnamed bridge (N Sidi Aissa, Sidi-Salah)","estimatedTemporal":true,"startYear":-200,"endYear":500},{"id":"pleiades:296720","type":"bridge","name":"Untitled","lat":36.774437,"lng":3.250637,"source":"Pleiades","props":{"description":"An ancient place, cited: BAtlas 30 F3 unnamed bridge (S Rusguniae (2): el Kounitra and Oued el Hamiz)"},"category":"infrastructure","containedInQid":"Q125421752","description":"An ancient place, cited: BAtlas 30 F3 unnamed bridge (S Rusguniae (2): el Kounitra and Oued el Hamiz)","estimatedTemporal":true,"startYear":-200,"endYear":500},{"id":"pleiades:296721","type":"bridge","name":"Untitled","lat":36.761713,"lng":3.773258,"source":"Pleiades","props":{"description":"An ancient place, cited: BAtlas 30 G3 unnamed bridge (near Castellum Tulei, Oued Chender)"},"category":"infrastructure","description":"An ancient place, cited: BAtlas 30 G3 unnamed bridge (near Castellum Tulei, Oued Chender)","estimatedTemporal":true,"startYear":43,"endYear":500},{"id":"pleiades:176421766","type":"bridge","name":"Ponte di Pratolungo","lat":41.93280479185253,"lng":12.593725228849921,"source":"Pleiades","props":{"description":"Remains of a Roman Republican bridge crossing the Fosso di Pratolungo along the line of the via Tiburtina."},"category":"infrastructure","description":"Remains of a Roman Republican bridge crossing the Fosso di Pratolungo along the line of the via Tiburtina.","estimatedTemporal":true,"startYear":-200,"endYear":500},{"id":"pleiades:135082913","type":"bridge","name":"Unnamed Roman bridge","lat":41.67016599508885,"lng":13.68296945718162,"source":"Pleiades","props":{"description":"An Unnamed Roman bridge that spans the Rio di Fontechiari."},"category":"infrastructure","description":"An Unnamed Roman bridge that spans the Rio di Fontechiari.","estimatedTemporal":true,"startYear":-200,"endYear":500},{"id":"pleiades:663875862","type":"bridge","name":"San Giuliano Roman bridge","lat":41.6336248,"lng":13.7989589,"source":"Pleiades","props":{"description":"A Roman bridge crossing the Melfa river in Lazio, Italy."},"category":"infrastructure","description":"A Roman bridge crossing the Melfa river in Lazio, Italy.","estimatedTemporal":true,"startYear":-200,"endYear":500},{"id":"pleiades:148202","type":"bridge","name":"Sextantio","lat":43.64232,"lng":3.896373,"qid":"Q11949612","source":"Pleiades","props":{"description":"Sextantio was a Celtic settlement at a ford on the Ledus fl. and later became a Gallo-Roman town.","ancientName":"Sextantio"},"category":"infrastructure","description":"Sextantio was a Celtic settlement at a ford on the Ledus fl. and later became a Gallo-Roman town.","estimatedTemporal":true,"startYear":-110,"endYear":500},{"id":"pleiades:149492","type":"bridge","name":"Pont d'Ambroix","lat":43.7172164,"lng":4.151942549999999,"source":"Pleiades","props":{"description":"A bridge over the Vidourle and road station on the Via Domitia."},"category":"infrastructure","description":"A bridge over the Vidourle and road station on the Via Domitia.","estimatedTemporal":true,"startYear":-110,"endYear":500},{"id":"pleiades:149493","type":"bridge","name":"Roman Bridge at Villevieille, Sommières","lat":43.78223547231463,"lng":4.088960991551396,"source":"Pleiades","props":{"description":"The so-called \"Pont Tibère\" in the modern French commune of Villevieille, in Sommières canton, France. Its ancient name is unknown."},"category":"infrastructure","description":"The so-called \"Pont Tibère\" in the modern French commune of Villevieille, in Sommières canton, France. Its ancient name is unknown.","estimatedTemporal":true,"startYear":-50,"endYear":500},{"id":"pleiades:149494","type":"bridge","name":"Roman Bridge at Moulin de Boisseron","lat":43.761684149999994,"lng":4.08143775,"qid":"Q22976746","source":"Pleiades","props":{"description":"Ancient name unknown. Located in modern Boisseron, France."},"category":"infrastructure","description":"Ancient name unknown. Located in modern Boisseron, France.","estimatedTemporal":true,"startYear":-110,"endYear":500},{"id":"pleiades:149495","type":"bridge","name":"Nages Roman Bridge","lat":43.7914388,"lng":4.2109259,"qid":"Q3354378","source":"Pleiades","props":{"description":"An unnamed Roman bridge over the modern river Rhôny. It is located in the modern Nages-et-Solorgues commune in France's Gard department."},"category":"infrastructure","description":"An unnamed Roman bridge over the modern river Rhôny. It is located in the modern Nages-et-Solorgues commune in France's Gard department.","estimatedTemporal":true,"startYear":-50,"endYear":500},{"id":"pleiades:149497","type":"bridge","name":"Untitled","lat":43.681847,"lng":4.626751,"source":"Pleiades","props":{"description":"An ancient place, cited: BAtlas 15 D2 unnamed bridge (Col. Arelate (pontoon bridge))"},"category":"infrastructure","description":"An ancient place, cited: BAtlas 15 D2 unnamed bridge (Col. Arelate (pontoon bridge))","estimatedTemporal":true,"startYear":-110,"endYear":500},{"id":"pleiades:149498","type":"bridge","name":"Vaison-la-Romaine Roman Bridge","lat":44.23891185,"lng":5.07466205,"qid":"Q2179572","source":"Pleiades","props":{"description":"The Roman bridge at Vaison-la-Romaine is supposedly dated to the first century CE."},"category":"infrastructure","description":"The Roman bridge at Vaison-la-Romaine is supposedly dated to the first century CE.","estimatedTemporal":true,"startYear":-50,"endYear":500},{"id":"pleiades:149499","type":"bridge","name":"Pont Flavien","lat":43.54065216666667,"lng":5.043846299999999,"qid":"Q2103625","source":"Pleiades","props":{"description":"A Roman bridge that carries the Via Julia Augusta across the Touloubre river."},"category":"infrastructure","description":"A Roman bridge that carries the Via Julia Augusta across the Touloubre river.","estimatedTemporal":true,"startYear":-110,"endYear":500},{"id":"pleiades:149500","type":"bridge","name":"Pont Julien","lat":43.86272390133762,"lng":5.306486299795836,"qid":"Q138380173","source":"Pleiades","props":{"description":"A bridge that spans the river known as the Cavalon (French), once part of the Via Domitia."},"category":"infrastructure","description":"A bridge that spans the river known as the Cavalon (French), once part of the Via Domitia.","estimatedTemporal":true,"startYear":-50,"endYear":500},{"id":"pleiades:855536858","type":"bridge","name":"Roman bridge at Ascain","lat":43.35023220304213,"lng":-1.621914323384264,"qid":"Q49344664","source":"Pleiades","props":{"description":"A fifth-century Roman bridge over the river Nivelle at Ascain in France."},"category":"infrastructure","description":"A fifth-century Roman bridge over the river Nivelle at Ascain in France.","estimatedTemporal":true,"startYear":-50,"endYear":500},{"id":"pleiades:631631547","type":"bridge","name":"Handere bridge","lat":39.23274939717021,"lng":38.273133718820375,"source":"Pleiades","props":{"description":"A bridge on the road from to Egin and Harput."},"category":"infrastructure","containedInQid":"Q131402667","description":"A bridge on the road from to Egin and Harput.","estimatedTemporal":true,"startYear":23,"endYear":500},{"id":"pleiades:613488678","type":"bridge","name":"Cobos Roman bridge","lat":40.5716404,"lng":-4.8989371,"qid":"Q6091545","source":"Pleiades","props":{"description":"A bridge with Roman origins across the río Adaja."},"category":"infrastructure","description":"A bridge with Roman origins across the río Adaja.","estimatedTemporal":true,"startYear":-126,"endYear":500},{"id":"pleiades:100447491","type":"bridge","name":"Pons Neronianus","lat":41.901,"lng":12.4641,"qid":"Q1902995","source":"Pleiades","props":{"description":"A bridge across the Tiber river built either by Caius or Nero in order to connect the western part of the Campus Martius with the Campus Vaticanus."},"category":"infrastructure","description":"A bridge across the Tiber river built either by Caius or Nero in order to connect the western part of the Campus Martius with the Campus Vaticanus.","estimatedTemporal":true,"startYear":-200,"endYear":500},{"id":"pleiades:385053","type":"bridge","name":"Unnamed bridge at Lévérogne","lat":45.7024174,"lng":7.2074956,"source":"Pleiades","props":{"description":"According to the Barrington Atlas directory, an ancient group of bridges crossing the river Duria (Bautica) is found at Villeneuve/Leverogne to the west of Aosta."},"category":"infrastructure","description":"According to the Barrington Atlas directory, an ancient group of bridges crossing the river Duria (Bautica) is found at Villeneuve/Leverogne to the west of Aosta.","estimatedTemporal":true,"startYear":-19,"endYear":500},{"id":"pleiades:385054","type":"bridge","name":"Roman Bridge of Châtillon","lat":45.7480008,"lng":7.6108771,"source":"Pleiades","props":{"description":"A Roman bridge over the Torrente Marmore at Châtillon in the Valle d'Aosta, Italy.","ancientName":"Ponte di Châtillon"},"category":"infrastructure","description":"A Roman bridge over the Torrente Marmore at Châtillon in the Valle d'Aosta, Italy.","estimatedTemporal":true,"startYear":-19,"endYear":500},{"id":"pleiades:385055","type":"bridge","name":"Unnamed bridge at Vitricium","lat":45.75,"lng":7.75,"source":"Pleiades","props":{"description":"An ancient place, cited: BAtlas 39 B2 unnamed bridge (at Vitricium)"},"category":"infrastructure","description":"An ancient place, cited: BAtlas 39 B2 unnamed bridge (at Vitricium)","estimatedTemporal":true,"startYear":-19,"endYear":500},{"id":"pleiades:385056","type":"bridge","name":"Pont-Saint-Martin (bridge)","lat":45.5992967,"lng":7.800099850000001,"qid":"Q1339290","source":"Pleiades","props":{"description":"A Roman segmental arch bridge in the Aosta Valley in Italy that dates to the first century BC. The bridge spans 31.4 m across the Betuctelum to the NNW of Eporedia."},"category":"infrastructure","description":"A Roman segmental arch bridge in the Aosta Valley in Italy that dates to the first century BC. The bridge spans 31.4 m across the Betuctelum to the NNW of Eporedia.","estimatedTemporal":true,"startYear":-19,"endYear":500},{"id":"pleiades:385057","type":"bridge","name":"Unnamed bridge at Bard","lat":45.611788149999995,"lng":7.7442709999999995,"source":"Pleiades","props":{"description":"The so-called \"Ponte di Bard\" located at Bard, to the southeast of Vitricium."},"category":"infrastructure","description":"The so-called \"Ponte di Bard\" located at Bard, to the southeast of Vitricium.","estimatedTemporal":true,"startYear":-19,"endYear":500},{"id":"pleiades:385058","type":"bridge","name":"Unnamed bridge","lat":44.757596,"lng":8.833833,"qid":"Q137669451","source":"Pleiades","props":{"description":"An unnamed bridge over the Ir(i)a fl., north of Libarna."},"category":"infrastructure","description":"An unnamed bridge over the Ir(i)a fl., north of Libarna.","estimatedTemporal":true,"startYear":-188,"endYear":500},{"id":"pleiades:385059","type":"bridge","name":"Untitled","lat":45.75,"lng":9.25,"source":"Pleiades","props":{"description":"An ancient place, cited: BAtlas 39 E2 unnamed bridge (over Addua fl. SE Monte Barro)"},"category":"infrastructure","description":"An ancient place, cited: BAtlas 39 E2 unnamed bridge (over Addua fl. SE Monte Barro)","estimatedTemporal":true,"startYear":-14,"endYear":500},{"id":"pleiades:385060","type":"bridge","name":"Untitled","lat":45.75,"lng":9.25,"source":"Pleiades","props":{"description":"An ancient place, cited: BAtlas 39 E2 unnamed bridge (at Annone Brianza, SW Monte Barro)"},"category":"infrastructure"},{"id":"pleiades:385061","type":"bridge","name":"Roman bridge at Clastidium","lat":45.011113,"lng":9.123457,"source":"Pleiades","props":{"description":"An ancient place, cited: BAtlas 39 E3 unnamed bridge (at Clastidium)"},"category":"infrastructure","containedInQid":"Q675000","description":"An ancient place, cited: BAtlas 39 E3 unnamed bridge (at Clastidium)","estimatedTemporal":true,"startYear":-188,"endYear":500},{"id":"pleiades:385062","type":"bridge","name":"Untitled","lat":45.25,"lng":9.25,"source":"Pleiades","props":{"description":"An ancient place, cited: BAtlas 39 E3 unnamed bridge (over Ticinus fl., at Ticinum)"},"category":"infrastructure","description":"An ancient place, cited: BAtlas 39 E3 unnamed bridge (over Ticinus fl., at Ticinum)","estimatedTemporal":true,"startYear":-200,"endYear":500},{"id":"pleiades:385063","type":"bridge","name":"Untitled","lat":44.999293,"lng":8.998533,"qid":"Q112140757","source":"Pleiades","props":{"description":"An ancient place, cited: BAtlas 39 E4 unnamed bridge (over Iria fl., at Iria)"},"category":"infrastructure","description":"An ancient place, cited: BAtlas 39 E4 unnamed bridge (over Iria fl., at Iria)","estimatedTemporal":true,"startYear":-188,"endYear":500},{"id":"pleiades:385064","type":"bridge","name":"Untitled","lat":45.75,"lng":9.75,"source":"Pleiades","props":{"description":"An ancient place, cited: BAtlas 39 F2 unnamed bridge group (at Almenno S. Bartolomeo/Salvatore, NW Bergomum)"},"category":"infrastructure","description":"An ancient place, cited: BAtlas 39 F2 unnamed bridge group (at Almenno S. Bartolomeo/Salvatore, NW Bergomum)","estimatedTemporal":true,"startYear":-14,"endYear":500},{"id":"pleiades:385065","type":"bridge","name":"Unnamed bridge","lat":45.009302,"lng":9.767245,"source":"Pleiades","props":{"description":"An unnamed bridge over the Nure fl., southeast of Placentia."},"category":"infrastructure","description":"An unnamed bridge over the Nure fl., southeast of Placentia.","estimatedTemporal":true,"startYear":-188,"endYear":500},{"id":"pleiades:385066","type":"bridge","name":"Untitled","lat":44.75,"lng":10.25,"source":"Pleiades","props":{"description":"An ancient place, cited: BAtlas 39 G4 unnamed bridge (over [Sesterrio] fl., at Fidentia)"},"category":"infrastructure","description":"An ancient place, cited: BAtlas 39 G4 unnamed bridge (over [Sesterrio] fl., at Fidentia)","estimatedTemporal":true,"startYear":-188,"endYear":500},{"id":"pleiades:385067","type":"bridge","name":"Enza Roman Bridge","lat":44.7699767,"lng":10.42671335,"source":"Pleiades","props":{"description":"An unnamed Roman bridge on the Via Aemilia over the ancient Incia river. Located near modern S. Ilario d’Enza in Italy."},"category":"infrastructure","description":"An unnamed Roman bridge on the Via Aemilia over the ancient Incia river. Located near modern S. Ilario d’Enza in Italy.","estimatedTemporal":true,"startYear":-188,"endYear":500},{"id":"pleiades:93478894","type":"bridge","name":"Ponte Brabaciera","lat":39.7385368,"lng":9.1390874,"source":"Pleiades","props":{"description":"A second-century Roman bridge on the Riu Brabaciera.","ancientName":"Ponte Romano di Rio Brabaciera"},"category":"infrastructure","description":"A second-century Roman bridge on the Riu Brabaciera.","estimatedTemporal":true,"startYear":-200,"endYear":500},{"id":"pleiades:551907","type":"bridge","name":"Untitled","lat":39.75,"lng":26.25,"source":"Pleiades","props":{"description":"An ancient place, cited: BAtlas 56 C2 unnamed bridge (N Smintheion)"},"category":"infrastructure","description":"An ancient place, cited: BAtlas 56 C2 unnamed bridge (N Smintheion)","estimatedTemporal":true,"startYear":-126,"endYear":500},{"id":"pleiades:551908","type":"bridge","name":"Untitled","lat":39.160108,"lng":26.295366,"source":"Pleiades","props":{"description":"An ancient place, cited: BAtlas 56 C3 unnamed bridge (near Pyrra, on Lesbos)"},"category":"infrastructure","description":"An ancient place, cited: BAtlas 56 C3 unnamed bridge (near Pyrra, on Lesbos)","estimatedTemporal":true,"startYear":-77,"endYear":500},{"id":"pleiades:551909","type":"bridge","name":"Untitled","lat":39.771213,"lng":27.648097,"qid":"Q12883418","source":"Pleiades","props":{"description":"An ancient place, cited: BAtlas 56 F2 unnamed bridge (at Pericharaxis)"},"category":"infrastructure","description":"An ancient place, cited: BAtlas 56 F2 unnamed bridge (at Pericharaxis)","estimatedTemporal":true,"startYear":-126,"endYear":500},{"id":"pleiades:551910","type":"bridge","name":"Unnamed bridge","lat":38.539194,"lng":27.9694445,"source":"Pleiades","props":{"description":"The remains of a bridge of Byzantine or Turkish construction located northwest of Sardis."},"category":"infrastructure","description":"The remains of a bridge of Byzantine or Turkish construction located northwest of Sardis.","estimatedTemporal":true,"startYear":-126,"endYear":500},{"id":"pleiades:551911","type":"bridge","name":"Untitled","lat":38.436382,"lng":27.534187,"qid":"Q131402857","source":"Pleiades","props":{"description":"An ancient place, cited: BAtlas 56 F5 unnamed bridge (S Mostene?)"},"category":"infrastructure","description":"An ancient place, cited: BAtlas 56 F5 unnamed bridge (S Mostene?)","estimatedTemporal":true,"startYear":-126,"endYear":500},{"id":"pleiades:551912","type":"bridge","name":"Untitled","lat":39.853624,"lng":28.189246,"source":"Pleiades","props":{"description":"An ancient place, cited: BAtlas 56 G2 unnamed bridge (NE Laneion)"},"category":"infrastructure","description":"An ancient place, cited: BAtlas 56 G2 unnamed bridge (NE Laneion)","estimatedTemporal":true,"startYear":-126,"endYear":500},{"id":"pleiades:551913","type":"bridge","name":"Untitled","lat":38.543328,"lng":28.289624,"source":"Pleiades","props":{"description":"An ancient place, cited: BAtlas 56 G4 unnamed bridge (near Satala)"},"category":"infrastructure","description":"An ancient place, cited: BAtlas 56 G4 unnamed bridge (near Satala)","estimatedTemporal":true,"startYear":-126,"endYear":500},{"id":"pleiades:317667991","type":"bridge","name":"Ponte Valentino","lat":41.145533424695245,"lng":14.830154775294343,"qid":"Q3908039","source":"Pleiades","props":{"description":"A Roman bridge located east of Benevento, Italy, and built by Flavius Iulius Valens."},"category":"infrastructure","description":"A Roman bridge located east of Benevento, Italy, and built by Flavius Iulius Valens.","estimatedTemporal":true,"startYear":-200,"endYear":500},{"id":"pleiades:844957","type":"bridge","name":"Iustiniani Pons","lat":40.73734065,"lng":30.372651675,"qid":"Q144629","source":"Pleiades","props":{"description":"The Bridge of Justinian or Sangarius Bridge is a Late Roman bridge built by the emperor Justinian I across the Sangarius river. The bridge's original span was ca. 430 m.","ancientName":"Iustiniani Pons"},"category":"infrastructure","description":"The Bridge of Justinian or Sangarius Bridge is a Late Roman bridge built by the emperor Justinian I across the Sangarius river. The bridge's original span was ca. 430 m.","estimatedTemporal":true,"startYear":-66,"endYear":500},{"id":"pleiades:845084","type":"bridge","name":"Tios/Tieion","lat":41.571174366755656,"lng":32.03150953999192,"source":"Pleiades","props":{"description":"An ancient place, cited: BAtlas 86 C2 Tios/Tieion","ancientName":"Tios"},"category":"infrastructure","description":"An ancient place, cited: BAtlas 86 C2 Tios/Tieion","estimatedTemporal":true,"startYear":-200,"endYear":500},{"id":"pleiades:846357","type":"bridge","name":"Untitled","lat":40.5,"lng":31.5,"source":"Pleiades","props":{"description":"An ancient place, cited: BAtlas 86 B3 unnamed bridge (Iuliopolis)"},"category":"infrastructure","description":"An ancient place, cited: BAtlas 86 B3 unnamed bridge (Iuliopolis)","estimatedTemporal":true,"startYear":-66,"endYear":500},{"id":"pleiades:846358","type":"bridge","name":"Untitled","lat":40.5,"lng":31.5,"source":"Pleiades","props":{"description":"An ancient place, cited: BAtlas 86 B3 unnamed bridge (Prusias ad Hypium)"},"category":"infrastructure"},{"id":"pleiades:846359","type":"bridge","name":"Untitled","lat":40.5,"lng":31.5,"source":"Pleiades","props":{"description":"An ancient place, cited: BAtlas 86 B3 unnamed bridge (on Siberis fl., near *Hieronpotamon)"},"category":"infrastructure"},{"id":"pleiades:846360","type":"bridge","name":"Untitled","lat":41.5,"lng":32.5,"source":"Pleiades","props":{"description":"An ancient place, cited: BAtlas 86 C2 unnamed bridge (SE Tieion at Derecikören)"},"category":"infrastructure","description":"An ancient place, cited: BAtlas 86 C2 unnamed bridge (SE Tieion at Derecikören)","estimatedTemporal":true,"startYear":-63,"endYear":500},{"id":"pleiades:619857","type":"bridge","name":"Untitled","lat":39.418769,"lng":33.384496,"source":"Pleiades","props":{"description":"An ancient place, cited: BAtlas 63 C2 unnamed bridge (Kesik Köprü)"},"category":"infrastructure","description":"An ancient place, cited: BAtlas 63 C2 unnamed bridge (Kesik Köprü)","estimatedTemporal":true,"startYear":-25,"endYear":500},{"id":"pleiades:619858","type":"bridge","name":"Untitled","lat":38.840066,"lng":35.173168,"qid":"Q30680414","source":"Pleiades","props":{"description":"An ancient place, cited: BAtlas 63 G3 unnamed bridge (Çokgözköprü)"},"category":"infrastructure","description":"An ancient place, cited: BAtlas 63 G3 unnamed bridge (Çokgözköprü)","estimatedTemporal":true,"startYear":23,"endYear":500},{"id":"pleiades:629672","type":"bridge","name":"Unnamed bridge","lat":39.75,"lng":36.25,"source":"Pleiades","props":{"description":"An ancient place, cited: BAtlas 64 C1 no. 1 (at Sebastopolis over Çekerek Irmak (Skylax fl.))"},"category":"infrastructure","description":"An ancient place, cited: BAtlas 64 C1 no. 1 (at Sebastopolis over Çekerek Irmak (Skylax fl.))","estimatedTemporal":true,"startYear":68,"endYear":500},{"id":"pleiades:629673","type":"bridge","name":"Unnamed bridge","lat":39.75,"lng":36.75,"qid":"Q131402845","source":"Pleiades","props":{"description":"An ancient place, cited: BAtlas 64 D1 no. 2 (12 miles WNW Sivas at Yıldızırmak)"},"category":"infrastructure","description":"An ancient place, cited: BAtlas 64 D1 no. 2 (12 miles WNW Sivas at Yıldızırmak)","estimatedTemporal":true,"startYear":68,"endYear":500},{"id":"pleiades:629674","type":"bridge","name":"Unnamed bridge","lat":39.25,"lng":37.75,"source":"Pleiades","props":{"description":"An ancient place, cited: BAtlas 64 F2 no. 3 (NW Arane at Koç Köprüsü)"},"category":"infrastructure","description":"An ancient place, cited: BAtlas 64 F2 no. 3 (NW Arane at Koç Köprüsü)","estimatedTemporal":true,"startYear":23,"endYear":500},{"id":"pleiades:629675","type":"bridge","name":"Unnamed bridge","lat":39.25,"lng":38.25,"source":"Pleiades","props":{"description":"An ancient place, cited: BAtlas 64 G2 no. 4 (SW Zimara at Burmahan on Çaltı Çay)"},"category":"infrastructure","containedInQid":"Q131402667","description":"An ancient place, cited: BAtlas 64 G2 no. 4 (SW Zimara at Burmahan on Çaltı Çay)","estimatedTemporal":true,"startYear":23,"endYear":500},{"id":"pleiades:629676","type":"bridge","name":"Unnamed bridge","lat":39.75,"lng":38.75,"source":"Pleiades","props":{"description":"An ancient place, cited: BAtlas 64 H1 no. 5 (SW Analib(l)a over Karabudak (Sabrina fl.))"},"category":"infrastructure","description":"An ancient place, cited: BAtlas 64 H1 no. 5 (SW Analib(l)a over Karabudak (Sabrina fl.))","estimatedTemporal":true,"startYear":68,"endYear":500},{"id":"pleiades:629677","type":"bridge","name":"Unnamed bridge","lat":39.75,"lng":38.75,"source":"Pleiades","props":{"description":"An ancient place, cited: BAtlas 64 H1 no. 6 (S Charax?)"},"category":"infrastructure"},{"id":"pleiades:629678","type":"bridge","name":"Unnamed bridge","lat":37.6056811,"lng":35.5849343,"source":"Pleiades","props":{"description":"An ancient place, cited: BAtlas 64 C4 no. 7 (6 miles E Comana at Kemer over Saros fl.)"},"category":"infrastructure","description":"An ancient place, cited: BAtlas 64 C4 no. 7 (6 miles E Comana at Kemer over Saros fl.)","estimatedTemporal":true,"startYear":23,"endYear":500},{"id":"pleiades:629679","type":"bridge","name":"Unnamed bridge","lat":38.25,"lng":37.25,"source":"Pleiades","props":{"description":"An ancient place, cited: BAtlas 64 E4 no. 8 (NE Pagrum? at Gâvur Ören on Sögütlü Dere)"},"category":"infrastructure","description":"An ancient place, cited: BAtlas 64 E4 no. 8 (NE Pagrum? at Gâvur Ören on Sögütlü Dere)","estimatedTemporal":true,"startYear":23,"endYear":500},{"id":"pleiades:629680","type":"bridge","name":"Unnamed bridge","lat":38.25,"lng":37.75,"source":"Pleiades","props":{"description":"An ancient place, cited: BAtlas 64 F4 no. 9 (5 miles NW Arca)"},"category":"infrastructure","description":"An ancient place, cited: BAtlas 64 F4 no. 9 (5 miles NW Arca)","estimatedTemporal":true,"startYear":23,"endYear":500},{"id":"pleiades:629681","type":"bridge","name":"Unnamed bridge","lat":38.25,"lng":37.75,"source":"Pleiades","props":{"description":"An ancient place, cited: BAtlas 64 F4 no. 10 (1.5 miles NE Zizoatra at Kırıkköprü)"},"category":"infrastructure"},{"id":"pleiades:629682","type":"bridge","name":"Unnamed bridge","lat":38.25,"lng":38.25,"source":"Pleiades","props":{"description":"An ancient place, cited: BAtlas 64 G4 no. 11 (N Melitene at Kırk Göz Köprü on Tohma Su (Melas fl.))"},"category":"infrastructure","description":"An ancient place, cited: BAtlas 64 G4 no. 11 (N Melitene at Kırk Göz Köprü on Tohma Su (Melas fl.))","estimatedTemporal":true,"startYear":23,"endYear":500},{"id":"pleiades:629683","type":"bridge","name":"Unnamed bridge","lat":38.75,"lng":38.25,"source":"Pleiades","props":{"description":"An ancient place, cited: BAtlas 64 G3 no. 12 (S Kiakis on Kuruçay)"},"category":"infrastructure","description":"An ancient place, cited: BAtlas 64 G3 no. 12 (S Kiakis on Kuruçay)","estimatedTemporal":true,"startYear":23,"endYear":500},{"id":"pleiades:629684","type":"bridge","name":"Unnamed bridge at Bahadın","lat":38.75,"lng":38.75,"source":"Pleiades","props":{"description":"A Roman-era bridge NNW Korpinik Hüyük at Bahadın on Arabkir Çay."},"category":"infrastructure","description":"A Roman-era bridge NNW Korpinik Hüyük at Bahadın on Arabkir Çay.","estimatedTemporal":true,"startYear":23,"endYear":500},{"id":"pleiades:629685","type":"bridge","name":"Karamagara Bridge","lat":38.924961,"lng":38.658486,"qid":"Q1418783","source":"Pleiades","props":{"description":"A Roman-era bridge spanning the Arabkir Çay south of Hastek Kale in Turkey. Now submerged and inaccessible.","ancientName":"Karamağara Köprüsü, Karamagara Koprusu"},"category":"infrastructure","description":"A Roman-era bridge spanning the Arabkir Çay south of Hastek Kale in Turkey. Now submerged and inaccessible.","estimatedTemporal":true,"startYear":23,"endYear":500},{"id":"pleiades:640242","type":"bridge","name":"Untitled","lat":37.75,"lng":28.75,"source":"Pleiades","props":{"description":"An ancient place, cited: BAtlas 65 A2 unnamed bridge (near Antiochia ad Maeandrum)"},"category":"infrastructure","description":"An ancient place, cited: BAtlas 65 A2 unnamed bridge (near Antiochia ad Maeandrum)","estimatedTemporal":true,"startYear":-126,"endYear":500},{"id":"pleiades:640243","type":"bridge","name":"Untitled","lat":37.878539,"lng":29.157624,"source":"Pleiades","props":{"description":"An ancient place, cited: BAtlas 65 B2 unnamed bridge (N Laodicea ad Lycum)"},"category":"infrastructure","description":"An ancient place, cited: BAtlas 65 B2 unnamed bridge (N Laodicea ad Lycum)","estimatedTemporal":true,"startYear":-126,"endYear":500},{"id":"pleiades:640244","type":"bridge","name":"Kemer bridge","lat":36.693330925,"lng":29.362000825000003,"source":"Pleiades","props":{"description":"A Roman segmental arch bridge over the Xanthos fl. near the ancient city of Xanthos in Lycia."},"category":"infrastructure","containedInQid":"Q996022","description":"A Roman segmental arch bridge over the Xanthos fl. near the ancient city of Xanthos in Lycia.","estimatedTemporal":true,"startYear":-164,"endYear":500},{"id":"pleiades:640245","type":"bridge","name":"Untitled","lat":36.3203,"lng":29.8157,"source":"Pleiades","props":{"description":"An ancient place, cited: BAtlas 65 C5 unnamed bridge (Dereağzi)"},"category":"infrastructure","description":"An ancient place, cited: BAtlas 65 C5 unnamed bridge (Dereağzi)","estimatedTemporal":true,"startYear":-164,"endYear":500},{"id":"pleiades:640246","type":"bridge","name":"Limyra Bridge","lat":36.350935,"lng":30.21186,"qid":"Q996090","source":"Pleiades","props":{"description":"A late-Roman bridge, ancient name unknown, located near the ancient city of Limyra in modern Turkey.","ancientName":"Kırk Göz Kemeri, Kirk Goz Kemeri"},"category":"infrastructure","description":"A late-Roman bridge, ancient name unknown, located near the ancient city of Limyra in modern Turkey.","estimatedTemporal":true,"startYear":-164,"endYear":500},{"id":"pleiades:640247","type":"bridge","name":"Zindan Bridge","lat":37.81166,"lng":31.084683,"qid":"Q131402768","source":"Pleiades","props":{"description":"A Roman-era bridge associated with the Zindan Mağarası sanctuary in Turkey's Isparta province. It spans the modern Aksu river."},"category":"infrastructure","description":"A Roman-era bridge associated with the Zindan Mağarası sanctuary in Turkey's Isparta province. It spans the modern Aksu river.","estimatedTemporal":true,"startYear":-25,"endYear":500},{"id":"pleiades:640248","type":"bridge","name":"Untitled","lat":36.914232,"lng":31.162999,"qid":"Q846250","source":"Pleiades","props":{"description":"An ancient place, cited: BAtlas 65 F3 unnamed bridge (at Asarbaşı, over Eurymedon fl.)"},"category":"infrastructure","description":"An ancient place, cited: BAtlas 65 F3 unnamed bridge (at Asarbaşı, over Eurymedon fl.)","estimatedTemporal":true,"startYear":-126,"endYear":500},{"id":"pleiades:640249","type":"bridge","name":"Untitled","lat":37.25,"lng":31.25,"source":"Pleiades","props":{"description":"An ancient place, cited: BAtlas 65 F3 unnamed bridge (S Selge, at Boğurt Köprü)"},"category":"infrastructure","description":"An ancient place, cited: BAtlas 65 F3 unnamed bridge (S Selge, at Boğurt Köprü)","estimatedTemporal":true,"startYear":-126,"endYear":500},{"id":"pleiades:640250","type":"bridge","name":"Untitled","lat":37.191973,"lng":31.181033,"source":"Pleiades","props":{"description":"An ancient place, cited: BAtlas 65 F3 unnamed bridge (S Selge, at Oluk Köprü)"},"category":"infrastructure","description":"An ancient place, cited: BAtlas 65 F3 unnamed bridge (S Selge, at Oluk Köprü)","estimatedTemporal":true,"startYear":-126,"endYear":500},{"id":"pleiades:640251","type":"bridge","name":"Bridge at Aspendos","lat":36.9143333490085,"lng":31.16303517150471,"qid":"Q633757","source":"Pleiades","props":{"description":"An unnamed bridge over Eurymedon fl."},"category":"infrastructure","description":"An unnamed bridge over Eurymedon fl.","estimatedTemporal":true,"startYear":-126,"endYear":500},{"id":"pleiades:640252","type":"bridge","name":"Untitled","lat":37.030342,"lng":31.635364,"source":"Pleiades","props":{"description":"An ancient place, cited: BAtlas 65 G3 unnamed bridge (at Kotenna, over Melas fl.)"},"category":"infrastructure","description":"An ancient place, cited: BAtlas 65 G3 unnamed bridge (at Kotenna, over Melas fl.)","estimatedTemporal":true,"startYear":-126,"endYear":500},{"id":"pleiades:214128051","type":"bridge","name":"Ponte Scotonico","lat":42.02400365,"lng":13.0099219,"qid":"Q131690826","source":"Pleiades","props":{"description":"An ancient Roman bridge located along the Via Valeria near Roviano, Italy."},"category":"infrastructure","description":"An ancient Roman bridge located along the Via Valeria near Roviano, Italy.","estimatedTemporal":true,"startYear":-200,"endYear":500},{"id":"pleiades:967100965","type":"bridge","name":"Ponte d'Augusto","lat":44.063640649999996,"lng":12.563807300000002,"qid":"Q2063557","source":"Pleiades","props":{"description":"A Iulio-Claudian bridge located in Ariminum."},"category":"infrastructure","description":"A Iulio-Claudian bridge located in Ariminum.","estimatedTemporal":true,"startYear":21,"endYear":500},{"id":"pleiades:452983868","type":"bridge","name":"Ponte de Rubiaes","lat":41.90424890845731,"lng":-8.62656824858789,"qid":"Q910908","source":"Pleiades","props":{"description":"A Roman bridge located by the Rio Coura."},"category":"infrastructure","description":"A Roman bridge located by the Rio Coura.","estimatedTemporal":true,"startYear":-25,"endYear":500},{"id":"pleiades:121168648","type":"bridge","name":"Puente del Chantre","lat":40.1423643,"lng":-2.1325018499999997,"qid":"Q52870236","source":"Pleiades","props":{"description":"A Medieval bridge spanning the Jucar stream."},"category":"infrastructure","description":"A Medieval bridge spanning the Jucar stream.","estimatedTemporal":true,"startYear":-170,"endYear":500},{"id":"pleiades:705163202","type":"bridge","name":"Ponte Caldaro","lat":42.57014499500123,"lng":12.538151341121694,"source":"Pleiades","props":{"description":"A Roman bridge of the Via Flaminia."},"category":"infrastructure","description":"A Roman bridge of the Via Flaminia.","estimatedTemporal":true,"startYear":-200,"endYear":500},{"id":"pleiades:88537488","type":"bridge","name":"Pont Serme","lat":43.26862275,"lng":3.04909405,"qid":"Q2103639","source":"Pleiades","props":{"description":"A Roman bridge on the Via Domitia."},"category":"infrastructure","description":"A Roman bridge on the Via Domitia.","estimatedTemporal":true,"startYear":-110,"endYear":500},{"id":"pleiades:216938","type":"bridge","name":"Pons Constantini","lat":43.733311,"lng":24.486248,"qid":"Q3063225","source":"Pleiades","props":{"description":"An ancient place, cited: BAtlas 22 B5 Pons Constantini","ancientName":"Pons Constantini"},"category":"infrastructure","description":"An ancient place, cited: BAtlas 22 B5 Pons Constantini","estimatedTemporal":true,"startYear":51,"endYear":500},{"id":"pleiades:218198","type":"bridge","name":"Roman bridge at Valeriana","lat":43.69115,"lng":24.271632,"source":"Pleiades","props":{"description":"A bridge constructed across the Danube at the Roman fort of Valeriana."},"category":"infrastructure","description":"A bridge constructed across the Danube at the Roman fort of Valeriana.","estimatedTemporal":true,"startYear":51,"endYear":500},{"id":"pleiades:588990228","type":"bridge","name":"Ponte di Annibale - Sant'Angelo","lat":39.132931750811665,"lng":16.274567050389432,"qid":"Q55188945","source":"Pleiades","props":{"description":"A Roman bridge known by a variety of local toponyms that crosses the Savuto river. It is located in the modern Italian municipality of Altilia, Calabria."},"category":"infrastructure","description":"A Roman bridge known by a variety of local toponyms that crosses the Savuto river. It is located in the modern Italian municipality of Altilia, Calabria.","estimatedTemporal":true,"startYear":-200,"endYear":500},{"id":"pleiades:68481414","type":"bridge","name":"Pons Fabricius","lat":41.89107991559776,"lng":12.478235854839614,"qid":"Q944688","source":"Pleiades","props":{"description":"The Pons Fabricius (sometimes referred to as the Ponte dei Quattro Capi) is a first-century BC bridge in Rome that spans part of the Tiber River from the area of the Circus Flaminius to the Tiber Island.","ancientName":"Ponte dei Quattro Capi"},"category":"infrastructure","description":"The Pons Fabricius (sometimes referred to as the Ponte dei Quattro Capi) is a first-century BC bridge in Rome that spans part of the Tiber River from the area of the Circus Flaminius to the Tiber Island.","estimatedTemporal":true,"startYear":-62,"endYear":500},{"id":"pleiades:244583542","type":"bridge","name":"Ponte Apollosa","lat":41.0750945,"lng":14.7129451,"source":"Pleiades","props":{"description":"Ponte Apollosa, a bridge of the Via Appia that may have been restored by Septimius Severus in 198 CE.","ancientName":"Ponte Apollosa"},"category":"infrastructure","description":"Ponte Apollosa, a bridge of the Via Appia that may have been restored by Septimius Severus in 198 CE.","estimatedTemporal":true,"startYear":148,"endYear":248},{"id":"pleiades:1628988","type":"bridge","name":"Pietra Dell’Oglio (bridge)","lat":40.965243794279836,"lng":15.563056318171212,"source":"Pleiades","props":{"description":"A Roman bridge crossing the Aufidus (modern Ofanto) river at the border between the modern Italian provinces of Campania and Basilicata. The bridge is one of two candidate identifications for the \"Pons Aufidi\" shown on the Peutinger map (the Ponte S. Venere), a possibility bolstered by recent comparative archaeological studies of the two bridges. The Pietra Dell'Oglio remains in use today for the Strada Comunale Fs di Monteverde, which connects to the Strada Statale 401 dir dell'Alto Ofanto e del Vulture at the southeast end of the bridge."},"category":"infrastructure","description":"A Roman bridge crossing the Aufidus (modern Ofanto) river at the border between the modern Italian provinces of Campania and Basilicata. The bridge is one of two candidate identifications for the \"Pons Aufidi\" shown on the Peutinger map (the Ponte S. Venere), a possibility bolstered by recent comparative archaeological studies of the two bridges. The Pietra Dell'Oglio remains in use today for the Strada Comunale Fs di Monteverde, which connects to the Strada Statale 401 dir dell'Alto Ofanto e del Vulture at the southeast end of the bridge.","estimatedTemporal":true,"startYear":-200,"endYear":500},{"id":"pleiades:446574720","type":"bridge","name":"Ponte di Diocleziano, San Lazzaro di Fossombrone","lat":43.6831366,"lng":12.7713803,"qid":"Q18498853","source":"Pleiades","props":{"description":"The so-called \"Ponte di Diocleziano\" in the local comune of San Lazzaro di Fossombrone was a Roman bridge along the Via Flaminia in the valley of the Metaurus river. The Roman bridge was completely destroyed during the Second World War."},"category":"infrastructure","description":"The so-called \"Ponte di Diocleziano\" in the local comune of San Lazzaro di Fossombrone was a Roman bridge along the Via Flaminia in the valley of the Metaurus river. The Roman bridge was completely destroyed during the Second World War.","estimatedTemporal":true,"startYear":-200,"endYear":500},{"id":"pleiades:110784870","type":"bridge","name":"Roman bridge at Habitancum","lat":55.1700915,"lng":-2.1764202,"qid":"Q26651678","source":"Pleiades","props":{"description":"Structural remains of a Roman bridge located on the River Rede in the vicinity of Habitancum Roman fort. The bridge lay along the ancient Watling Street."},"category":"infrastructure","description":"Structural remains of a Roman bridge located on the River Rede in the vicinity of Habitancum Roman fort. The bridge lay along the ancient Watling Street.","estimatedTemporal":true,"startYear":84,"endYear":500},{"id":"pleiades:376634672","type":"bridge","name":"Ponte dell'Ospedalato","lat":41.8341512,"lng":12.8976195,"source":"Pleiades","props":{"description":"A Roman bridge located near Praeneste."},"category":"infrastructure","description":"A Roman bridge located near Praeneste.","estimatedTemporal":true,"startYear":-200,"endYear":500},{"id":"pleiades:183817908","type":"bridge","name":"Unnamed bridge over the Simbruina Stagna (Anio flumen) at Villa Neronis","lat":41.922059,"lng":13.101729,"source":"Pleiades","props":{"description":"Unlabeled feature captured from the Barrington Atlas"},"category":"infrastructure","description":"Unlabeled feature captured from the Barrington Atlas","estimatedTemporal":true,"startYear":-200,"endYear":500},{"id":"pleiades:286808786","type":"bridge","name":"Pons Sublicius","lat":42.678308540569176,"lng":12.327542552487452,"qid":"Q1466700","source":"Pleiades","props":{"description":"The Pons Sublicius is traditionally held to be the earliest Roman bridge across the river Tiber. The textual tradition assigns its construction to the king Ancus Marcius in 642 B.C. It crossed the Tiber River near the Forum Boarium just downstream from Tiber Island.","ancientName":"Pons Theodosii"},"category":"infrastructure","description":"The Pons Sublicius is traditionally held to be the earliest Roman bridge across the river Tiber. The textual tradition assigns its construction to the king Ancus Marcius in 642 B.C. It crossed the Tiber River near the Forum Boarium just downstream from Tiber Island.","estimatedTemporal":true,"startYear":-200,"endYear":500},{"id":"pleiades:259024851","type":"bridge","name":"Roman bridge of Lugo","lat":43.00193412427929,"lng":-7.563580925694127,"qid":"Q12397861","source":"Pleiades","props":{"description":"A bridge across the Minho River at Lugo with Roman origins. Heavily restored in modern times, the bridge now serves as a pedestrian walkway."},"category":"infrastructure","description":"A bridge across the Minho River at Lugo with Roman origins. Heavily restored in modern times, the bridge now serves as a pedestrian walkway.","estimatedTemporal":true,"startYear":-25,"endYear":500},{"id":"pleiades:297866878","type":"bridge","name":"Via Ostiensis viaduct","lat":41.782095985447604,"lng":12.356535960578894,"source":"Pleiades","props":{"description":"A viaduct of the ancient Via Ostiensis that purportedly dates to the republican period."},"category":"infrastructure","description":"A viaduct of the ancient Via Ostiensis that purportedly dates to the republican period.","estimatedTemporal":true,"startYear":-200,"endYear":500},{"id":"pleiades:306532","type":"bridge","name":"Unnamed bridge (south of Rusicade)","lat":36.737776305184575,"lng":6.863077013877826,"source":"Pleiades","props":{"description":"Gsell (whence BAtlas) repeats an earlier report of a well-preserved Roman bridge over the \"Oued Ameur\" upstream from its confluence with the Safsaf (ancient Thapsus)."},"category":"infrastructure","description":"Gsell (whence BAtlas) repeats an earlier report of a well-preserved Roman bridge over the \"Oued Ameur\" upstream from its confluence with the Safsaf (ancient Thapsus).","estimatedTemporal":true,"startYear":-200,"endYear":500},{"id":"pleiades:306533","type":"bridge","name":"Unnamed bridge (south of Hippo Regius)","lat":36.81276434316631,"lng":7.72937894004465,"source":"Pleiades","props":{"description":"Gsell (whence BAtlas) reports remains of an ancient bridge over the Oued Méboudja."},"category":"infrastructure","description":"Gsell (whence BAtlas) reports remains of an ancient bridge over the Oued Méboudja.","estimatedTemporal":true,"startYear":-46,"endYear":500},{"id":"pleiades:306534","type":"bridge","name":"Unnamed bridge (north of Niniba)","lat":36.53649642366446,"lng":7.71402809665693,"source":"Pleiades","props":{"description":"Gsell (whence BAtlas) noted remains of a Roman bridge over the Seybouse (ancient Ubus), about 500 meters upstream from its confluence with the Frarah."},"category":"infrastructure","description":"Gsell (whence BAtlas) noted remains of a Roman bridge over the Seybouse (ancient Ubus), about 500 meters upstream from its confluence with the Frarah.","estimatedTemporal":true,"startYear":-46,"endYear":500},{"id":"pleiades:317857","type":"bridge","name":"Untitled","lat":36.25,"lng":8.75,"source":"Pleiades","props":{"description":"An ancient place, cited: BAtlas 32 C4 unnamed bridge (E Simitthu)"},"category":"infrastructure","description":"An ancient place, cited: BAtlas 32 C4 unnamed bridge (E Simitthu)","estimatedTemporal":true,"startYear":-144,"endYear":500},{"id":"pleiades:317858","type":"bridge","name":"Untitled","lat":36.25,"lng":8.75,"source":"Pleiades","props":{"description":"An ancient place, cited: BAtlas 32 C4 unnamed bridge (between Sicca Veneria and Ucubi)"},"category":"infrastructure"},{"id":"pleiades:317859","type":"bridge","name":"Untitled","lat":36.75,"lng":9.25,"source":"Pleiades","props":{"description":"An ancient place, cited: BAtlas 32 D3 unnamed bridge group (near Vicus Augusti? and Teglata?)"},"category":"infrastructure","description":"An ancient place, cited: BAtlas 32 D3 unnamed bridge group (near Vicus Augusti? and Teglata?)","estimatedTemporal":true,"startYear":-144,"endYear":500},{"id":"pleiades:317860","type":"bridge","name":"Untitled","lat":36.75,"lng":9.25,"source":"Pleiades","props":{"description":"An ancient place, cited: BAtlas 32 D3 unnamed bridge (near Vaga)"},"category":"infrastructure"},{"id":"pleiades:317861","type":"bridge","name":"Untitled","lat":36.25,"lng":9.25,"source":"Pleiades","props":{"description":"An ancient place, cited: BAtlas 32 D4 unnamed bridge (E Thubursicu Bure, near Civitas Mizigitanorum)"},"category":"infrastructure","description":"An ancient place, cited: BAtlas 32 D4 unnamed bridge (E Thubursicu Bure, near Civitas Mizigitanorum)","estimatedTemporal":true,"startYear":-144,"endYear":500},{"id":"pleiades:317862","type":"bridge","name":"Untitled","lat":36.322191,"lng":10.493508,"source":"Pleiades","props":{"description":"An ancient place, cited: BAtlas 32 G4 unnamed bridge (SW Pupput)"},"category":"infrastructure","description":"An ancient place, cited: BAtlas 32 G4 unnamed bridge (SW Pupput)","estimatedTemporal":true,"startYear":-200,"endYear":500},{"id":"pleiades:439339512","type":"bridge","name":"Pont Romà","lat":39.8824325,"lng":3.0149992,"qid":"Q43103827","source":"Pleiades","props":{"description":"A Roman bridge on the island of Majorca (Pollença, Mallorca, Spain)."},"category":"infrastructure","description":"A Roman bridge on the island of Majorca (Pollença, Mallorca, Spain).","estimatedTemporal":true,"startYear":-110,"endYear":500},{"id":"pleiades:306780756","type":"bridge","name":"Ponte di Apollo, Punicum","lat":42.0387821,"lng":11.8812405,"source":"Pleiades","props":{"description":"A Roman bridge."},"category":"infrastructure","description":"A Roman bridge.","estimatedTemporal":true,"startYear":-200,"endYear":500},{"id":"pleiades:306780757","type":"bridge","name":"Ponte Romano Di Largo Impero, Santa Marinella","lat":42.0377163,"lng":11.8764434,"source":"Pleiades","props":{"description":"The remains of a Roman bridge located in the comune of Santa Marinella."},"category":"infrastructure","description":"The remains of a Roman bridge located in the comune of Santa Marinella.","estimatedTemporal":true,"startYear":-200,"endYear":500},{"id":"pleiades:99965183","type":"bridge","name":"Yibna Bridge","lat":31.869431000000002,"lng":34.752263400000004,"qid":"Q24076759","source":"Pleiades","props":{"description":"The Mamluk arched bridge dating to the 1270s crosses the river Nahal Sorek near modern Yibna, Israel.","ancientName":"Yibna Bridge"},"category":"infrastructure","description":"The Mamluk arched bridge dating to the 1270s crosses the river Nahal Sorek near modern Yibna, Israel.","estimatedTemporal":true,"startYear":6,"endYear":500},{"id":"pleiades:413249072","type":"bridge","name":"Solestà Roman bridge","lat":42.85851385,"lng":13.5718295,"qid":"Q2103727","source":"Pleiades","props":{"description":"A Roman bridge over the Truentus river."},"category":"infrastructure","description":"A Roman bridge over the Truentus river.","estimatedTemporal":true,"startYear":-200,"endYear":500},{"id":"pleiades:679502","type":"bridge","name":"Untitled","lat":32.25,"lng":34.75,"source":"Pleiades","props":{"description":"An ancient place, cited: BAtlas 69 A5 unnamed bridge (SE Caesarea)"},"category":"infrastructure","description":"An ancient place, cited: BAtlas 69 A5 unnamed bridge (SE Caesarea)","estimatedTemporal":true,"startYear":-200,"endYear":500},{"id":"pleiades:679503","type":"bridge","name":"Untitled","lat":32.25,"lng":34.75,"source":"Pleiades","props":{"description":"An ancient place, cited: BAtlas 69 A5 unnamed bridge (near Bir el 'Abd)"},"category":"infrastructure"},{"id":"pleiades:679504","type":"bridge","name":"Untitled","lat":33.75,"lng":35.25,"source":"Pleiades","props":{"description":"An ancient place, cited: BAtlas 69 B2 unnamed bridge (Wadi ez-Zaini, N Sidon)"},"category":"infrastructure","description":"An ancient place, cited: BAtlas 69 B2 unnamed bridge (Wadi ez-Zaini, N Sidon)","estimatedTemporal":true,"startYear":-200,"endYear":500},{"id":"pleiades:679505","type":"bridge","name":"Untitled","lat":33.75,"lng":35.25,"source":"Pleiades","props":{"description":"An ancient place, cited: BAtlas 69 B2 unnamed bridge (Nahr Awali, S Sidon)"},"category":"infrastructure"},{"id":"pleiades:679506","type":"bridge","name":"Untitled","lat":33.339524,"lng":35.2507838,"source":"Pleiades","props":{"description":"A Roman bridge located in what is now Lebanon that crosses the Litani River (Leontes). The bridge is located in the vicinity of Nahr Abou Assouad, approximately 10 km north of Tyre."},"category":"infrastructure","description":"A Roman bridge located in what is now Lebanon that crosses the Litani River (Leontes). The bridge is located in the vicinity of Nahr Abou Assouad, approximately 10 km north of Tyre.","estimatedTemporal":true,"startYear":-200,"endYear":500},{"id":"pleiades:679507","type":"bridge","name":"Untitled","lat":32.570273,"lng":35.184981,"qid":"Q1812630","source":"Pleiades","props":{"description":"An ancient place, cited: BAtlas 69 B4 unnamed bridge (Legio)"},"category":"infrastructure","description":"An ancient place, cited: BAtlas 69 B4 unnamed bridge (Legio)","estimatedTemporal":true,"startYear":-63,"endYear":500},{"id":"pleiades:679508","type":"bridge","name":"Maalmetein Roman Bridge","lat":34.01289527898782,"lng":35.642738998786875,"source":"Pleiades","props":{"description":"An ancient place, cited: BAtlas 69 C1 unnamed bridge (Maameltein, N Palaibyblos)"},"category":"infrastructure","description":"An ancient place, cited: BAtlas 69 C1 unnamed bridge (Maameltein, N Palaibyblos)","estimatedTemporal":true,"startYear":-200,"endYear":500},{"id":"pleiades:679509","type":"bridge","name":"Untitled","lat":33.75,"lng":35.75,"source":"Pleiades","props":{"description":"An ancient place, cited: BAtlas 69 C2 unnamed bridge (Nahr Beyrut, E Berytus)"},"category":"infrastructure","description":"An ancient place, cited: BAtlas 69 C2 unnamed bridge (Nahr Beyrut, E Berytus)","estimatedTemporal":true,"startYear":-63,"endYear":500},{"id":"pleiades:679510","type":"bridge","name":"Untitled","lat":33.75,"lng":35.75,"source":"Pleiades","props":{"description":"An ancient place, cited: BAtlas 69 C2 unnamed bridge (Nahr el-Kelb, SW Palaibyblos)"},"category":"infrastructure"},{"id":"pleiades:679511","type":"bridge","name":"Untitled","lat":32.75,"lng":36.25,"source":"Pleiades","props":{"description":"An ancient place, cited: BAtlas 69 D4 unnamed bridge (et-Tayyibe, SE Adra(h)a)"},"category":"infrastructure","description":"An ancient place, cited: BAtlas 69 D4 unnamed bridge (et-Tayyibe, SE Adra(h)a)","estimatedTemporal":true,"startYear":-63,"endYear":500},{"id":"pleiades:679512","type":"bridge","name":"Untitled","lat":32.75,"lng":36.25,"source":"Pleiades","props":{"description":"An ancient place, cited: BAtlas 69 D4 unnamed bridge (Nahr Jemarrin, N Bostra)"},"category":"infrastructure"},{"id":"pleiades:689317","type":"bridge","name":"Untitled","lat":32.25,"lng":34.75,"source":"Pleiades","props":{"description":"An ancient place, cited: BAtlas 70 F1 unnamed bridge (Ferekhiyeh, over R. Yarkon, between Ioppe and Neapolis)"},"category":"infrastructure"},{"id":"pleiades:689318","type":"bridge","name":"Untitled","lat":32.25,"lng":34.75,"source":"Pleiades","props":{"description":"An ancient place, cited: BAtlas 70 F1 unnamed bridge (Jisr es Sudah, over R. Ayalon, between Lydda and Antipatris)"},"category":"infrastructure"},{"id":"pleiades:689319","type":"bridge","name":"Untitled","lat":31.75,"lng":34.75,"source":"Pleiades","props":{"description":"An ancient place, cited: BAtlas 70 F2 unnamed bridge (Jisr Jindas, over R. Ayalon, between Lydda and Antipatris)"},"category":"infrastructure","description":"An ancient place, cited: BAtlas 70 F2 unnamed bridge (Jisr Jindas, over R. Ayalon, between Lydda and Antipatris)","estimatedTemporal":true,"startYear":6,"endYear":500},{"id":"pleiades:689320","type":"bridge","name":"Untitled","lat":31.75,"lng":34.75,"source":"Pleiades","props":{"description":"An ancient place, cited: BAtlas 70 F2 unnamed bridge (Jisr el Rubin, on coast road over R. Soreq, near Iamneia Paralios)"},"category":"infrastructure"},{"id":"pleiades:689321","type":"bridge","name":"Untitled","lat":31.75,"lng":34.75,"source":"Pleiades","props":{"description":"An ancient place, cited: BAtlas 70 F2 unnamed bridge (el Jisr, over R. Lakhish, between Ashqelon and Ierusalem)"},"category":"infrastructure"},{"id":"pleiades:689322","type":"bridge","name":"Untitled","lat":31.75,"lng":35.25,"source":"Pleiades","props":{"description":"An unnamed bridge located near Moza, over the river Soreq, between Jerusalem and Emmaus."},"category":"infrastructure","description":"An unnamed bridge located near Moza, over the river Soreq, between Jerusalem and Emmaus.","estimatedTemporal":true,"startYear":6,"endYear":500},{"id":"pleiades:689323","type":"bridge","name":"Untitled","lat":31.75,"lng":35.25,"source":"Pleiades","props":{"description":"An ancient place, cited: BAtlas 70 G2 unnamed bridge (near Hierichous, at Jisr Wadi el Qelt across Wadi Qelt)"},"category":"infrastructure","description":"An ancient place, cited: BAtlas 70 G2 unnamed bridge (near Hierichous, at Jisr Wadi el Qelt across Wadi Qelt)","estimatedTemporal":true,"startYear":6,"endYear":500},{"id":"pleiades:689324","type":"bridge","name":"Damiya Roman Bridge","lat":32.10271825,"lng":35.53513115,"qid":"Q2916379","source":"Pleiades","props":{"description":"Sited at an ancient crossing-point over the river Jordan, between Neapolis and Philadelpheia, a Roman-era bridge is thought to have been one of many. The modern bridge and its antecedents are often referred to as the \"Damia Bridge\".","ancientName":"Jisr Damiya"},"category":"infrastructure","description":"Sited at an ancient crossing-point over the river Jordan, between Neapolis and Philadelpheia, a Roman-era bridge is thought to have been one of many. The modern bridge and its antecedents are often referred to as the \"Damia Bridge\".","estimatedTemporal":true,"startYear":6,"endYear":500},{"id":"pleiades:698379","type":"bridge","name":"Untitled","lat":31.551316,"lng":35.767994,"source":"Pleiades","props":{"description":"An ancient place, cited: BAtlas 71 B2 unnamed bridge (Valtha, over Wadi Wala)"},"category":"infrastructure","description":"An ancient place, cited: BAtlas 71 B2 unnamed bridge (Valtha, over Wadi Wala)","estimatedTemporal":true,"startYear":6,"endYear":500},{"id":"pleiades:698380","type":"bridge","name":"Untitled","lat":31.452153,"lng":35.80628,"source":"Pleiades","props":{"description":"An ancient place, cited: BAtlas 71 B3 unnamed bridge (over Arnon fl. at Wadi Mujib)"},"category":"infrastructure","description":"An ancient place, cited: BAtlas 71 B3 unnamed bridge (over Arnon fl. at Wadi Mujib)","estimatedTemporal":true,"startYear":6,"endYear":500},{"id":"pleiades:698381","type":"bridge","name":"Untitled","lat":30.75,"lng":35.75,"source":"Pleiades","props":{"description":"An ancient place, cited: BAtlas 71 B4 unnamed bridge (over Zered fl. (W) at Wadi el-Hesa)"},"category":"infrastructure","description":"An ancient place, cited: BAtlas 71 B4 unnamed bridge (over Zered fl. (W) at Wadi el-Hesa)","estimatedTemporal":true,"startYear":6,"endYear":500},{"id":"pleiades:698382","type":"bridge","name":"Untitled","lat":30.75,"lng":35.75,"source":"Pleiades","props":{"description":"An ancient place, cited: BAtlas 71 B4 unnamed bridge (over Zered fl. (E) at Wadi el-Hesa)"},"category":"infrastructure"},{"id":"pleiades:66910159","type":"bridge","name":"Ponte Romano di Viale Roma","lat":42.0370513,"lng":11.8722269,"source":"Pleiades","props":{"description":"The ruins of a Roman bridge located in the Viale Roma, Santa Marinella, Italy."},"category":"infrastructure","description":"The ruins of a Roman bridge located in the Viale Roma, Santa Marinella, Italy.","estimatedTemporal":true,"startYear":-200,"endYear":500},{"id":"pleiades:789975647","type":"bridge","name":"Unnamed Roman bridge","lat":39.479433084240405,"lng":-6.26752868872106,"source":"Pleiades","props":{"description":"The remains of a bridge located in Sierra de Fuentes, Spain."},"category":"infrastructure","description":"The remains of a bridge located in Sierra de Fuentes, Spain.","estimatedTemporal":true,"startYear":-126,"endYear":500},{"id":"pleiades:591167","type":"bridge","name":"Untitled","lat":35.371064,"lng":24.21092,"qid":"Q134583093","source":"Pleiades","props":{"description":"An ancient place, cited: BAtlas 60 B2 unnamed bridge (W Amphimala)"},"category":"infrastructure","description":"An ancient place, cited: BAtlas 60 B2 unnamed bridge (W Amphimala)","estimatedTemporal":true,"startYear":-200,"endYear":500},{"id":"pleiades:591168","type":"bridge","name":"Eleutherna Bridge","lat":35.3380413,"lng":24.670378550000002,"qid":"Q996135","source":"Pleiades","props":{"description":"An ancient place, cited: BAtlas 60 C2 unnamed bridge (Eleutherna)"},"category":"infrastructure","description":"An ancient place, cited: BAtlas 60 C2 unnamed bridge (Eleutherna)","estimatedTemporal":true,"startYear":-200,"endYear":500},{"id":"pleiades:334776903","type":"bridge","name":"Pons Aelius","lat":41.90189433889392,"lng":12.466439912123187,"qid":"Q870476","source":"Pleiades","props":{"description":"The Pons Aelius or Aelian Bridge (now Ponte Sant'Angelo) was completed by Hadrian in AD 134 to span the Tiber opposite the new mausoleum of the emperor.","ancientName":"Ponte Sant'Angelo"},"category":"infrastructure","description":"The Pons Aelius or Aelian Bridge (now Ponte Sant'Angelo) was completed by Hadrian in AD 134 to span the Tiber opposite the new mausoleum of the emperor.","estimatedTemporal":true,"startYear":-200,"endYear":500},{"id":"pleiades:158906364","type":"bridge","name":"Ponte Sereno","lat":41.704699950000006,"lng":13.2668477,"qid":"Q133441687","source":"Pleiades","props":{"description":"A bridge near Ferentinum (modern Ferentino in Italy) that is traditionally dated to A.D. 260 or after. A substructure in polygonal masonry supports the bridge."},"category":"infrastructure","description":"A bridge near Ferentinum (modern Ferentino in Italy) that is traditionally dated to A.D. 260 or after. A substructure in polygonal masonry supports the bridge.","estimatedTemporal":true,"startYear":-200,"endYear":500},{"id":"pleiades:550561","type":"bridge","name":"(H)Alesion Pedion","lat":39.584862,"lng":26.109862,"source":"Pleiades","props":{"description":"An ancient place, cited: BAtlas 56 C2 (H)Alesion Pedion","ancientName":" Halesion Pedion"},"category":"infrastructure","description":"An ancient place, cited: BAtlas 56 C2 (H)Alesion Pedion","estimatedTemporal":true,"startYear":-200,"endYear":500},{"id":"pleiades:425067","type":"bridge","name":"Unnamed bridge (Ad Turres)","lat":41.936088,"lng":12.155399500000001,"source":"Pleiades","props":{"description":"An ancient place, cited: BAtlas 43 A2 unnamed bridge (Ad Turres)"},"category":"infrastructure","description":"An ancient place, cited: BAtlas 43 A2 unnamed bridge (Ad Turres)","estimatedTemporal":true,"startYear":-200,"endYear":500},{"id":"pleiades:425068","type":"bridge","name":"Pons Aemilius","lat":41.88933725410385,"lng":12.479372767819696,"qid":"Q640092","source":"Pleiades","props":{"description":"The Pons Aemilius was the first stone bridge built across the Tiber River at Rome (241 B.C.). Its remains are known today as the 'Ponte Rotto'.","ancientName":"Ponte Rotto"},"category":"infrastructure","description":"The Pons Aemilius was the first stone bridge built across the Tiber River at Rome (241 B.C.). Its remains are known today as the 'Ponte Rotto'.","estimatedTemporal":true,"startYear":-200,"endYear":500},{"id":"pleiades:425069","type":"bridge","name":"Untitled","lat":41.875,"lng":12.625,"source":"Pleiades","props":{"description":"An ancient place, cited: BAtlas 43 C2 unnamed bridge (near Muraccio dell’Omo)"},"category":"infrastructure","description":"An ancient place, cited: BAtlas 43 C2 unnamed bridge (near Muraccio dell’Omo)","estimatedTemporal":true,"startYear":-200,"endYear":500},{"id":"pleiades:425070","type":"bridge","name":"Unnamed bridge (Cessati Spiriti)","lat":41.862522,"lng":12.533184,"source":"Pleiades","props":{"description":"An ancient place, cited: BAtlas 43 C2 unnamed bridge (Cessati Spiriti)"},"category":"infrastructure","description":"An ancient place, cited: BAtlas 43 C2 unnamed bridge (Cessati Spiriti)","estimatedTemporal":true,"startYear":-200,"endYear":500},{"id":"pleiades:425071","type":"bridge","name":"Unnamed bridge","lat":41.625,"lng":12.875,"source":"Pleiades","props":{"description":"An ancient place, cited: BAtlas 43 D3 unnamed bridge (Cora)"},"category":"infrastructure","description":"An ancient place, cited: BAtlas 43 D3 unnamed bridge (Cora)","estimatedTemporal":true,"startYear":-200,"endYear":500},{"id":"pleiades:425072","type":"bridge","name":"Untitled","lat":41.58389,"lng":12.84611,"source":"Pleiades","props":{"description":"An ancient place, cited: BAtlas 43 D3 unnamed bridge (Ad Sponsas)"},"category":"infrastructure","description":"An ancient place, cited: BAtlas 43 D3 unnamed bridge (Ad Sponsas)","estimatedTemporal":true,"startYear":-200,"endYear":500},{"id":"pleiades:425073","type":"bridge","name":"Unnamed bridge (near Forum Appii)","lat":41.375,"lng":12.875,"source":"Pleiades","props":{"description":"An ancient place, cited: BAtlas 43 D4 unnamed bridge (near Forum Appii)"},"category":"infrastructure","description":"An ancient place, cited: BAtlas 43 D4 unnamed bridge (near Forum Appii)","estimatedTemporal":true,"startYear":-200,"endYear":500},{"id":"pleiades:426578","type":"bridge","name":"Unnamed bridge over R. Quartaccio","lat":41.875,"lng":12.125,"source":"Pleiades","props":{"description":"An ancient place, cited: BAtlas 43 A2 no. 2 (bridge over R. Quartaccio)"},"category":"infrastructure","description":"An ancient place, cited: BAtlas 43 A2 no. 2 (bridge over R. Quartaccio)","estimatedTemporal":true,"startYear":-200,"endYear":500},{"id":"pleiades:426579","type":"bridge","name":"Roman bridge at Palidoro","lat":41.9301799,"lng":12.1785507,"qid":"Q2367711","source":"Pleiades","props":{"description":"An ancient Roman bridge along the Via Aurelia."},"category":"infrastructure","description":"An ancient Roman bridge along the Via Aurelia.","estimatedTemporal":true,"startYear":-200,"endYear":500},{"id":"pleiades:426580","type":"bridge","name":"Unnamed bridge","lat":41.90637082796347,"lng":12.265532115348313,"source":"Pleiades","props":{"description":"A feature included on Barrington Atlas map 43 B2 no. 4, an unnamed bridge that crosses the river Arrone."},"category":"infrastructure","description":"A feature included on Barrington Atlas map 43 B2 no. 4, an unnamed bridge that crosses the river Arrone.","estimatedTemporal":true,"startYear":-200,"endYear":500},{"id":"pleiades:426581","type":"bridge","name":"Untitled","lat":41.875,"lng":12.375,"source":"Pleiades","props":{"description":"An ancient place, cited: BAtlas 43 B2 no. 5 (bridge over Fosso di Prima Porta)"},"category":"infrastructure","description":"An ancient place, cited: BAtlas 43 B2 no. 5 (bridge over Fosso di Prima Porta)","estimatedTemporal":true,"startYear":-200,"endYear":500},{"id":"pleiades:426582","type":"bridge","name":"Untitled","lat":42.06254478358026,"lng":12.390000896654083,"source":"Pleiades","props":{"description":"An ancient place, cited: BAtlas 43 B2 no. 6 (bridge over Cremera fl.)"},"category":"infrastructure","description":"An ancient place, cited: BAtlas 43 B2 no. 6 (bridge over Cremera fl.)","estimatedTemporal":true,"startYear":-200,"endYear":500},{"id":"pleiades:426586","type":"bridge","name":"Unnamed bridge in the Piazza Eugenio Biffi","lat":41.86666403070025,"lng":12.490163496752352,"source":"Pleiades","props":{"description":"The remains of an ancient Roman bridge in the present Piazza Eugenio Biffi in Rome. This bridge is thought to have spanned the Almo river."},"category":"infrastructure","description":"The remains of an ancient Roman bridge in the present Piazza Eugenio Biffi in Rome. This bridge is thought to have spanned the Almo river.","estimatedTemporal":true,"startYear":-200,"endYear":500},{"id":"pleiades:426587","type":"bridge","name":"Untitled","lat":41.86776434405035,"lng":12.50294554417796,"source":"Pleiades","props":{"description":"An ancient place, cited: BAtlas 43 C2 no. 11 (bridge near so-called Tomb of Geta)"},"category":"infrastructure","description":"An ancient place, cited: BAtlas 43 C2 no. 11 (bridge near so-called Tomb of Geta)","estimatedTemporal":true,"startYear":-200,"endYear":500},{"id":"pleiades:426589","type":"bridge","name":"Ponte di Vallerano","lat":41.826733,"lng":12.445345,"qid":"Q134707539","source":"Pleiades","props":{"description":"The Ponte di Vallerano is a second-century Roman bridge that carried the via Ostiensis across the fosso di Vallerano.","ancientName":"Ponte di Vallerano"},"category":"infrastructure","description":"The Ponte di Vallerano is a second-century Roman bridge that carried the via Ostiensis across the fosso di Vallerano.","estimatedTemporal":true,"startYear":-200,"endYear":500},{"id":"pleiades:426590","type":"bridge","name":"Unnamed bridge","lat":41.875,"lng":12.375,"source":"Pleiades","props":{"description":"An ancient place, cited: BAtlas 43 B2 no. 14 (bridge at Mezzocamino)"},"category":"infrastructure"},{"id":"pleiades:426591","type":"bridge","name":"Ponte di Malafede","lat":41.7755265,"lng":12.3780048,"qid":"Q18785546","source":"Pleiades","props":{"description":"A Roman bridge that is no longer extant. Quilici notes that the bridge was destroyed both by the Second World War and by urbanization that followed in the post-war period. Blake publishes a photo of E. B. van Deman and indicates that the bridge was built in peperino and of \"indeterminate date\". She compares the Ponte di Malafede with the construction of the Via Appia viaduct that lies just beyond Ariccia, a structure that was Augustan in its date.","ancientName":"Ponte di Malafede"},"category":"infrastructure","description":"A Roman bridge that is no longer extant. Quilici notes that the bridge was destroyed both by the Second World War and by urbanization that followed in the post-war period. Blake publishes a photo of E. B. van Deman and indicates that the bridge was built in peperino and of \"indeterminate date\". She compares the Ponte di Malafede with the construction of the Via Appia viaduct that lies just beyond Ariccia, a structure that was Augustan in its date.","estimatedTemporal":true,"startYear":-200,"endYear":500},{"id":"pleiades:426592","type":"bridge","name":"Ponte Ladrone","lat":41.7896892,"lng":12.3751754,"source":"Pleiades","props":{"description":"The so-called Ponte Ladrone was a Roman bridge of the Via Ostiensis located at Acilia. According to L. Quilici, its remaining material vestiges were buried in 1982 by infrastructure works.","ancientName":"Ponte Ladrone"},"category":"infrastructure","description":"The so-called Ponte Ladrone was a Roman bridge of the Via Ostiensis located at Acilia. According to L. Quilici, its remaining material vestiges were buried in 1982 by infrastructure works.","estimatedTemporal":true,"startYear":-200,"endYear":500},{"id":"pleiades:426603","type":"bridge","name":"Untitled","lat":41.875,"lng":12.625,"source":"Pleiades","props":{"description":"An ancient place, cited: BAtlas 43 C2 no. 27 (bridge on Via Labicana)"},"category":"infrastructure"},{"id":"pleiades:426607","type":"bridge","name":"Untitled","lat":41.875,"lng":12.875,"source":"Pleiades","props":{"description":"An ancient place, cited: BAtlas 43 D2 no. 31 (bridge over R. Acquoria, temple and quarries)"},"category":"infrastructure","description":"An ancient place, cited: BAtlas 43 D2 no. 31 (bridge over R. Acquoria, temple and quarries)","estimatedTemporal":true,"startYear":-200,"endYear":500},{"id":"pleiades:426608","type":"bridge","name":"Roman bridges at Tibur","lat":41.963602,"lng":12.79818,"source":"Pleiades","props":{"description":"An ancient place, cited: BAtlas 43 D2 no. 32 (bridges at Tibur (2))"},"category":"infrastructure","description":"An ancient place, cited: BAtlas 43 D2 no. 32 (bridges at Tibur (2))","estimatedTemporal":true,"startYear":-200,"endYear":500},{"id":"pleiades:426610","type":"bridge","name":"Untitled","lat":41.875,"lng":12.875,"source":"Pleiades","props":{"description":"An ancient place, cited: BAtlas 43 D2 no. 34 (bridge at S. Stefano)"},"category":"infrastructure"},{"id":"pleiades:426611","type":"bridge","name":"Untitled","lat":41.9232405711212,"lng":12.783054132394374,"source":"Pleiades","props":{"description":"An ancient place, cited: BAtlas 43 D2 no. 35 (bridge (Ponte Terra))","ancientName":"Ponte Terra"},"category":"infrastructure","description":"An ancient place, cited: BAtlas 43 D2 no. 35 (bridge (Ponte Terra))","estimatedTemporal":true,"startYear":-200,"endYear":500},{"id":"pleiades:426612","type":"bridge","name":"Bridge over Fosso di Acqua Rossa","lat":41.904633,"lng":12.79031,"qid":"Q139622829","source":"Pleiades","props":{"description":"The remains of a Roman bridge that once carried a road over the Fosso di Acqua Rossa. Ward-Perkins posits a date of the second or first century BCE based on comparanda in the vicinity."},"category":"infrastructure","description":"The remains of a Roman bridge that once carried a road over the Fosso di Acqua Rossa. Ward-Perkins posits a date of the second or first century BCE based on comparanda in the vicinity.","estimatedTemporal":true,"startYear":-200,"endYear":500},{"id":"pleiades:426613","type":"bridge","name":"Ponte Ceccara","lat":41.878927388333935,"lng":12.760130441037191,"qid":"Q131900839","source":"Pleiades","props":{"description":"The Ponte Ceccara, also referred to as the ponte di Terra, is a Republican period bridge located on the fosso di Passerano along the Via Praenestina. It is located within the modern comune of Zagarolo, some 30.5 km southeast of the center of Rome."},"category":"infrastructure","description":"The Ponte Ceccara, also referred to as the ponte di Terra, is a Republican period bridge located on the fosso di Passerano along the Via Praenestina. It is located within the modern comune of Zagarolo, some 30.5 km southeast of the center of Rome.","estimatedTemporal":true,"startYear":-200,"endYear":500},{"id":"pleiades:426614","type":"bridge","name":"Ponte dell’Acqua Nera","lat":41.871736,"lng":12.7863084,"source":"Pleiades","props":{"description":"An ancient place, cited: BAtlas 43 D2 no. 38 (bridge (Ponte dell’Acqua Nera))","ancientName":"Ponte dell’Acqua Nera"},"category":"infrastructure","description":"An ancient place, cited: BAtlas 43 D2 no. 38 (bridge (Ponte dell’Acqua Nera))","estimatedTemporal":true,"startYear":-200,"endYear":500},{"id":"pleiades:426615","type":"bridge","name":"Ponte Amato","lat":41.86836795,"lng":12.81137605,"qid":"Q55162587","source":"Pleiades","props":{"description":"The bridge known as Ponte Amato carries the Via Praenestina near Gallicano nel Lazio.","ancientName":"Ponte Amato"},"category":"infrastructure","description":"The bridge known as Ponte Amato carries the Via Praenestina near Gallicano nel Lazio.","estimatedTemporal":true,"startYear":-200,"endYear":500},{"id":"pleiades:426629","type":"bridge","name":"Ponte Loreto","lat":41.64544434529342,"lng":12.694170941329187,"source":"Pleiades","props":{"description":"A Roman bridge at Lanuvium.","ancientName":"Ponte Loreto "},"category":"infrastructure","description":"A Roman bridge at Lanuvium.","estimatedTemporal":true,"startYear":-200,"endYear":500},{"id":"pleiades:426630","type":"bridge","name":"Ponte di Mele","lat":41.625,"lng":12.625,"source":"Pleiades","props":{"description":"A Roman bridge along the Via Appia.","ancientName":"Ponte di Mele"},"category":"infrastructure","description":"A Roman bridge along the Via Appia.","estimatedTemporal":true,"startYear":-200,"endYear":500},{"id":"pleiades:426631","type":"bridge","name":"Untitled","lat":41.625,"lng":12.875,"source":"Pleiades","props":{"description":"An ancient place, cited: BAtlas 43 D3 no. 55 (bridge over Fosso delle Mole)"},"category":"infrastructure"},{"id":"pleiades:426634","type":"bridge","name":"Ponte di Traiano at Tor Tre Ponti","lat":41.50349415,"lng":12.95039285,"source":"Pleiades","props":{"description":"A Roman bridge located on the Via Appia at modern Tor Tre Ponti.","ancientName":"Ponte di Traiano"},"category":"infrastructure","containedInQid":"Q18453921","description":"A Roman bridge located on the Via Appia at modern Tor Tre Ponti.","estimatedTemporal":true,"startYear":-200,"endYear":500},{"id":"pleiades:426635","type":"bridge","name":"Untitled","lat":41.375,"lng":12.875,"source":"Pleiades","props":{"description":"An ancient place, cited: BAtlas 43 D4 no. 59 (bridge (Ponte S. Felicità))","ancientName":"Ponte S. Felicita"},"category":"infrastructure","description":"An ancient place, cited: BAtlas 43 D4 no. 59 (bridge (Ponte S. Felicità))","estimatedTemporal":true,"startYear":-200,"endYear":500},{"id":"pleiades:433035","type":"bridge","name":"Pons Apollinis","lat":42.0387821,"lng":11.8812405,"source":"Pleiades","props":{"description":"An ancient place, cited: BAtlas 44 A1 Pons Apollinis","ancientName":"Pons Apollinis"},"category":"infrastructure","description":"An ancient place, cited: BAtlas 44 A1 Pons Apollinis","estimatedTemporal":true,"startYear":-200,"endYear":500},{"id":"pleiades:433036","type":"bridge","name":"Pons Campanus","lat":41.131744499999996,"lng":13.968802499999999,"qid":"Q138791599","source":"Pleiades","props":{"description":"An ancient place, cited: BAtlas 44 E3 Pons Campanus","ancientName":"Pons Campanus"},"category":"infrastructure","description":"An ancient place, cited: BAtlas 44 E3 Pons Campanus","estimatedTemporal":true,"startYear":-200,"endYear":500},{"id":"pleiades:433037","type":"bridge","name":"Pons Auruncus","lat":41.232489,"lng":13.909388,"source":"Pleiades","props":{"description":"An ancient place, cited: BAtlas 44 E3 Pons Auruncus","ancientName":"Pons Auruncus"},"category":"infrastructure","description":"An ancient place, cited: BAtlas 44 E3 Pons Auruncus","estimatedTemporal":true,"startYear":-200,"endYear":500},{"id":"pleiades:433039","type":"bridge","name":"Pons Tirenus","lat":41.241686,"lng":13.771826,"source":"Pleiades","props":{"description":"An ancient place, cited: BAtlas 44 E3 Pons Tirenus","ancientName":"Pons Tirenus"},"category":"infrastructure","description":"An ancient place, cited: BAtlas 44 E3 Pons Tirenus","estimatedTemporal":true,"startYear":-200,"endYear":500},{"id":"pleiades:434132","type":"bridge","name":"Untitled","lat":41.25,"lng":13.75,"qid":"Q110184772","source":"Pleiades","props":{"description":"An ancient place, cited: BAtlas 44 E3 unnamed bridge (at Pons Campanus)"},"category":"infrastructure","description":"An ancient place, cited: BAtlas 44 E3 unnamed bridge (at Pons Campanus)","estimatedTemporal":true,"startYear":-200,"endYear":500},{"id":"pleiades:434133","type":"bridge","name":"Unnamed bridge over the Volturnus river on the Via Domitiana","lat":41.30221187825358,"lng":14.14990036816852,"source":"Pleiades","props":{"description":"An unnamed bridge located along the Via Domitiana."},"category":"infrastructure","description":"An unnamed bridge located along the Via Domitiana.","estimatedTemporal":true,"startYear":-200,"endYear":500},{"id":"pleiades:434134","type":"bridge","name":"Ponte Latrone","lat":41.508821,"lng":14.124737,"source":"Pleiades","props":{"description":"A Roman bridge on the Volturno river located near Capriati."},"category":"infrastructure","description":"A Roman bridge on the Volturno river located near Capriati.","estimatedTemporal":true,"startYear":-200,"endYear":500},{"id":"pleiades:434135","type":"bridge","name":"Ponte Romano di Val d'Assano","lat":41.24855777819971,"lng":14.135804137683905,"source":"Pleiades","props":{"description":"An ancient bridge located to the east of ancient Teanum Sidicinum (modern Teano in Italy).","ancientName":"Ponte Sfondato"},"category":"infrastructure","description":"An ancient bridge located to the east of ancient Teanum Sidicinum (modern Teano in Italy).","estimatedTemporal":true,"startYear":-200,"endYear":500},{"id":"pleiades:434136","type":"bridge","name":"Untitled","lat":41.25,"lng":14.25,"source":"Pleiades","props":{"description":"An ancient place, cited: BAtlas 44 F3 unnamed bridge (near Monte Acero)"},"category":"infrastructure","description":"An ancient place, cited: BAtlas 44 F3 unnamed bridge (near Monte Acero)","estimatedTemporal":true,"startYear":-200,"endYear":500},{"id":"pleiades:434137","type":"bridge","name":"Untitled","lat":41.25,"lng":14.75,"source":"Pleiades","props":{"description":"An ancient place, cited: BAtlas 44 G3 unnamed bridge group (Via Appia from Caudium to Beneventum)"},"category":"infrastructure","description":"An ancient place, cited: BAtlas 44 G3 unnamed bridge group (Via Appia from Caudium to Beneventum)","estimatedTemporal":true,"startYear":-200,"endYear":500},{"id":"pleiades:434140","type":"bridge","name":"Untitled","lat":41.25,"lng":14.75,"source":"Pleiades","props":{"description":"An ancient place, cited: BAtlas 44 G3 unnamed bridge (Via Traiana bridge over Calor, E Beneventum)"},"category":"infrastructure"},{"id":"pleiades:442727","type":"bridge","name":"Pons Aufidi","lat":41.01968919778756,"lng":15.554294952028346,"qid":"Q51948","source":"Pleiades","props":{"description":"A Roman bridge (and possibly coincident road station) on the Via Appia over the Aufidus (modern Ofanto) river in Italy, listed on the Peutinger map and in the Antonine Itinerary. Traditionally it has been identified with a bridge known today as Ponte S. Venere, but recently archaeological work has cast doubt on this view and some scholars now favor an identification with the Ponte romano Pietra dell'Oglio, which lies about 15 miles further south and can be securely dated to the Roman period.","ancientName":"Ponte Aufidi"},"category":"infrastructure","description":"A Roman bridge (and possibly coincident road station) on the Via Appia over the Aufidus (modern Ofanto) river in Italy, listed on the Peutinger map and in the Antonine Itinerary. Traditionally it has been identified with a bridge known today as Ponte S. Venere, but recently archaeological work has cast doubt on this view and some scholars now favor an identification with the Ponte romano Pietra dell'Oglio, which lies about 15 miles further south and can be securely dated to the Roman period.","estimatedTemporal":true,"startYear":-200,"endYear":500},{"id":"pleiades:50864838","type":"bridge","name":"Ponte Nomentano","lat":41.9336012,"lng":12.532485300000001,"qid":"Q3908033","source":"Pleiades","props":{"description":"A Roman bridge over the Aniene river.","ancientName":"Ponte Nomentano"},"category":"infrastructure","description":"A Roman bridge over the Aniene river.","estimatedTemporal":true,"startYear":-200,"endYear":500},{"id":"pleiades:567970829","type":"bridge","name":"Ponte Molino","lat":45.4116765,"lng":11.873766,"qid":"Q474747","source":"Pleiades","props":{"description":"A Roman segmental arch bridge across the Bacchiglione river in Padua, Italy.","ancientName":"Ponte Molino"},"category":"infrastructure","description":"A Roman segmental arch bridge across the Bacchiglione river in Padua, Italy.","estimatedTemporal":true,"startYear":-200,"endYear":500},{"id":"pleiades:567970830","type":"bridge","name":"Ponte di San Lorenzo","lat":45.40611245,"lng":11.87782705,"qid":"Q2103738","source":"Pleiades","props":{"description":"An early segmental arch bridge, built between 47 and 30 B.C."},"category":"infrastructure","description":"An early segmental arch bridge, built between 47 and 30 B.C.","estimatedTemporal":true,"startYear":-200,"endYear":500},{"id":"pleiades:532772123","type":"bridge","name":"Ponte Corvo","lat":45.40186475,"lng":11.88366745,"qid":"Q1428534","source":"Pleiades","props":{"description":"A Roman segmental arch bridge across the Bacchiglione river in Padua, Italy."},"category":"infrastructure","description":"A Roman segmental arch bridge across the Bacchiglione river in Padua, Italy.","estimatedTemporal":true,"startYear":-200,"endYear":500},{"id":"pleiades:765102512","type":"bridge","name":"Unnamed Roman bridgehead","lat":55.025069,"lng":-2.1356652,"qid":"Q5093849","source":"Pleiades","props":{"description":"Ancient bridgehead west of Milecastle 27 (Hadrian's Wall), providing link to Cilurnum.","ancientName":"Chesters Roman bridge"},"category":"infrastructure","description":"Ancient bridgehead west of Milecastle 27 (Hadrian's Wall), providing link to Cilurnum.","estimatedTemporal":true,"startYear":51,"endYear":500},{"id":"pleiades:56387635","type":"bridge","name":"Puentecillas","lat":42.010129198598825,"lng":-4.539550236937216,"source":"Pleiades","props":{"description":"A bridge of the sixteenth century that rests on Roman foundations."},"category":"infrastructure"},{"id":"pleiades:411767088","type":"bridge","name":"Ponte Gobbo","lat":44.76715873199541,"lng":9.390833746732293,"qid":"Q844241","source":"Pleiades","props":{"description":"A Medieval bridge across the river Trebia that is said to have Roman origins."},"category":"infrastructure","description":"A Medieval bridge across the river Trebia that is said to have Roman origins.","estimatedTemporal":true,"startYear":-188,"endYear":500},{"id":"pleiades:958331561","type":"bridge","name":"Porta Neola","lat":41.9234958,"lng":12.7611468,"qid":"Q131909955","source":"Pleiades","props":{"description":"A Roman bridge located in the Colle Merulino near Tivoli, Italy."},"category":"infrastructure","description":"A Roman bridge located in the Colle Merulino near Tivoli, Italy.","estimatedTemporal":true,"startYear":-200,"endYear":500},{"id":"pleiades:7283642","type":"bridge","name":"Ancient bridge on Via Egnatia at modern Arisvi","lat":41.0527727,"lng":25.618715,"source":"Pleiades","props":{"description":"An ancient bridge was reported at modern Arisvi, crossing the river Lissos, in documents in the general state archive of Komotini 1945-1961, which still seems to be known to local community and described as Roman. A modern bridge stands in its place today."},"category":"infrastructure","description":"An ancient bridge was reported at modern Arisvi, crossing the river Lissos, in documents in the general state archive of Komotini 1945-1961, which still seems to be known to local community and described as Roman. A modern bridge stands in its place today.","estimatedTemporal":true,"startYear":-164,"endYear":500},{"id":"pleiades:857761","type":"bridge","name":"Untitled","lat":41.254944,"lng":35.262719,"source":"Pleiades","props":{"description":"An ancient place, cited: BAtlas 87 A3 unnamed bridge (NW Andrapa, over Halys fl.)"},"category":"infrastructure","description":"An ancient place, cited: BAtlas 87 A3 unnamed bridge (NW Andrapa, over Halys fl.)","estimatedTemporal":true,"startYear":-63,"endYear":500},{"id":"pleiades:857762","type":"bridge","name":"Untitled","lat":41.1802622,"lng":36.7190803,"qid":"Q118957983","source":"Pleiades","props":{"description":"An ancient place, cited: BAtlas 87 B4 unnamed bridge (Eupatoria, over Iris)"},"category":"infrastructure","description":"An ancient place, cited: BAtlas 87 B4 unnamed bridge (Eupatoria, over Iris)","estimatedTemporal":true,"startYear":-63,"endYear":500},{"id":"pleiades:857763","type":"bridge","name":"Untitled","lat":40.5,"lng":36.5,"source":"Pleiades","props":{"description":"An ancient place, cited: BAtlas 87 B4 unnamed bridge (SE Eupatoria)"},"category":"infrastructure","description":"An ancient place, cited: BAtlas 87 B4 unnamed bridge (SE Eupatoria)","estimatedTemporal":true,"startYear":68,"endYear":500},{"id":"pleiades:857764","type":"bridge","name":"Untitled","lat":40.5,"lng":36.5,"source":"Pleiades","props":{"description":"An ancient place, cited: BAtlas 87 B4 unnamed bridge (1 mile S Mirones)"},"category":"infrastructure"},{"id":"pleiades:857765","type":"bridge","name":"Untitled","lat":40.5,"lng":36.5,"source":"Pleiades","props":{"description":"An ancient place, cited: BAtlas 87 B4 unnamed bridge (Talaz Köprüsü, W Kabeira)"},"category":"infrastructure"},{"id":"pleiades:857766","type":"bridge","name":"Untitled","lat":40.5,"lng":36.5,"source":"Pleiades","props":{"description":"An ancient place, cited: BAtlas 87 B4 unnamed bridge (Kadıköprüsü, 2 miles E Gagonda, now under dam lake)"},"category":"infrastructure"},{"id":"pleiades:857767","type":"bridge","name":"Untitled","lat":40.5,"lng":36.5,"source":"Pleiades","props":{"description":"An ancient place, cited: BAtlas 87 B4 unnamed bridge (N Gazioura)"},"category":"infrastructure"},{"id":"pleiades:857768","type":"bridge","name":"Untitled","lat":40.5,"lng":36.5,"source":"Pleiades","props":{"description":"An ancient place, cited: BAtlas 87 B4 unnamed bridge (Çerçi, 9 miles W Dazimon)"},"category":"infrastructure"},{"id":"pleiades:857769","type":"bridge","name":"Untitled","lat":41.5,"lng":38.5,"source":"Pleiades","props":{"description":"An ancient place, cited: BAtlas 87 D3 unnamed bridge (Kündür Köprüsü, 6 miles E Reşadiye)"},"category":"infrastructure","description":"An ancient place, cited: BAtlas 87 D3 unnamed bridge (Kündür Köprüsü, 6 miles E Reşadiye)","estimatedTemporal":true,"startYear":-200,"endYear":500},{"id":"pleiades:857770","type":"bridge","name":"Untitled","lat":40.09408,"lng":38.19463,"qid":"Q132735594","source":"Pleiades","props":{"description":"An ancient place, cited: BAtlas 87 D4 unnamed bridge (S Dasteira)"},"category":"infrastructure","description":"An ancient place, cited: BAtlas 87 D4 unnamed bridge (S Dasteira)","estimatedTemporal":true,"startYear":68,"endYear":500},{"id":"pleiades:857771","type":"bridge","name":"Untitled","lat":40.5,"lng":39.5,"qid":"Q132735571","source":"Pleiades","props":{"description":"An ancient place, cited: BAtlas 87 E4 unnamed bridge (between Ad Vincesimum and Trapezus)"},"category":"infrastructure","description":"An ancient place, cited: BAtlas 87 E4 unnamed bridge (between Ad Vincesimum and Trapezus)","estimatedTemporal":true,"startYear":68,"endYear":500},{"id":"pleiades:857772","type":"bridge","name":"Unnamed bridge","lat":40.5,"lng":39.5,"source":"Pleiades","props":{"description":"An unnamed ancient bridge located at Bağdar Köprüsu, to the west of Longini Fossatum according to the Barrington Atlas."},"category":"infrastructure","description":"An unnamed ancient bridge located at Bağdar Köprüsu, to the west of Longini Fossatum according to the Barrington Atlas.","estimatedTemporal":true,"startYear":68,"endYear":500},{"id":"pleiades:607714945","type":"bridge","name":"Piercebridge Roman Bridge","lat":54.53531983164754,"lng":-1.6705280276450756,"qid":"Q136763090","source":"Pleiades","props":{"description":"A Roman bridge that carried Dere Street across the River Tees in northern England."},"category":"infrastructure","description":"A Roman bridge that carried Dere Street across the River Tees in northern England.","estimatedTemporal":true,"startYear":51,"endYear":500},{"id":"pleiades:208942144","type":"bridge","name":"Unnamed group of bridges over R. Zadorra, north of Bele(g)ia","lat":42.858309950000006,"lng":-2.7231852,"source":"Pleiades","props":{"description":"An ancient place, cited: BAtlas 25 C3 unnamed bridge group (Trespuentes over R. Zadorra, N Bele(g)ia)"},"category":"infrastructure","description":"An ancient place, cited: BAtlas 25 C3 unnamed bridge group (Trespuentes over R. Zadorra, N Bele(g)ia)","estimatedTemporal":true,"startYear":-25,"endYear":500},{"id":"pleiades:208942265","type":"bridge","name":"Untitled","lat":41.030071,"lng":24.070463,"source":"Pleiades","props":{"description":"An ancient place, cited: BAtlas 51 C2 unnamed bridge group (SW Ad Duodecimum, near Symvoli)"},"category":"infrastructure","description":"An ancient place, cited: BAtlas 51 C2 unnamed bridge group (SW Ad Duodecimum, near Symvoli)","estimatedTemporal":true,"startYear":-144,"endYear":500},{"id":"pleiades:208942835","type":"bridge","name":"Untitled","lat":43.333301,"lng":12.721115,"qid":"Q123504780","source":"Pleiades","props":{"description":"An ancient place, cited: BAtlas 42 D1-C4 unnamed bridge (on Via Flaminia (20))"},"category":"infrastructure","description":"An ancient place, cited: BAtlas 42 D1-C4 unnamed bridge (on Via Flaminia (20))","estimatedTemporal":true,"startYear":-200,"endYear":500},{"id":"pleiades:208942836","type":"bridge","name":"Ponte Spiano","lat":43.3379371,"lng":12.7315991,"qid":"Q123514031","source":"Pleiades","props":{"description":"The so-called Ponte Spiano is a Roman bridge located along the Via Flaminia in the modern comune of Sigillo."},"category":"infrastructure","description":"The so-called Ponte Spiano is a Roman bridge located along the Via Flaminia in the modern comune of Sigillo.","estimatedTemporal":true,"startYear":-200,"endYear":500},{"id":"pleiades:208942837","type":"bridge","name":"Ponte Grosso","lat":43.50090741723492,"lng":12.633077082118334,"source":"Pleiades","props":{"description":"An ancient place, cited: BAtlas 42 D1-C4 unnamed bridge (on Via Flaminia (20))"},"category":"infrastructure","description":"An ancient place, cited: BAtlas 42 D1-C4 unnamed bridge (on Via Flaminia (20))","estimatedTemporal":true,"startYear":-200,"endYear":500},{"id":"pleiades:208942838","type":"bridge","name":"Ponte Manlio","lat":43.5509864,"lng":12.6507458,"source":"Pleiades","props":{"description":"The Roman bridge known as \"Ponte Manlio\" carried the Via Flaminia across the Bosso torrent, whose main channel is now some hundreds of meters to the south. This is a well-preserved Roman vaulted arch bridge that dates to the second century B.C."},"category":"infrastructure","description":"The Roman bridge known as \"Ponte Manlio\" carried the Via Flaminia across the Bosso torrent, whose main channel is now some hundreds of meters to the south. This is a well-preserved Roman vaulted arch bridge that dates to the second century B.C.","estimatedTemporal":true,"startYear":-200,"endYear":500},{"id":"pleiades:208942839","type":"bridge","name":"Untitled","lat":43.586198,"lng":12.676511,"source":"Pleiades","props":{"description":"An ancient place, cited: BAtlas 42 D1-C4 unnamed bridge (on Via Flaminia (20))"},"category":"infrastructure","description":"An ancient place, cited: BAtlas 42 D1-C4 unnamed bridge (on Via Flaminia (20))","estimatedTemporal":true,"startYear":-200,"endYear":500},{"id":"pleiades:208942840","type":"bridge","name":"Untitled","lat":43.619141,"lng":12.6782,"source":"Pleiades","props":{"description":"An ancient place, cited: BAtlas 42 D1-C4 unnamed bridge (on Via Flaminia (20))"},"category":"infrastructure","description":"An ancient place, cited: BAtlas 42 D1-C4 unnamed bridge (on Via Flaminia (20))","estimatedTemporal":true,"startYear":-200,"endYear":500},{"id":"pleiades:208942841","type":"bridge","name":"Untitled","lat":43.672531,"lng":12.752462,"source":"Pleiades","props":{"description":"An ancient place, cited: BAtlas 42 D1-C4 unnamed bridge (on Via Flaminia (20))"},"category":"infrastructure","description":"An ancient place, cited: BAtlas 42 D1-C4 unnamed bridge (on Via Flaminia (20))","estimatedTemporal":true,"startYear":-200,"endYear":500},{"id":"pleiades:208942842","type":"bridge","name":"Unnamed bridge","lat":43.678181,"lng":12.777484,"source":"Pleiades","props":{"description":"An ancient place, cited: BAtlas 42 D1-C4 unnamed bridge (on Via Flaminia (20))"},"category":"infrastructure","description":"An ancient place, cited: BAtlas 42 D1-C4 unnamed bridge (on Via Flaminia (20))","estimatedTemporal":true,"startYear":-200,"endYear":500},{"id":"pleiades:208942843","type":"bridge","name":"Untitled","lat":42.567293,"lng":12.535463,"source":"Pleiades","props":{"description":"An ancient place, cited: BAtlas 42 D1-C4 unnamed bridge (on Via Flaminia (20))"},"category":"infrastructure","description":"An ancient place, cited: BAtlas 42 D1-C4 unnamed bridge (on Via Flaminia (20))","estimatedTemporal":true,"startYear":-200,"endYear":500},{"id":"pleiades:208942844","type":"bridge","name":"Untitled","lat":42.707563,"lng":12.553036,"source":"Pleiades","props":{"description":"An ancient place, cited: BAtlas 42 D1-C4 unnamed bridge (on Via Flaminia (20))"},