[
  {
    "id": "pleiades:267272",
    "type": "bridge",
    "name": "Unnamed bridge at Isturgi on the Guadalquivir river",
    "lat": 38.0330123,
    "lng": -4.0614776,
    "startYear": -200,
    "endYear": 500,
    "source": "Pleiades",
    "category": "infrastructure",
    "qid": "Q97630143",
    "description": "Its ancient name is unknown.",
    "props": { "ancientName": "Puente romano de And\u00fajar" },
    "estimatedTemporal": true
  },
  {
    "id": "pleiades:267273",
    "type": "bridge",
    "name": "Puente sobre el Arroyo Rabanales",
    "lat": 37.902847,
    "lng": -4.732364,
    "startYear": -200,
    "endYear": 500,
    "source": "Pleiades",
    "category": "infrastructure",
    "description": "A bridge, originally of Roman date, over the modern Arroyo Rabanales (a tributary of the Guadalquivir) just east of Cordoba, Spain. The bridge was in use as late as the 1920s.",
    "estimatedTemporal": true
  },
  {
    "id": "pleiades:267274",
    "type": "bridge",
    "name": "Bridge W of Igabrum",
    "lat": 37.5,
    "lng": -4.5,
    "startYear": -200,
    "endYear": 500,
    "source": "Pleiades",
    "category": "infrastructure",
    "description": "An ancient place, cited: BAtlas 27 A4 unnamed bridge (Ad Decumum on R. Guadalmellato)",
    "estimatedTemporal": true
  },
  {
    "id": "pleiades:267275",
    "type": "bridge",
    "name": "Bridge W of Igabrum",
    "lat": 37.5,
    "lng": -4.5,
    "startYear": -200,
    "endYear": 500,
    "source": "Pleiades",
    "category": "infrastructure",
    "description": "An ancient place, cited: BAtlas 27 A4 unnamed bridge (Campillo Bajo on R. Guadalquivir)",
    "estimatedTemporal": true
  },
  {
    "id": "pleiades:267276",
    "type": "bridge",
    "name": "Villa del R\u00edo Roman Bridge",
    "lat": 37.98719284487926,
    "lng": -4.271617220391354,
    "startYear": -200,
    "endYear": 500,
    "source": "Pleiades",
    "category": "infrastructure",
    "description": "A Roman bridge over the Arroyo Salado de Porcuna, located just east of modern Villa del R\u00edo in Spain's Cordoba province.",
    "estimatedTemporal": true
  },
  {
    "id": "pleiades:267277",
    "type": "bridge",
    "name": "Puente de Ca\u00f1ete",
    "lat": 37.8784531,
    "lng": -4.2135188,
    "startYear": -200,
    "endYear": 500,
    "source": "Pleiades",
    "category": "infrastructure",
    "qid": "Q108337284",
    "description": "The remains of a Roman bridge known locally as Puente Viejo or Puente de Ca\u00f1ete lying one mile west west of Obulco on the Arroyo Salado. The bridge may have been associated with a conjectured secondary Roman road or route between Corduba and Catulo because although unmentioned in the Antonine Itinerary, the bridge's location lies between two mentioned stations: Calpurniana and Vircao.",
    "estimatedTemporal": true
  },
  {
    "id": "pleiades:267278",
    "type": "bridge",
    "name": "Bridge near Villaverde",
    "lat": 39.726715,
    "lng": -3.929833,
    "startYear": -200,
    "endYear": 500,
    "source": "Pleiades",
    "category": "infrastructure",
    "description": "An ancient place, cited: BAtlas 27 B2 unnamed bridge (Orgaz, SE Toledo)",
    "estimatedTemporal": true
  },
  {
    "id": "pleiades:267279",
    "type": "bridge",
    "name": "Bridge near Montilla",
    "lat": 37.59907341189635,
    "lng": -4.670408684201695,
    "startYear": -200,
    "endYear": 500,
    "source": "Pleiades",
    "category": "infrastructure",
    "description": "This archaeologically attested Roman bridge was located east of Salaria on the Guadalquivir River.",
    "estimatedTemporal": true
  },
  {
    "id": "pleiades:267280",
    "type": "bridge",
    "name": "Bridge S of Vergilia",
    "lat": 37.5,
    "lng": -3.5,
    "startYear": -200,
    "endYear": 500,
    "source": "Pleiades",
    "category": "infrastructure",
    "description": "An ancient place, cited: BAtlas 27 B4 unnamed bridge (NW Calecula)",
    "estimatedTemporal": true
  },
  {
    "id": "pleiades:267281",
    "type": "bridge",
    "name": "Bridge at Puente romano",
    "lat": 39.8846041,
    "lng": -2.2654996,
    "startYear": -200,
    "endYear": 500,
    "source": "Pleiades",
    "category": "infrastructure",
    "description": "An ancient place, cited: BAtlas 27 C2 unnamed bridge (El Castellar, NW Valeria)",
    "estimatedTemporal": true
  },
  {
    "id": "pleiades:267282",
    "type": "bridge",
    "name": "Bridge at Puente romano",
    "lat": 39.4090773,
    "lng": -2.4159727,
    "startYear": -200,
    "endYear": 500,
    "source": "Pleiades",
    "category": "infrastructure",
    "description": "An ancient place, cited: BAtlas 27 C2 unnamed bridge (S. Clemente on R. Rus, SW Valeria)",
    "estimatedTemporal": true
  },
  {
    "id": "pleiades:267283",
    "type": "bridge",
    "name": "Puente Mocho (R\u00edo Guadalimar)",
    "lat": 38.279861,
    "lng": -2.9638124,
    "startYear": -200,
    "endYear": 500,
    "source": "Pleiades",
    "category": "infrastructure",
    "qid": "Q6091223",
    "description": "A Roman bridge located between Chiclana and Beas de Segura, S Mariana.",
    "estimatedTemporal": true
  },
  {
    "id": "pleiades:267284",
    "type": "bridge",
    "name": "Puente de G\u00e9nave Roman Bridge",
    "lat": 38.35542585,
    "lng": -2.8031491500000003,
    "startYear": -200,
    "endYear": 500,
    "source": "Pleiades",
    "category": "infrastructure",
    "qid": "Q97632198",
    "description": "Known locally as the Puente Romano or Puente Viejo, this single-arched bridge crosses the modern R\u00edo Guadalimar at Puente de G\u00e9nave in Andalusia, Spain.",
    "estimatedTemporal": true
  },
  {
    "id": "pleiades:267285",
    "type": "bridge",
    "name": "Bridge near Las Herrer\u00edas",
    "lat": 37.929107,
    "lng": -2.952102,
    "startYear": -200,
    "endYear": 500,
    "source": "Pleiades",
    "category": "infrastructure",
    "description": "An ancient place, cited: BAtlas 27 C4 unnamed bridge (W Tugia, Las Herrer\u00edas, Cazorla on R. Guadalquivir)",
    "estimatedTemporal": true
  },
  {
    "id": "pleiades:296717",
    "type": "bridge",
    "name": "Bridge near Cartili?",
    "lat": 36.532654,
    "lng": 1.691148,
    "startYear": -200,
    "endYear": 500,
    "source": "Pleiades",
    "category": "infrastructure",
    "description": "An ancient place, cited: BAtlas 30 C3 unnamed bridge (S Cartili, Oued Damous)",
    "estimatedTemporal": true
  },
  {
    "id": "pleiades:296718",
    "type": "bridge",
    "name": "Unnamed bridges (west of Iol Caesarea)",
    "lat": 36.599367101229554,
    "lng": 2.183035622598022,
    "startYear": -200,
    "endYear": 500,
    "source": "Pleiades",
    "category": "infrastructure",
    "description": "A pair of bridges located west of Iol Caesarea, spanning the Oued el Kantara and Oued Rassoul (marked with one symbol on BAtlas).",
    "estimatedTemporal": true
  },
  {
    "id": "pleiades:296719",
    "type": "bridge",
    "name": "Bridge near Sidi Aissa",
    "lat": 36.424197,
    "lng": 2.379871,
    "startYear": -200,
    "endYear": 500,
    "source": "Pleiades",
    "category": "infrastructure",
    "description": "An ancient place, cited: BAtlas 30 D4 unnamed bridge (N Sidi Aissa, Sidi-Salah)",
    "estimatedTemporal": true
  },
  {
    "id": "pleiades:296720",
    "type": "bridge",
    "name": "Bridge near Rusguniae",
    "lat": 36.774437,
    "lng": 3.250637,
    "startYear": -200,
    "endYear": 500,
    "source": "Pleiades",
    "category": "infrastructure",
    "description": "An ancient place, cited: BAtlas 30 F3 unnamed bridge (S Rusguniae (2): el Kounitra and Oued el Hamiz)",
    "estimatedTemporal": true
  },
  {
    "id": "pleiades:296721",
    "type": "bridge",
    "name": "Bridge at Castellum Tulei",
    "lat": 36.761713,
    "lng": 3.773258,
    "startYear": -200,
    "endYear": 500,
    "source": "Pleiades",
    "category": "infrastructure",
    "description": "An ancient place, cited: BAtlas 30 G3 unnamed bridge (near Castellum Tulei, Oued Chender)",
    "estimatedTemporal": true
  },
  {
    "id": "pleiades:176421766",
    "type": "bridge",
    "name": "Ponte di Pratolungo",
    "lat": 41.93280479185253,
    "lng": 12.593725228849921,
    "startYear": -200,
    "endYear": 500,
    "source": "Pleiades",
    "category": "infrastructure",
    "description": "Remains of a Roman Republican bridge crossing the Fosso di Pratolungo along the line of the via Tiburtina.",
    "estimatedTemporal": true
  },
  {
    "id": "pleiades:135082913",
    "type": "bridge",
    "name": "Bridge near Vicalvi",
    "lat": 41.67016599508885,
    "lng": 13.68296945718162,
    "startYear": -200,
    "endYear": 500,
    "source": "Pleiades",
    "category": "infrastructure",
    "description": "An Unnamed Roman bridge that spans the Rio di Fontechiari.",
    "estimatedTemporal": true
  },
  {
    "id": "pleiades:663875862",
    "type": "bridge",
    "name": "San Giuliano Roman bridge",
    "lat": 41.6336248,
    "lng": 13.7989589,
    "startYear": -200,
    "endYear": 500,
    "source": "Pleiades",
    "category": "infrastructure",
    "description": "A Roman bridge crossing the Melfa river in Lazio, Italy.",
    "estimatedTemporal": true
  },
  {
    "id": "pleiades:148202",
    "type": "bridge",
    "name": "Sextantio",
    "lat": 43.64232,
    "lng": 3.896373,
    "startYear": -200,
    "endYear": 500,
    "source": "Pleiades",
    "category": "infrastructure",
    "qid": "Q11949612",
    "description": "Sextantio was a Celtic settlement at a ford on the Ledus fl. and later became a Gallo-Roman town.",
    "props": { "ancientName": "Sextantio" },
    "estimatedTemporal": true
  },
  {
    "id": "pleiades:149492",
    "type": "bridge",
    "name": "Pont d'Ambroix",
    "lat": 43.7172164,
    "lng": 4.151942549999999,
    "startYear": -200,
    "endYear": 500,
    "source": "Pleiades",
    "category": "infrastructure",
    "description": "A bridge over the Vidourle and road station on the Via Domitia.",
    "estimatedTemporal": true
  },
  {
    "id": "pleiades:149493",
    "type": "bridge",
    "name": "Roman Bridge at Villevieille, Sommi\u00e8res",
    "lat": 43.78223547231463,
    "lng": 4.088960991551396,
    "startYear": -200,
    "endYear": 500,
    "source": "Pleiades",
    "category": "infrastructure",
    "description": "The so-called \"Pont Tib\u00e8re\" in the modern French commune of Villevieille, in Sommi\u00e8res canton, France. Its ancient name is unknown.",
    "estimatedTemporal": true
  },
  {
    "id": "pleiades:149494",
    "type": "bridge",
    "name": "Roman Bridge at Moulin de Boisseron",
    "lat": 43.761684149999994,
    "lng": 4.08143775,
    "startYear": -200,
    "endYear": 500,
    "source": "Pleiades",
    "category": "infrastructure",
    "description": "Ancient name unknown. Located in modern Boisseron, France.",
    "estimatedTemporal": true
  },
  {
    "id": "pleiades:149495",
    "type": "bridge",
    "name": "Nages Roman Bridge",
    "lat": 43.7914388,
    "lng": 4.2109259,
    "startYear": -200,
    "endYear": 500,
    "source": "Pleiades",
    "category": "infrastructure",
    "description": "An unnamed Roman bridge over the modern river Rh\u00f4ny. It is located in the modern Nages-et-Solorgues commune in France's Gard department.",
    "estimatedTemporal": true
  },
  {
    "id": "pleiades:149497",
    "type": "bridge",
    "name": "Bridge at Pont romain",
    "lat": 43.681847,
    "lng": 4.626751,
    "startYear": -200,
    "endYear": 500,
    "source": "Pleiades",
    "category": "infrastructure",
    "description": "An ancient place, cited: BAtlas 15 D2 unnamed bridge (Col. Arelate (pontoon bridge))",
    "estimatedTemporal": true
  },
  {
    "id": "pleiades:149498",
    "type": "bridge",
    "name": "Vaison-la-Romaine Roman Bridge",
    "lat": 44.23891185,
    "lng": 5.07466205,
    "startYear": -200,
    "endYear": 500,
    "source": "Pleiades",
    "category": "infrastructure",
    "qid": "Q2179572",
    "description": "The Roman bridge at Vaison-la-Romaine is supposedly dated to the first century CE.",
    "estimatedTemporal": true
  },
  {
    "id": "pleiades:149499",
    "type": "bridge",
    "name": "Pont Flavien",
    "lat": 43.54065216666667,
    "lng": 5.043846299999999,
    "startYear": -200,
    "endYear": 500,
    "source": "Pleiades",
    "category": "infrastructure",
    "qid": "Q2103625",
    "description": "A Roman bridge that carries the Via Julia Augusta across the Touloubre river.",
    "estimatedTemporal": true
  },
  {
    "id": "pleiades:149500",
    "type": "bridge",
    "name": "Pont Julien",
    "lat": 43.86272390133762,
    "lng": 5.306486299795836,
    "startYear": -200,
    "endYear": 500,
    "source": "Pleiades",
    "category": "infrastructure",
    "qid": "Q1780937",
    "description": "A bridge that spans the river known as the Cavalon (French), once part of the Via Domitia.",
    "estimatedTemporal": true
  },
  {
    "id": "pleiades:855536858",
    "type": "bridge",
    "name": "Roman bridge at Ascain",
    "lat": 43.35023220304213,
    "lng": -1.621914323384264,
    "startYear": -200,
    "endYear": 500,
    "source": "Pleiades",
    "category": "infrastructure",
    "description": "A fifth-century Roman bridge over the river Nivelle at Ascain in France.",
    "estimatedTemporal": true
  },
  {
    "id": "pleiades:631631547",
    "type": "bridge",
    "name": "Handere bridge",
    "lat": 39.23274939717021,
    "lng": 38.273133718820375,
    "startYear": -200,
    "endYear": 500,
    "source": "Pleiades",
    "category": "infrastructure",
    "description": "A bridge on the road from to Egin and Harput.",
    "estimatedTemporal": true
  },
  {
    "id": "pleiades:613488678",
    "type": "bridge",
    "name": "Cobos Roman bridge",
    "lat": 40.5716404,
    "lng": -4.8989371,
    "startYear": -200,
    "endYear": 500,
    "source": "Pleiades",
    "category": "infrastructure",
    "qid": "Q6091545",
    "description": "A bridge with Roman origins across the r\u00edo Adaja.",
    "estimatedTemporal": true
  },
  {
    "id": "pleiades:100447491",
    "type": "bridge",
    "name": "Pons Neronianus",
    "lat": 41.901,
    "lng": 12.4641,
    "startYear": -200,
    "endYear": 500,
    "source": "Pleiades",
    "category": "infrastructure",
    "qid": "Q1902995",
    "description": "A bridge across the Tiber river built either by Caius or Nero in order to connect the western part of the Campus Martius with the Campus Vaticanus.",
    "estimatedTemporal": true
  },
  {
    "id": "pleiades:385053",
    "type": "bridge",
    "name": "Unnamed bridge at L\u00e9v\u00e9rogne",
    "lat": 45.7024174,
    "lng": 7.2074956,
    "startYear": -200,
    "endYear": 500,
    "source": "Pleiades",
    "category": "infrastructure",
    "description": "According to the Barrington Atlas directory, an ancient group of bridges crossing the river Duria (Bautica) is found at Villeneuve/Leverogne to the west of Aosta.",
    "estimatedTemporal": true
  },
  {
    "id": "pleiades:385054",
    "type": "bridge",
    "name": "Roman Bridge of Ch\u00e2tillon",
    "lat": 45.7480008,
    "lng": 7.6108771,
    "startYear": -200,
    "endYear": 500,
    "source": "Pleiades",
    "category": "infrastructure",
    "description": "A Roman bridge over the Torrente Marmore at Ch\u00e2tillon in the Valle d'Aosta, Italy.",
    "props": { "ancientName": "Ponte di Ch\u00e2tillon" },
    "estimatedTemporal": true
  },
  {
    "id": "pleiades:385055",
    "type": "bridge",
    "name": "Unnamed bridge at Vitricium",
    "lat": 45.75,
    "lng": 7.75,
    "startYear": -200,
    "endYear": 500,
    "source": "Pleiades",
    "category": "infrastructure",
    "description": "An ancient place, cited: BAtlas 39 B2 unnamed bridge (at Vitricium)",
    "estimatedTemporal": true
  },
  {
    "id": "pleiades:385056",
    "type": "bridge",
    "name": "Pont-Saint-Martin (bridge)",
    "lat": 45.5992967,
    "lng": 7.800099850000001,
    "startYear": -200,
    "endYear": 500,
    "source": "Pleiades",
    "category": "infrastructure",
    "qid": "Q1339290",
    "description": "A Roman segmental arch bridge in the Aosta Valley in Italy that dates to the first century BC. The bridge spans 31.4 m across the Betuctelum to the NNW of Eporedia.",
    "estimatedTemporal": true
  },
  {
    "id": "pleiades:385057",
    "type": "bridge",
    "name": "Unnamed bridge at Bard",
    "lat": 45.611788149999995,
    "lng": 7.7442709999999995,
    "startYear": -200,
    "endYear": 500,
    "source": "Pleiades",
    "category": "infrastructure",
    "description": "The so-called \"Ponte di Bard\" located at Bard, to the southeast of Vitricium.",
    "estimatedTemporal": true
  },
  {
    "id": "pleiades:385058",
    "type": "bridge",
    "name": "Bridge at Ponte sul torrente Scrivia",
    "lat": 44.757596,
    "lng": 8.833833,
    "startYear": -200,
    "endYear": 500,
    "source": "Pleiades",
    "category": "infrastructure",
    "description": "An unnamed bridge over the Ir(i)a fl., north of Libarna.",
    "estimatedTemporal": true
  },
  {
    "id": "pleiades:385059",
    "type": "bridge",
    "name": "Bridge S of Licini Forum?",
    "lat": 45.75,
    "lng": 9.25,
    "startYear": -200,
    "endYear": 500,
    "source": "Pleiades",
    "category": "infrastructure",
    "description": "An ancient place, cited: BAtlas 39 E2 unnamed bridge (over Addua fl. SE Monte Barro)",
    "estimatedTemporal": true
  },
  {
    "id": "pleiades:385060",
    "type": "bridge",
    "name": "Bridge S of Licini Forum?",
    "lat": 45.75,
    "lng": 9.25,
    "startYear": -200,
    "endYear": 500,
    "source": "Pleiades",
    "category": "infrastructure",
    "description": "An ancient place, cited: BAtlas 39 E2 unnamed bridge (at Annone Brianza, SW Monte Barro)",
    "estimatedTemporal": true
  },
  {
    "id": "pleiades:385061",
    "type": "bridge",
    "name": "Roman bridge at Clastidium",
    "lat": 45.011113,
    "lng": 9.123457,
    "startYear": -200,
    "endYear": 500,
    "source": "Pleiades",
    "category": "infrastructure",
    "description": "An ancient place, cited: BAtlas 39 E3 unnamed bridge (at Clastidium)",
    "qid": "Q675000",
    "estimatedTemporal": true
  },
  {
    "id": "pleiades:385062",
    "type": "bridge",
    "name": "Bridge N of Pavia",
    "lat": 45.25,
    "lng": 9.25,
    "startYear": -200,
    "endYear": 500,
    "source": "Pleiades",
    "category": "infrastructure",
    "description": "An ancient place, cited: BAtlas 39 E3 unnamed bridge (over Ticinus fl., at Ticinum)",
    "estimatedTemporal": true
  },
  {
    "id": "pleiades:385063",
    "type": "bridge",
    "name": "Bridge at Iria",
    "lat": 44.999293,
    "lng": 8.998533,
    "startYear": -200,
    "endYear": 500,
    "source": "Pleiades",
    "category": "infrastructure",
    "description": "An ancient place, cited: BAtlas 39 E4 unnamed bridge (over Iria fl., at Iria)",
    "estimatedTemporal": true
  },
  {
    "id": "pleiades:385064",
    "type": "bridge",
    "name": "Bridge N of Bergamo",
    "lat": 45.75,
    "lng": 9.75,
    "startYear": -200,
    "endYear": 500,
    "source": "Pleiades",
    "category": "infrastructure",
    "description": "An ancient place, cited: BAtlas 39 F2 unnamed bridge group (at Almenno S. Bartolomeo/Salvatore, NW Bergomum)",
    "estimatedTemporal": true
  },
  {
    "id": "pleiades:385065",
    "type": "bridge",
    "name": "unnamed bridge over the Nure fl",
    "lat": 45.009302,
    "lng": 9.767245,
    "startYear": -200,
    "endYear": 500,
    "source": "Pleiades",
    "category": "infrastructure",
    "description": "An unnamed bridge over the Nure fl., southeast of Placentia.",
    "estimatedTemporal": true
  },
  {
    "id": "pleiades:385066",
    "type": "bridge",
    "name": "Bridge S of Parma",
    "lat": 44.75,
    "lng": 10.25,
    "startYear": -200,
    "endYear": 500,
    "source": "Pleiades",
    "category": "infrastructure",
    "description": "An ancient place, cited: BAtlas 39 G4 unnamed bridge (over [Sesterrio] fl., at Fidentia)",
    "estimatedTemporal": true
  },
  {
    "id": "pleiades:385067",
    "type": "bridge",
    "name": "Enza Roman Bridge",
    "lat": 44.7699767,
    "lng": 10.42671335,
    "startYear": -200,
    "endYear": 500,
    "source": "Pleiades",
    "category": "infrastructure",
    "description": "An unnamed Roman bridge on the Via Aemilia over the ancient Incia river. Located near modern S. Ilario d\u2019Enza in Italy.",
    "estimatedTemporal": true
  },
  {
    "id": "pleiades:93478894",
    "type": "bridge",
    "name": "Ponte Brabaciera",
    "lat": 39.7385368,
    "lng": 9.1390874,
    "startYear": -200,
    "endYear": 500,
    "source": "Pleiades",
    "category": "infrastructure",
    "description": "A second-century Roman bridge on the Riu Brabaciera.",
    "props": { "ancientName": "Ponte Romano di Rio Brabaciera" },
    "estimatedTemporal": true
  },
  {
    "id": "pleiades:551907",
    "type": "bridge",
    "name": "Bridge at Yedi Ta\u015flar",
    "lat": 39.75,
    "lng": 26.25,
    "startYear": -200,
    "endYear": 500,
    "source": "Pleiades",
    "category": "infrastructure",
    "description": "An ancient place, cited: BAtlas 56 C2 unnamed bridge (N Smintheion)",
    "estimatedTemporal": true
  },
  {
    "id": "pleiades:551908",
    "type": "bridge",
    "name": "Bridge at Pyrraion? M.",
    "lat": 39.160108,
    "lng": 26.295366,
    "startYear": -200,
    "endYear": 500,
    "source": "Pleiades",
    "category": "infrastructure",
    "description": "An ancient place, cited: BAtlas 56 C3 unnamed bridge (near Pyrra, on Lesbos)",
    "estimatedTemporal": true
  },
  {
    "id": "pleiades:551909",
    "type": "bridge",
    "name": "Bridge at Pericharaxis",
    "lat": 39.771213,
    "lng": 27.648097,
    "startYear": -200,
    "endYear": 500,
    "source": "Pleiades",
    "category": "infrastructure",
    "description": "An ancient place, cited: BAtlas 56 F2 unnamed bridge (at Pericharaxis)",
    "estimatedTemporal": true
  },
  {
    "id": "pleiades:551910",
    "type": "bridge",
    "name": "remains",
    "lat": 38.539194,
    "lng": 27.9694445,
    "startYear": -200,
    "endYear": 500,
    "source": "Pleiades",
    "category": "infrastructure",
    "description": "The remains of a bridge of Byzantine or Turkish construction located northwest of Sardis.",
    "estimatedTemporal": true
  },
  {
    "id": "pleiades:551911",
    "type": "bridge",
    "name": "Bridge W of *Selinda",
    "lat": 38.436382,
    "lng": 27.534187,
    "startYear": -200,
    "endYear": 500,
    "source": "Pleiades",
    "category": "infrastructure",
    "description": "An ancient place, cited: BAtlas 56 F5 unnamed bridge (S Mostene?)",
    "estimatedTemporal": true
  },
  {
    "id": "pleiades:551912",
    "type": "bridge",
    "name": "Bridge near Macestos Bridge",
    "lat": 39.853624,
    "lng": 28.189246,
    "startYear": -200,
    "endYear": 500,
    "source": "Pleiades",
    "category": "infrastructure",
    "description": "An ancient place, cited: BAtlas 56 G2 unnamed bridge (NE Laneion)",
    "estimatedTemporal": true
  },
  {
    "id": "pleiades:551913",
    "type": "bridge",
    "name": "Bridge near Satala",
    "lat": 38.543328,
    "lng": 28.289624,
    "startYear": -200,
    "endYear": 500,
    "source": "Pleiades",
    "category": "infrastructure",
    "description": "An ancient place, cited: BAtlas 56 G4 unnamed bridge (near Satala)",
    "estimatedTemporal": true
  },
  {
    "id": "pleiades:317667991",
    "type": "bridge",
    "name": "Ponte Valentino",
    "lat": 41.145533424695245,
    "lng": 14.830154775294343,
    "startYear": -200,
    "endYear": 500,
    "source": "Pleiades",
    "category": "infrastructure",
    "qid": "Q3908039",
    "description": "A Roman bridge located east of Benevento, Italy, and built by Flavius Iulius Valens.",
    "estimatedTemporal": true
  },
  {
    "id": "pleiades:844957",
    "type": "bridge",
    "name": "Iustiniani Pons",
    "lat": 40.73734065,
    "lng": 30.372651675,
    "startYear": -200,
    "endYear": 500,
    "source": "Pleiades",
    "category": "infrastructure",
    "qid": "Q144629",
    "description": "The Bridge of Justinian or Sangarius Bridge is a Late Roman bridge built by the emperor Justinian I across the Sangarius river. The bridge's original span was ca. 430 m.",
    "props": { "ancientName": "Iustiniani Pons" },
    "estimatedTemporal": true
  },
  {
    "id": "pleiades:845084",
    "type": "bridge",
    "name": "Tios/Tieion",
    "lat": 41.571174366755656,
    "lng": 32.03150953999192,
    "startYear": -200,
    "endYear": 500,
    "source": "Pleiades",
    "category": "infrastructure",
    "description": "An ancient place, cited: BAtlas 86 C2 Tios/Tieion",
    "props": { "ancientName": "Tios" },
    "estimatedTemporal": true
  },
  {
    "id": "pleiades:846357",
    "type": "bridge",
    "name": "Bridge S of Ayman Yaylas\u0131",
    "lat": 40.5,
    "lng": 31.5,
    "startYear": -200,
    "endYear": 500,
    "source": "Pleiades",
    "category": "infrastructure",
    "description": "An ancient place, cited: BAtlas 86 B3 unnamed bridge (Iuliopolis)",
    "estimatedTemporal": true
  },
  {
    "id": "pleiades:846358",
    "type": "bridge",
    "name": "Bridge S of Ayman Yaylas\u0131",
    "lat": 40.5,
    "lng": 31.5,
    "startYear": -200,
    "endYear": 500,
    "source": "Pleiades",
    "category": "infrastructure",
    "description": "An ancient place, cited: BAtlas 86 B3 unnamed bridge (Prusias ad Hypium)",
    "estimatedTemporal": true
  },
  {
    "id": "pleiades:846359",
    "type": "bridge",
    "name": "Bridge S of Ayman Yaylas\u0131",
    "lat": 40.5,
    "lng": 31.5,
    "startYear": -200,
    "endYear": 500,
    "source": "Pleiades",
    "category": "infrastructure",
    "description": "An ancient place, cited: BAtlas 86 B3 unnamed bridge (on Siberis fl., near *Hieronpotamon)",
    "estimatedTemporal": true
  },
  {
    "id": "pleiades:846360",
    "type": "bridge",
    "name": "Bridge S of Parthenia",
    "lat": 41.5,
    "lng": 32.5,
    "startYear": -200,
    "endYear": 500,
    "source": "Pleiades",
    "category": "infrastructure",
    "description": "An ancient place, cited: BAtlas 86 C2 unnamed bridge (SE Tieion at Derecik\u00f6ren)",
    "estimatedTemporal": true
  },
  {
    "id": "pleiades:619857",
    "type": "bridge",
    "name": "Bridge N of Aspona",
    "lat": 39.418769,
    "lng": 33.384496,
    "startYear": -200,
    "endYear": 500,
    "source": "Pleiades",
    "category": "infrastructure",
    "description": "An ancient place, cited: BAtlas 63 C2 unnamed bridge (Kesik K\u00f6pr\u00fc)",
    "estimatedTemporal": true
  },
  {
    "id": "pleiades:619858",
    "type": "bridge",
    "name": "Bridge N of Saccasena",
    "lat": 38.840066,
    "lng": 35.173168,
    "startYear": -200,
    "endYear": 500,
    "source": "Pleiades",
    "category": "infrastructure",
    "description": "An ancient place, cited: BAtlas 63 G3 unnamed bridge (\u00c7okg\u00f6zk\u00f6pr\u00fc)",
    "estimatedTemporal": true
  },
  {
    "id": "pleiades:629672",
    "type": "bridge",
    "name": "Bridge S of Sebastopolis",
    "lat": 39.75,
    "lng": 36.25,
    "startYear": -200,
    "endYear": 500,
    "source": "Pleiades",
    "category": "infrastructure",
    "description": "An ancient place, cited: BAtlas 64 C1 no. 1 (at Sebastopolis over \u00c7ekerek Irmak (Skylax fl.))",
    "estimatedTemporal": true
  },
  {
    "id": "pleiades:629673",
    "type": "bridge",
    "name": "Bridge S of [Bathys Rhyax]",
    "lat": 39.75,
    "lng": 36.75,
    "startYear": -200,
    "endYear": 500,
    "source": "Pleiades",
    "category": "infrastructure",
    "description": "An ancient place, cited: BAtlas 64 D1 no. 2 (12 miles WNW Sivas at Y\u0131ld\u0131z\u0131rmak)",
    "estimatedTemporal": true
  },
  {
    "id": "pleiades:629674",
    "type": "bridge",
    "name": "Bridge N of Arane",
    "lat": 39.25,
    "lng": 37.75,
    "startYear": -200,
    "endYear": 500,
    "source": "Pleiades",
    "category": "infrastructure",
    "description": "An ancient place, cited: BAtlas 64 F2 no. 3 (NW Arane at Ko\u00e7 K\u00f6pr\u00fcs\u00fc)",
    "estimatedTemporal": true
  },
  {
    "id": "pleiades:629675",
    "type": "bridge",
    "name": "Bridge near Antitaurus Mons",
    "lat": 39.25,
    "lng": 38.25,
    "startYear": -200,
    "endYear": 500,
    "source": "Pleiades",
    "category": "infrastructure",
    "description": "An ancient place, cited: BAtlas 64 G2 no. 4 (SW Zimara at Burmahan on \u00c7alt\u0131 \u00c7ay)",
    "estimatedTemporal": true
  },
  {
    "id": "pleiades:629676",
    "type": "bridge",
    "name": "Bridge N of Charax?",
    "lat": 39.75,
    "lng": 38.75,
    "startYear": -200,
    "endYear": 500,
    "source": "Pleiades",
    "category": "infrastructure",
    "description": "An ancient place, cited: BAtlas 64 H1 no. 5 (SW Analib(l)a over Karabudak (Sabrina fl.))",
    "estimatedTemporal": true
  },
  {
    "id": "pleiades:629677",
    "type": "bridge",
    "name": "Bridge N of Charax?",
    "lat": 39.75,
    "lng": 38.75,
    "startYear": -200,
    "endYear": 500,
    "source": "Pleiades",
    "category": "infrastructure",
    "description": "An ancient place, cited: BAtlas 64 H1 no. 6 (S Charax?)",
    "estimatedTemporal": true
  },
  {
    "id": "pleiades:629678",
    "type": "bridge",
    "name": "Bridge N of Sis",
    "lat": 37.6056811,
    "lng": 35.5849343,
    "startYear": -200,
    "endYear": 500,
    "source": "Pleiades",
    "category": "infrastructure",
    "description": "An ancient place, cited: BAtlas 64 C4 no. 7 (6 miles E Comana at Kemer over Saros fl.)",
    "estimatedTemporal": true
  },
  {
    "id": "pleiades:629679",
    "type": "bridge",
    "name": "Bridge at G\u00fcc\u00fck",
    "lat": 38.25,
    "lng": 37.25,
    "startYear": -200,
    "endYear": 500,
    "source": "Pleiades",
    "category": "infrastructure",
    "description": "An ancient place, cited: BAtlas 64 E4 no. 8 (NE Pagrum? at G\u00e2vur \u00d6ren on S\u00f6g\u00fctl\u00fc Dere)",
    "estimatedTemporal": true
  },
  {
    "id": "pleiades:629680",
    "type": "bridge",
    "name": "Bridge N of Zizoatra",
    "lat": 38.25,
    "lng": 37.75,
    "startYear": -200,
    "endYear": 500,
    "source": "Pleiades",
    "category": "infrastructure",
    "description": "An ancient place, cited: BAtlas 64 F4 no. 9 (5 miles NW Arca)",
    "estimatedTemporal": true
  },
  {
    "id": "pleiades:629681",
    "type": "bridge",
    "name": "Bridge N of Zizoatra",
    "lat": 38.25,
    "lng": 37.75,
    "startYear": -200,
    "endYear": 500,
    "source": "Pleiades",
    "category": "infrastructure",
    "description": "An ancient place, cited: BAtlas 64 F4 no. 10 (1.5 miles NE Zizoatra at K\u0131r\u0131kk\u00f6pr\u00fc)",
    "estimatedTemporal": true
  },
  {
    "id": "pleiades:629682",
    "type": "bridge",
    "name": "Bridge at Munzur Da\u011flar\u0131",
    "lat": 38.25,
    "lng": 38.25,
    "startYear": -200,
    "endYear": 500,
    "source": "Pleiades",
    "category": "infrastructure",
    "description": "An ancient place, cited: BAtlas 64 G4 no. 11 (N Melitene at K\u0131rk G\u00f6z K\u00f6pr\u00fc on Tohma Su (Melas fl.))",
    "estimatedTemporal": true
  },
  {
    "id": "pleiades:629683",
    "type": "bridge",
    "name": "Bridge near [Argaous]",
    "lat": 38.75,
    "lng": 38.25,
    "startYear": -200,
    "endYear": 500,
    "source": "Pleiades",
    "category": "infrastructure",
    "description": "An ancient place, cited: BAtlas 64 G3 no. 12 (S Kiakis on Kuru\u00e7ay)",
    "estimatedTemporal": true
  },
  {
    "id": "pleiades:629684",
    "type": "bridge",
    "name": "Unnamed bridge at Bahad\u0131n",
    "lat": 38.75,
    "lng": 38.75,
    "startYear": -200,
    "endYear": 500,
    "source": "Pleiades",
    "category": "infrastructure",
    "description": "A Roman-era bridge NNW Korpinik H\u00fcy\u00fck at Bahad\u0131n on Arabkir \u00c7ay.",
    "estimatedTemporal": true
  },
  {
    "id": "pleiades:629685",
    "type": "bridge",
    "name": "Karamagara Bridge",
    "lat": 38.924961,
    "lng": 38.658486,
    "startYear": -200,
    "endYear": 500,
    "source": "Pleiades",
    "category": "infrastructure",
    "qid": "Q1418783",
    "description": "A Roman-era bridge spanning the Arabkir \u00c7ay south of Hastek Kale in Turkey. Now submerged and inaccessible.",
    "props": { "ancientName": "Karama\u011fara K\u00f6pr\u00fcs\u00fc, Karamagara Koprusu" },
    "estimatedTemporal": true
  },
  {
    "id": "pleiades:640242",
    "type": "bridge",
    "name": "Bridge near Aphrodisias",
    "lat": 37.75,
    "lng": 28.75,
    "startYear": -200,
    "endYear": 500,
    "source": "Pleiades",
    "category": "infrastructure",
    "description": "An ancient place, cited: BAtlas 65 A2 unnamed bridge (near Antiochia ad Maeandrum)",
    "estimatedTemporal": true
  },
  {
    "id": "pleiades:640243",
    "type": "bridge",
    "name": "Bridge near Insula 104 at Hierapolis",
    "lat": 37.878539,
    "lng": 29.157624,
    "startYear": -200,
    "endYear": 500,
    "source": "Pleiades",
    "category": "infrastructure",
    "description": "An ancient place, cited: BAtlas 65 B2 unnamed bridge (N Laodicea ad Lycum)",
    "estimatedTemporal": true
  },
  {
    "id": "pleiades:640244",
    "type": "bridge",
    "name": "Kemer bridge",
    "lat": 36.693330925,
    "lng": 29.362000825000003,
    "startYear": -200,
    "endYear": 500,
    "source": "Pleiades",
    "category": "infrastructure",
    "description": "A Roman segmental arch bridge over the Xanthos fl. near the ancient city of Xanthos in Lycia.",
    "estimatedTemporal": true
  },
  {
    "id": "pleiades:640245",
    "type": "bridge",
    "name": "Bridge at Derea\u011fz\u0131",
    "lat": 36.3203,
    "lng": 29.8157,
    "startYear": -200,
    "endYear": 500,
    "source": "Pleiades",
    "category": "infrastructure",
    "description": "An ancient place, cited: BAtlas 65 C5 unnamed bridge (Derea\u011fzi)",
    "estimatedTemporal": true
  },
  {
    "id": "pleiades:640246",
    "type": "bridge",
    "name": "Limyra Bridge",
    "lat": 36.350935,
    "lng": 30.21186,
    "startYear": -200,
    "endYear": 500,
    "source": "Pleiades",
    "category": "infrastructure",
    "description": "A late-Roman bridge, ancient name unknown, located near the ancient city of Limyra in modern Turkey.",
    "props": { "ancientName": "K\u0131rk G\u00f6z Kemeri, Kirk Goz Kemeri" },
    "estimatedTemporal": true
  },
  {
    "id": "pleiades:640247",
    "type": "bridge",
    "name": "Zindan Bridge",
    "lat": 37.81166,
    "lng": 31.084683,
    "startYear": -200,
    "endYear": 500,
    "source": "Pleiades",
    "category": "infrastructure",
    "description": "A Roman-era bridge associated with the Zindan Ma\u011faras\u0131 sanctuary in Turkey's Isparta province. It spans the modern Aksu river.",
    "estimatedTemporal": true
  },
  {
    "id": "pleiades:640248",
    "type": "bridge",
    "name": "Bridge at Eurymedon Bridge (Aspendos)",
    "lat": 36.914232,
    "lng": 31.162999,
    "startYear": -200,
    "endYear": 500,
    "source": "Pleiades",
    "category": "infrastructure",
    "description": "An ancient place, cited: BAtlas 65 F3 unnamed bridge (at Asarba\u015f\u0131, over Eurymedon fl.)",
    "estimatedTemporal": true
  },
  {
    "id": "pleiades:640249",
    "type": "bridge",
    "name": "Bridge N of Oluk K\u00f6pr\u00fc",
    "lat": 37.25,
    "lng": 31.25,
    "startYear": -200,
    "endYear": 500,
    "source": "Pleiades",
    "category": "infrastructure",
    "description": "An ancient place, cited: BAtlas 65 F3 unnamed bridge (S Selge, at Bo\u011furt K\u00f6pr\u00fc)",
    "estimatedTemporal": true
  },
  {
    "id": "pleiades:640250",
    "type": "bridge",
    "name": "Bridge at Oluk K\u00f6pr\u00fc",
    "lat": 37.191973,
    "lng": 31.181033,
    "startYear": -200,
    "endYear": 500,
    "source": "Pleiades",
    "category": "infrastructure",
    "description": "An ancient place, cited: BAtlas 65 F3 unnamed bridge (S Selge, at Oluk K\u00f6pr\u00fc)",
    "estimatedTemporal": true
  },
  {
    "id": "pleiades:640251",
    "type": "bridge",
    "name": "Bridge at Aspendos",
    "lat": 36.9143333490085,
    "lng": 31.16303517150471,
    "startYear": -200,
    "endYear": 500,
    "source": "Pleiades",
    "category": "infrastructure",
    "qid": "Q846250",
    "description": "An unnamed bridge over Eurymedon fl.",
    "estimatedTemporal": true
  },
  {
    "id": "pleiades:640252",
    "type": "bridge",
    "name": "Bridge at Kotenna",
    "lat": 37.030342,
    "lng": 31.635364,
    "startYear": -200,
    "endYear": 500,
    "source": "Pleiades",
    "category": "infrastructure",
    "description": "An ancient place, cited: BAtlas 65 G3 unnamed bridge (at Kotenna, over Melas fl.)",
    "estimatedTemporal": true
  },
  {
    "id": "pleiades:214128051",
    "type": "bridge",
    "name": "Ponte Scotonico",
    "lat": 42.02400365,
    "lng": 13.0099219,
    "startYear": -200,
    "endYear": 500,
    "source": "Pleiades",
    "category": "infrastructure",
    "qid": "Q131690826",
    "description": "An ancient Roman bridge located along the Via Valeria near Roviano, Italy.",
    "estimatedTemporal": true
  },
  {
    "id": "pleiades:967100965",
    "type": "bridge",
    "name": "Ponte d'Augusto",
    "lat": 44.063640649999996,
    "lng": 12.563807300000002,
    "startYear": -200,
    "endYear": 500,
    "source": "Pleiades",
    "category": "infrastructure",
    "qid": "Q2063557",
    "description": "A Iulio-Claudian bridge located in Ariminum.",
    "estimatedTemporal": true
  },
  {
    "id": "pleiades:452983868",
    "type": "bridge",
    "name": "Ponte de Rubiaes",
    "lat": 41.90424890845731,
    "lng": -8.62656824858789,
    "startYear": -200,
    "endYear": 500,
    "source": "Pleiades",
    "category": "infrastructure",
    "qid": "Q910908",
    "description": "A Roman bridge located by the Rio Coura.",
    "estimatedTemporal": true
  },
  {
    "id": "pleiades:121168648",
    "type": "bridge",
    "name": "Puente del Chantre",
    "lat": 40.1423643,
    "lng": -2.1325018499999997,
    "startYear": -200,
    "endYear": 500,
    "source": "Pleiades",
    "category": "infrastructure",
    "description": "A Medieval bridge spanning the Jucar stream.",
    "estimatedTemporal": true
  },
  {
    "id": "pleiades:705163202",
    "type": "bridge",
    "name": "Ponte Caldaro",
    "lat": 42.57014499500123,
    "lng": 12.538151341121694,
    "startYear": -200,
    "endYear": 500,
    "source": "Pleiades",
    "category": "infrastructure",
    "description": "A Roman bridge of the Via Flaminia.",
    "estimatedTemporal": true
  },
  {
    "id": "pleiades:88537488",
    "type": "bridge",
    "name": "Pont Serme",
    "lat": 43.26862275,
    "lng": 3.04909405,
    "startYear": -200,
    "endYear": 500,
    "source": "Pleiades",
    "category": "infrastructure",
    "description": "A Roman bridge on the Via Domitia.",
    "qid": "Q2103639",
    "estimatedTemporal": true
  },
  {
    "id": "pleiades:216938",
    "type": "bridge",
    "name": "Pons Constantini",
    "lat": 43.733311,
    "lng": 24.486248,
    "startYear": -200,
    "endYear": 500,
    "source": "Pleiades",
    "category": "infrastructure",
    "qid": "Q3063225",
    "description": "An ancient place, cited: BAtlas 22 B5 Pons Constantini",
    "props": { "ancientName": "Pons Constantini" },
    "estimatedTemporal": true
  },
  {
    "id": "pleiades:218198",
    "type": "bridge",
    "name": "Roman bridge at Valeriana",
    "lat": 43.69115,
    "lng": 24.271632,
    "startYear": -200,
    "endYear": 500,
    "source": "Pleiades",
    "category": "infrastructure",
    "description": "A bridge constructed across the Danube at the Roman fort of Valeriana.",
    "estimatedTemporal": true
  },
  {
    "id": "pleiades:588990228",
    "type": "bridge",
    "name": "Ponte di Annibale - Sant'Angelo",
    "lat": 39.132931750811665,
    "lng": 16.274567050389432,
    "startYear": -200,
    "endYear": 500,
    "source": "Pleiades",
    "category": "infrastructure",
    "qid": "Q55188945",
    "description": "A Roman bridge known by a variety of local toponyms that crosses the Savuto river. It is located in the modern Italian municipality of Altilia, Calabria.",
    "estimatedTemporal": true
  },
  {
    "id": "pleiades:68481414",
    "type": "bridge",
    "name": "Pons Fabricius",
    "lat": 41.89107991559776,
    "lng": 12.478235854839614,
    "startYear": -200,
    "endYear": 500,
    "source": "Pleiades",
    "category": "infrastructure",
    "qid": "Q944688",
    "description": "The Pons Fabricius (sometimes referred to as the Ponte dei Quattro Capi) is a first-century BC bridge in Rome that spans part of the Tiber River from the area of the Circus Flaminius to the Tiber Island.",
    "props": { "ancientName": "Ponte dei Quattro Capi" },
    "estimatedTemporal": true
  },
  {
    "id": "pleiades:244583542",
    "type": "bridge",
    "name": "Ponte Apollosa",
    "lat": 41.0750945,
    "lng": 14.7129451,
    "startYear": 148,
    "endYear": 248,
    "source": "Pleiades",
    "category": "infrastructure",
    "description": "Ponte Apollosa, a bridge of the Via Appia that may have been restored by Septimius Severus in 198 CE.",
    "props": { "ancientName": "Ponte Apollosa" },
    "estimatedTemporal": true
  },
  {
    "id": "pleiades:1628988",
    "type": "bridge",
    "name": "Pietra Dell\u2019Oglio (bridge)",
    "lat": 40.965243794279836,
    "lng": 15.563056318171212,
    "startYear": -200,
    "endYear": 500,
    "source": "Pleiades",
    "category": "infrastructure",
    "description": "A Roman bridge crossing the Aufidus (modern Ofanto) river at the border between the modern Italian provinces of Campania and Basilicata. The bridge is one of two candidate identifications for the \"Pons Aufidi\" shown on the Peutinger map (the Ponte S. Venere), a possibility bolstered by recent comparative archaeological studies of the two bridges. The Pietra Dell'Oglio remains in use today for the Strada Comunale Fs di Monteverde, which connects to the Strada Statale 401 dir dell'Alto Ofanto e del Vulture at the southeast end of the bridge.",
    "estimatedTemporal": true
  },
  {
    "id": "pleiades:446574720",
    "type": "bridge",
    "name": "Ponte di Diocleziano, San Lazzaro di Fossombrone",
    "lat": 43.6831366,
    "lng": 12.7713803,
    "startYear": -200,
    "endYear": 500,
    "source": "Pleiades",
    "category": "infrastructure",
    "description": "The so-called \"Ponte di Diocleziano\" in the local comune of San Lazzaro di Fossombrone was a Roman bridge along the Via Flaminia in the valley of the Metaurus river. The Roman bridge was completely destroyed during the Second World War.",
    "estimatedTemporal": true
  },
  {
    "id": "pleiades:110784870",
    "type": "bridge",
    "name": "Roman bridge at Habitancum",
    "lat": 55.1700915,
    "lng": -2.1764202,
    "startYear": -200,
    "endYear": 500,
    "source": "Pleiades",
    "category": "infrastructure",
    "description": "Structural remains of a Roman bridge located on the River Rede in the vicinity of Habitancum Roman fort. The bridge lay along the ancient Watling Street.",
    "estimatedTemporal": true
  },
  {
    "id": "pleiades:376634672",
    "type": "bridge",
    "name": "Ponte dell'Ospedalato",
    "lat": 41.8341512,
    "lng": 12.8976195,
    "startYear": -200,
    "endYear": 500,
    "source": "Pleiades",
    "category": "infrastructure",
    "description": "A Roman bridge located near Praeneste.",
    "estimatedTemporal": true
  },
  {
    "id": "pleiades:183817908",
    "type": "bridge",
    "name": "Unnamed bridge over the Simbruina Stagna (Anio flumen) at Villa Neronis",
    "lat": 41.922059,
    "lng": 13.101729,
    "startYear": -200,
    "endYear": 500,
    "source": "Pleiades",
    "category": "infrastructure",
    "description": "Unlabeled feature captured from the Barrington Atlas",
    "estimatedTemporal": true
  },
  {
    "id": "pleiades:286808786",
    "type": "bridge",
    "name": "Pons Sublicius",
    "lat": 42.678308540569176,
    "lng": 12.327542552487452,
    "startYear": -200,
    "endYear": 500,
    "source": "Pleiades",
    "category": "infrastructure",
    "qid": "Q1466700",
    "description": "The Pons Sublicius is traditionally held to be the earliest Roman bridge across the river Tiber. The textual tradition assigns its construction to the king Ancus Marcius in 642 B.C. It crossed the Tiber River near the Forum Boarium just downstream from Tiber Island.",
    "props": { "ancientName": "Pons Theodosii" },
    "estimatedTemporal": true
  },
  {
    "id": "pleiades:259024851",
    "type": "bridge",
    "name": "Roman bridge of Lugo",
    "lat": 43.00193412427929,
    "lng": -7.563580925694127,
    "startYear": -200,
    "endYear": 500,
    "source": "Pleiades",
    "category": "infrastructure",
    "qid": "Q12397861",
    "description": "A bridge across the Minho River at Lugo with Roman origins. Heavily restored in modern times, the bridge now serves as a pedestrian walkway.",
    "estimatedTemporal": true
  },
  {
    "id": "pleiades:297866878",
    "type": "bridge",
    "name": "Via Ostiensis viaduct",
    "lat": 41.782095985447604,
    "lng": 12.356535960578894,
    "startYear": -200,
    "endYear": 500,
    "source": "Pleiades",
    "category": "infrastructure",
    "description": "A viaduct of the ancient Via Ostiensis that purportedly dates to the republican period.",
    "estimatedTemporal": true
  },
  {
    "id": "pleiades:306532",
    "type": "bridge",
    "name": "Unnamed bridge (south of Rusicade)",
    "lat": 36.737776305184575,
    "lng": 6.863077013877826,
    "startYear": -200,
    "endYear": 500,
    "source": "Pleiades",
    "category": "infrastructure",
    "description": "Gsell (whence BAtlas) repeats an earlier report of a well-preserved Roman bridge over the \"Oued Ameur\" upstream from its confluence with the Safsaf (ancient Thapsus).",
    "estimatedTemporal": true
  },
  {
    "id": "pleiades:306533",
    "type": "bridge",
    "name": "Unnamed bridge (south of Hippo Regius)",
    "lat": 36.81276434316631,
    "lng": 7.72937894004465,
    "startYear": -200,
    "endYear": 500,
    "source": "Pleiades",
    "category": "infrastructure",
    "description": "Gsell (whence BAtlas) reports remains of an ancient bridge over the Oued M\u00e9boudja.",
    "estimatedTemporal": true
  },
  {
    "id": "pleiades:306534",
    "type": "bridge",
    "name": "Unnamed bridge (north of Niniba)",
    "lat": 36.53649642366446,
    "lng": 7.71402809665693,
    "startYear": -200,
    "endYear": 500,
    "source": "Pleiades",
    "category": "infrastructure",
    "description": "Gsell (whence BAtlas) noted remains of a Roman bridge over the Seybouse (ancient Ubus), about 500 meters upstream from its confluence with the Frarah.",
    "estimatedTemporal": true
  },
  {
    "id": "pleiades:317857",
    "type": "bridge",
    "name": "Bridge (36.25, 8.75)",
    "lat": 36.25,
    "lng": 8.75,
    "startYear": -200,
    "endYear": 500,
    "source": "Pleiades",
    "category": "infrastructure",
    "description": "An ancient place, cited: BAtlas 32 C4 unnamed bridge (E Simitthu)",
    "estimatedTemporal": true
  },
  {
    "id": "pleiades:317858",
    "type": "bridge",
    "name": "Bridge (36.25, 8.75)",
    "lat": 36.25,
    "lng": 8.75,
    "startYear": -200,
    "endYear": 500,
    "source": "Pleiades",
    "category": "infrastructure",
    "description": "An ancient place, cited: BAtlas 32 C4 unnamed bridge (between Sicca Veneria and Ucubi)",
    "estimatedTemporal": true
  },
  {
    "id": "pleiades:317859",
    "type": "bridge",
    "name": "Bridge at Henchir-Halloufa",
    "lat": 36.75,
    "lng": 9.25,
    "startYear": -200,
    "endYear": 500,
    "source": "Pleiades",
    "category": "infrastructure",
    "description": "An ancient place, cited: BAtlas 32 D3 unnamed bridge group (near Vicus Augusti? and Teglata?)",
    "estimatedTemporal": true
  },
  {
    "id": "pleiades:317860",
    "type": "bridge",
    "name": "Bridge at Henchir-Halloufa",
    "lat": 36.75,
    "lng": 9.25,
    "startYear": -200,
    "endYear": 500,
    "source": "Pleiades",
    "category": "infrastructure",
    "description": "An ancient place, cited: BAtlas 32 D3 unnamed bridge (near Vaga)",
    "estimatedTemporal": true
  },
  {
    "id": "pleiades:317861",
    "type": "bridge",
    "name": "Bridge at Bir-Merouane",
    "lat": 36.25,
    "lng": 9.25,
    "startYear": -200,
    "endYear": 500,
    "source": "Pleiades",
    "category": "infrastructure",
    "description": "An ancient place, cited: BAtlas 32 D4 unnamed bridge (E Thubursicu Bure, near Civitas Mizigitanorum)",
    "estimatedTemporal": true
  },
  {
    "id": "pleiades:317862",
    "type": "bridge",
    "name": "Bridge (36.32, 10.49)",
    "lat": 36.322191,
    "lng": 10.493508,
    "startYear": -200,
    "endYear": 500,
    "source": "Pleiades",
    "category": "infrastructure",
    "description": "An ancient place, cited: BAtlas 32 G4 unnamed bridge (SW Pupput)",
    "estimatedTemporal": true
  },
  {
    "id": "pleiades:439339512",
    "type": "bridge",
    "name": "Pont Rom\u00e0",
    "lat": 39.8824325,
    "lng": 3.0149992,
    "startYear": -200,
    "endYear": 500,
    "source": "Pleiades",
    "category": "infrastructure",
    "qid": "Q43103827",
    "description": "A Roman bridge on the island of Majorca (Pollen\u00e7a, Mallorca, Spain).",
    "estimatedTemporal": true
  },
  {
    "id": "pleiades:306780756",
    "type": "bridge",
    "name": "Ponte di Apollo, Punicum",
    "lat": 42.0387821,
    "lng": 11.8812405,
    "startYear": -200,
    "endYear": 500,
    "source": "Pleiades",
    "category": "infrastructure",
    "description": "A Roman bridge.",
    "estimatedTemporal": true
  },
  {
    "id": "pleiades:306780757",
    "type": "bridge",
    "name": "Ponte Romano Di Largo Impero, Santa Marinella",
    "lat": 42.0377163,
    "lng": 11.8764434,
    "startYear": -200,
    "endYear": 500,
    "source": "Pleiades",
    "category": "infrastructure",
    "description": "The remains of a Roman bridge located in the comune of Santa Marinella.",
    "estimatedTemporal": true
  },
  {
    "id": "pleiades:99965183",
    "type": "bridge",
    "name": "Yibna Bridge",
    "lat": 31.869431000000002,
    "lng": 34.752263400000004,
    "startYear": -200,
    "endYear": 500,
    "source": "Pleiades",
    "category": "infrastructure",
    "description": "The Mamluk arched bridge dating to the 1270s crosses the river Nahal Sorek near modern Yibna, Israel.",
    "props": { "ancientName": "Yibna Bridge" },
    "qid": "Q24076759",
    "estimatedTemporal": true
  },
  {
    "id": "pleiades:413249072",
    "type": "bridge",
    "name": "Solest\u00e0 Roman bridge",
    "lat": 42.85851385,
    "lng": 13.5718295,
    "startYear": -200,
    "endYear": 500,
    "source": "Pleiades",
    "category": "infrastructure",
    "qid": "Q2103727",
    "description": "A Roman bridge over the Truentus river.",
    "estimatedTemporal": true
  },
  {
    "id": "pleiades:679502",
    "type": "bridge",
    "name": "Bridge W of Wingate",
    "lat": 32.25,
    "lng": 34.75,
    "startYear": -200,
    "endYear": 500,
    "source": "Pleiades",
    "category": "infrastructure",
    "description": "An ancient place, cited: BAtlas 69 A5 unnamed bridge (SE Caesarea)",
    "estimatedTemporal": true
  },
  {
    "id": "pleiades:679503",
    "type": "bridge",
    "name": "Bridge W of Wingate",
    "lat": 32.25,
    "lng": 34.75,
    "startYear": -200,
    "endYear": 500,
    "source": "Pleiades",
    "category": "infrastructure",
    "description": "An ancient place, cited: BAtlas 69 A5 unnamed bridge (near Bir el 'Abd)",
    "estimatedTemporal": true
  },
  {
    "id": "pleiades:679504",
    "type": "bridge",
    "name": "Bridge N of Porphyreon Polis",
    "lat": 33.75,
    "lng": 35.25,
    "startYear": -200,
    "endYear": 500,
    "source": "Pleiades",
    "category": "infrastructure",
    "description": "An ancient place, cited: BAtlas 69 B2 unnamed bridge (Wadi ez-Zaini, N Sidon)",
    "estimatedTemporal": true
  },
  {
    "id": "pleiades:679505",
    "type": "bridge",
    "name": "Bridge N of Porphyreon Polis",
    "lat": 33.75,
    "lng": 35.25,
    "startYear": -200,
    "endYear": 500,
    "source": "Pleiades",
    "category": "infrastructure",
    "description": "An ancient place, cited: BAtlas 69 B2 unnamed bridge (Nahr Awali, S Sidon)",
    "estimatedTemporal": true
  },
  {
    "id": "pleiades:679506",
    "type": "bridge",
    "name": "bridge located",
    "lat": 33.339524,
    "lng": 35.2507838,
    "startYear": -200,
    "endYear": 500,
    "source": "Pleiades",
    "category": "infrastructure",
    "description": "A Roman bridge located in what is now Lebanon that crosses the Litani River (Leontes). The bridge is located in the vicinity of Nahr Abou Assouad, approximately 10 km north of Tyre.",
    "estimatedTemporal": true
  },
  {
    "id": "pleiades:679507",
    "type": "bridge",
    "name": "Bridge at Legio",
    "lat": 32.570273,
    "lng": 35.184981,
    "startYear": -200,
    "endYear": 500,
    "source": "Pleiades",
    "category": "infrastructure",
    "description": "An ancient place, cited: BAtlas 69 B4 unnamed bridge (Legio)",
    "estimatedTemporal": true
  },
  {
    "id": "pleiades:679508",
    "type": "bridge",
    "name": "Maalmetein Roman Bridge",
    "lat": 34.01289527898782,
    "lng": 35.642738998786875,
    "startYear": -200,
    "endYear": 500,
    "source": "Pleiades",
    "category": "infrastructure",
    "description": "An ancient place, cited: BAtlas 69 C1 unnamed bridge (Maameltein, N Palaibyblos)",
    "estimatedTemporal": true
  },
  {
    "id": "pleiades:679509",
    "type": "bridge",
    "name": "Bridge W of Brochoi",
    "lat": 33.75,
    "lng": 35.75,
    "startYear": -200,
    "endYear": 500,
    "source": "Pleiades",
    "category": "infrastructure",
    "description": "An ancient place, cited: BAtlas 69 C2 unnamed bridge (Nahr Beyrut, E Berytus)",
    "estimatedTemporal": true
  },
  {
    "id": "pleiades:679510",
    "type": "bridge",
    "name": "Bridge W of Brochoi",
    "lat": 33.75,
    "lng": 35.75,
    "startYear": -200,
    "endYear": 500,
    "source": "Pleiades",
    "category": "infrastructure",
    "description": "An ancient place, cited: BAtlas 69 C2 unnamed bridge (Nahr el-Kelb, SW Palaibyblos)",
    "estimatedTemporal": true
  },
  {
    "id": "pleiades:679511",
    "type": "bridge",
    "name": "Bridge S of Dennaba",
    "lat": 32.75,
    "lng": 36.25,
    "startYear": -200,
    "endYear": 500,
    "source": "Pleiades",
    "category": "infrastructure",
    "description": "An ancient place, cited: BAtlas 69 D4 unnamed bridge (et-Tayyibe, SE Adra(h)a)",
    "estimatedTemporal": true
  },
  {
    "id": "pleiades:679512",
    "type": "bridge",
    "name": "Bridge S of Dennaba",
    "lat": 32.75,
    "lng": 36.25,
    "startYear": -200,
    "endYear": 500,
    "source": "Pleiades",
    "category": "infrastructure",
    "description": "An ancient place, cited: BAtlas 69 D4 unnamed bridge (Nahr Jemarrin, N Bostra)",
    "estimatedTemporal": true
  },
  {
    "id": "pleiades:689317",
    "type": "bridge",
    "name": "Bridge W of Wingate",
    "lat": 32.25,
    "lng": 34.75,
    "startYear": -200,
    "endYear": 500,
    "source": "Pleiades",
    "category": "infrastructure",
    "description": "An ancient place, cited: BAtlas 70 F1 unnamed bridge (Ferekhiyeh, over R. Yarkon, between Ioppe and Neapolis)",
    "estimatedTemporal": true
  },
  {
    "id": "pleiades:689318",
    "type": "bridge",
    "name": "Bridge W of Wingate",
    "lat": 32.25,
    "lng": 34.75,
    "startYear": -200,
    "endYear": 500,
    "source": "Pleiades",
    "category": "infrastructure",
    "description": "An ancient place, cited: BAtlas 70 F1 unnamed bridge (Jisr es Sudah, over R. Ayalon, between Lydda and Antipatris)",
    "estimatedTemporal": true
  },
  {
    "id": "pleiades:689319",
    "type": "bridge",
    "name": "Bridge near Aser",
    "lat": 31.75,
    "lng": 34.75,
    "startYear": -200,
    "endYear": 500,
    "source": "Pleiades",
    "category": "infrastructure",
    "description": "An ancient place, cited: BAtlas 70 F2 unnamed bridge (Jisr Jindas, over R. Ayalon, between Lydda and Antipatris)",
    "estimatedTemporal": true
  },
  {
    "id": "pleiades:689320",
    "type": "bridge",
    "name": "Bridge near Aser",
    "lat": 31.75,
    "lng": 34.75,
    "startYear": -200,
    "endYear": 500,
    "source": "Pleiades",
    "category": "infrastructure",
    "description": "An ancient place, cited: BAtlas 70 F2 unnamed bridge (Jisr el Rubin, on coast road over R. Soreq, near Iamneia Paralios)",
    "estimatedTemporal": true
  },
  {
    "id": "pleiades:689321",
    "type": "bridge",
    "name": "Bridge near Aser",
    "lat": 31.75,
    "lng": 34.75,
    "startYear": -200,
    "endYear": 500,
    "source": "Pleiades",
    "category": "infrastructure",
    "description": "An ancient place, cited: BAtlas 70 F2 unnamed bridge (el Jisr, over R. Lakhish, between Ashqelon and Ierusalem)",
    "estimatedTemporal": true
  },
  {
    "id": "pleiades:689322",
    "type": "bridge",
    "name": "unnamed bridge located",
    "lat": 31.75,
    "lng": 35.25,
    "startYear": -200,
    "endYear": 500,
    "source": "Pleiades",
    "category": "infrastructure",
    "description": "An unnamed bridge located near Moza, over the river Soreq, between Jerusalem and Emmaus.",
    "estimatedTemporal": true
  },
  {
    "id": "pleiades:689323",
    "type": "bridge",
    "name": "Bridge near Bethania",
    "lat": 31.75,
    "lng": 35.25,
    "startYear": -200,
    "endYear": 500,
    "source": "Pleiades",
    "category": "infrastructure",
    "description": "An ancient place, cited: BAtlas 70 G2 unnamed bridge (near Hierichous, at Jisr Wadi el Qelt across Wadi Qelt)",
    "estimatedTemporal": true
  },
  {
    "id": "pleiades:689324",
    "type": "bridge",
    "name": "Damiya Roman Bridge",
    "lat": 32.10271825,
    "lng": 35.53513115,
    "startYear": -200,
    "endYear": 500,
    "source": "Pleiades",
    "category": "infrastructure",
    "qid": "Q2916379",
    "description": "Sited at an ancient crossing-point over the river Jordan, between Neapolis and Philadelpheia, a Roman-era bridge is thought to have been one of many. The modern bridge and its antecedents are often referred to as the \"Damia Bridge\".",
    "props": { "ancientName": "Jisr Damiya" },
    "estimatedTemporal": true
  },
  {
    "id": "pleiades:698379",
    "type": "bridge",
    "name": "Bridge at Valtha",
    "lat": 31.551316,
    "lng": 35.767994,
    "startYear": -200,
    "endYear": 500,
    "source": "Pleiades",
    "category": "infrastructure",
    "description": "An ancient place, cited: BAtlas 71 B2 unnamed bridge (Valtha, over Wadi Wala)",
    "estimatedTemporal": true
  },
  {
    "id": "pleiades:698380",
    "type": "bridge",
    "name": "Bridge near Aroes",
    "lat": 31.452153,
    "lng": 35.80628,
    "startYear": -200,
    "endYear": 500,
    "source": "Pleiades",
    "category": "infrastructure",
    "description": "An ancient place, cited: BAtlas 71 B3 unnamed bridge (over Arnon fl. at Wadi Mujib)",
    "estimatedTemporal": true
  },
  {
    "id": "pleiades:698381",
    "type": "bridge",
    "name": "Bridge near Thornia",
    "lat": 30.75,
    "lng": 35.75,
    "startYear": -200,
    "endYear": 500,
    "source": "Pleiades",
    "category": "infrastructure",
    "description": "An ancient place, cited: BAtlas 71 B4 unnamed bridge (over Zered fl. (W) at Wadi el-Hesa)",
    "estimatedTemporal": true
  },
  {
    "id": "pleiades:698382",
    "type": "bridge",
    "name": "Bridge near Thornia",
    "lat": 30.75,
    "lng": 35.75,
    "startYear": -200,
    "endYear": 500,
    "source": "Pleiades",
    "category": "infrastructure",
    "description": "An ancient place, cited: BAtlas 71 B4 unnamed bridge (over Zered fl. (E) at Wadi el-Hesa)",
    "estimatedTemporal": true
  },
  {
    "id": "pleiades:66910159",
    "type": "bridge",
    "name": "Ponte Romano di Viale Roma",
    "lat": 42.0370513,
    "lng": 11.8722269,
    "startYear": -200,
    "endYear": 500,
    "source": "Pleiades",
    "category": "infrastructure",
    "description": "The ruins of a Roman bridge located in the Viale Roma, Santa Marinella, Italy.",
    "estimatedTemporal": true
  },
  {
    "id": "pleiades:789975647",
    "type": "bridge",
    "name": "remains",
    "lat": 39.479433084240405,
    "lng": -6.26752868872106,
    "startYear": -200,
    "endYear": 500,
    "source": "Pleiades",
    "category": "infrastructure",
    "description": "The remains of a bridge located in Sierra de Fuentes, Spain.",
    "estimatedTemporal": true
  },
  {
    "id": "pleiades:591167",
    "type": "bridge",
    "name": "Bridge at Elliniki Kamara",
    "lat": 35.371064,
    "lng": 24.21092,
    "startYear": -200,
    "endYear": 500,
    "source": "Pleiades",
    "category": "infrastructure",
    "description": "An ancient place, cited: BAtlas 60 B2 unnamed bridge (W Amphimala)",
    "estimatedTemporal": true
  },
  {
    "id": "pleiades:591168",
    "type": "bridge",
    "name": "Eleutherna Bridge",
    "lat": 35.3380413,
    "lng": 24.670378550000002,
    "startYear": -200,
    "endYear": 500,
    "source": "Pleiades",
    "category": "infrastructure",
    "qid": "Q996135",
    "description": "An ancient place, cited: BAtlas 60 C2 unnamed bridge (Eleutherna)",
    "estimatedTemporal": true
  },
  {
    "id": "pleiades:334776903",
    "type": "bridge",
    "name": "Pons Aelius",
    "lat": 41.90189433889392,
    "lng": 12.466439912123187,
    "startYear": -200,
    "endYear": 500,
    "source": "Pleiades",
    "category": "infrastructure",
    "qid": "Q870476",
    "description": "The Pons Aelius or Aelian Bridge (now Ponte Sant'Angelo) was completed by Hadrian in AD 134 to span the Tiber opposite the new mausoleum of the emperor.",
    "props": { "ancientName": "Ponte Sant'Angelo" },
    "estimatedTemporal": true
  },
  {
    "id": "pleiades:158906364",
    "type": "bridge",
    "name": "Ponte Sereno",
    "lat": 41.704699950000006,
    "lng": 13.2668477,
    "startYear": -200,
    "endYear": 500,
    "source": "Pleiades",
    "category": "infrastructure",
    "qid": "Q133441687",
    "description": "A bridge near Ferentinum (modern Ferentino in Italy) that is traditionally dated to A.D. 260 or after. A substructure in polygonal masonry supports the bridge.",
    "estimatedTemporal": true
  },
  {
    "id": "pleiades:550561",
    "type": "bridge",
    "name": "(H)Alesion Pedion",
    "lat": 39.584862,
    "lng": 26.109862,
    "startYear": -200,
    "endYear": 500,
    "source": "Pleiades",
    "category": "infrastructure",
    "description": "An ancient place, cited: BAtlas 56 C2 (H)Alesion Pedion",
    "props": { "ancientName": " Halesion Pedion" },
    "estimatedTemporal": true
  },
  {
    "id": "pleiades:425067",
    "type": "bridge",
    "name": "Unnamed bridge (Ad Turres)",
    "lat": 41.936088,
    "lng": 12.155399500000001,
    "startYear": -200,
    "endYear": 500,
    "source": "Pleiades",
    "category": "infrastructure",
    "description": "An ancient place, cited: BAtlas 43 A2 unnamed bridge (Ad Turres)",
    "estimatedTemporal": true
  },
  {
    "id": "pleiades:425068",
    "type": "bridge",
    "name": "Pons Aemilius",
    "lat": 41.88933725410385,
    "lng": 12.479372767819696,
    "startYear": -200,
    "endYear": 500,
    "source": "Pleiades",
    "category": "infrastructure",
    "qid": "Q640092",
    "description": "The Pons Aemilius was the first stone bridge built across the Tiber River at Rome (241 B.C.). Its remains are known today as the 'Ponte Rotto'.",
    "props": { "ancientName": "Ponte Rotto" },
    "estimatedTemporal": true
  },
  {
    "id": "pleiades:425069",
    "type": "bridge",
    "name": "Bridge at Muraccio dell\u2019Omo",
    "lat": 41.875,
    "lng": 12.625,
    "startYear": -200,
    "endYear": 500,
    "source": "Pleiades",
    "category": "infrastructure",
    "description": "An ancient place, cited: BAtlas 43 C2 unnamed bridge (near Muraccio dell\u2019Omo)",
    "estimatedTemporal": true
  },
  {
    "id": "pleiades:425070",
    "type": "bridge",
    "name": "Unnamed bridge (Cessati Spiriti)",
    "lat": 41.862522,
    "lng": 12.533184,
    "startYear": -200,
    "endYear": 500,
    "source": "Pleiades",
    "category": "infrastructure",
    "description": "An ancient place, cited: BAtlas 43 C2 unnamed bridge (Cessati Spiriti)",
    "estimatedTemporal": true
  },
  {
    "id": "pleiades:425071",
    "type": "bridge",
    "name": "Bridge near Cora",
    "lat": 41.625,
    "lng": 12.875,
    "startYear": -200,
    "endYear": 500,
    "source": "Pleiades",
    "category": "infrastructure",
    "description": "An ancient place, cited: BAtlas 43 D3 unnamed bridge (Cora)",
    "estimatedTemporal": true
  },
  {
    "id": "pleiades:425072",
    "type": "bridge",
    "name": "Bridge at Ad Sponsas",
    "lat": 41.58389,
    "lng": 12.84611,
    "startYear": -200,
    "endYear": 500,
    "source": "Pleiades",
    "category": "infrastructure",
    "description": "An ancient place, cited: BAtlas 43 D3 unnamed bridge (Ad Sponsas)",
    "estimatedTemporal": true
  },
  {
    "id": "pleiades:425073",
    "type": "bridge",
    "name": "Unnamed bridge (near Forum Appii)",
    "lat": 41.375,
    "lng": 12.875,
    "startYear": -200,
    "endYear": 500,
    "source": "Pleiades",
    "category": "infrastructure",
    "description": "An ancient place, cited: BAtlas 43 D4 unnamed bridge (near Forum Appii)",
    "estimatedTemporal": true
  },
  {
    "id": "pleiades:426578",
    "type": "bridge",
    "name": "Unnamed bridge over R. Quartaccio",
    "lat": 41.875,
    "lng": 12.125,
    "startYear": -200,
    "endYear": 500,
    "source": "Pleiades",
    "category": "infrastructure",
    "description": "An ancient place, cited: BAtlas 43 A2 no. 2 (bridge over R. Quartaccio)",
    "estimatedTemporal": true
  },
  {
    "id": "pleiades:426579",
    "type": "bridge",
    "name": "Roman bridge at Palidoro",
    "lat": 41.9301799,
    "lng": 12.1785507,
    "startYear": -200,
    "endYear": 500,
    "source": "Pleiades",
    "category": "infrastructure",
    "description": "An ancient Roman bridge along the Via Aurelia.",
    "estimatedTemporal": true
  },
  {
    "id": "pleiades:426580",
    "type": "bridge",
    "name": "feature included",
    "lat": 41.90637082796347,
    "lng": 12.265532115348313,
    "startYear": -200,
    "endYear": 500,
    "source": "Pleiades",
    "category": "infrastructure",
    "description": "A feature included on Barrington Atlas map 43 B2 no. 4, an unnamed bridge that crosses the river Arrone.",
    "estimatedTemporal": true
  },
  {
    "id": "pleiades:426581",
    "type": "bridge",
    "name": "Bridge at Acquafredda",
    "lat": 41.875,
    "lng": 12.375,
    "startYear": -200,
    "endYear": 500,
    "source": "Pleiades",
    "category": "infrastructure",
    "description": "An ancient place, cited: BAtlas 43 B2 no. 5 (bridge over Fosso di Prima Porta)",
    "estimatedTemporal": true
  },
  {
    "id": "pleiades:426582",
    "type": "bridge",
    "name": "Bridge near Campetti - Decumano",
    "lat": 42.06254478358026,
    "lng": 12.390000896654083,
    "startYear": -200,
    "endYear": 500,
    "source": "Pleiades",
    "category": "infrastructure",
    "description": "An ancient place, cited: BAtlas 43 B2 no. 6 (bridge over Cremera fl.)",
    "estimatedTemporal": true
  },
  {
    "id": "pleiades:426586",
    "type": "bridge",
    "name": "Unnamed bridge in the Piazza Eugenio Biffi",
    "lat": 41.86666403070025,
    "lng": 12.490163496752352,
    "startYear": -200,
    "endYear": 500,
    "source": "Pleiades",
    "category": "infrastructure",
    "description": "The remains of an ancient Roman bridge in the present Piazza Eugenio Biffi in Rome. This bridge is thought to have spanned the Almo river.",
    "qid": "Q2100416",
    "estimatedTemporal": true
  },
  {
    "id": "pleiades:426587",
    "type": "bridge",
    "name": "Bridge at Sep. Geta",
    "lat": 41.86776434405035,
    "lng": 12.50294554417796,
    "startYear": -200,
    "endYear": 500,
    "source": "Pleiades",
    "category": "infrastructure",
    "description": "An ancient place, cited: BAtlas 43 C2 no. 11 (bridge near so-called Tomb of Geta)",
    "estimatedTemporal": true
  },
  {
    "id": "pleiades:426589",
    "type": "bridge",
    "name": "Ponte di Vallerano",
    "lat": 41.826733,
    "lng": 12.445345,
    "startYear": -200,
    "endYear": 500,
    "source": "Pleiades",
    "category": "infrastructure",
    "qid": "Q134707539",
    "description": "The Ponte di Vallerano is a second-century Roman bridge that carried the via Ostiensis across the fosso di Vallerano.",
    "props": { "ancientName": "Ponte di Vallerano" },
    "estimatedTemporal": true
  },
  {
    "id": "pleiades:426590",
    "type": "bridge",
    "name": "Bridge at Acquafredda",
    "lat": 41.875,
    "lng": 12.375,
    "startYear": -200,
    "endYear": 500,
    "source": "Pleiades",
    "category": "infrastructure",
    "description": "An ancient place, cited: BAtlas 43 B2 no. 14 (bridge at Mezzocamino)",
    "estimatedTemporal": true
  },
  {
    "id": "pleiades:426591",
    "type": "bridge",
    "name": "Ponte di Malafede",
    "lat": 41.7755265,
    "lng": 12.3780048,
    "startYear": -200,
    "endYear": 500,
    "source": "Pleiades",
    "category": "infrastructure",
    "description": "A Roman bridge that is no longer extant. Quilici notes that the bridge was destroyed both by the Second World War and by urbanization that followed in the post-war period. Blake publishes a photo of E. B. van Deman and indicates that the bridge was built in peperino and of \"indeterminate date\". She compares the Ponte di Malafede with the construction of the Via Appia viaduct that lies just beyond Ariccia, a structure that was Augustan in its date.",
    "props": { "ancientName": "Ponte di Malafede" },
    "estimatedTemporal": true
  },
  {
    "id": "pleiades:426592",
    "type": "bridge",
    "name": "Ponte Ladrone",
    "lat": 41.7896892,
    "lng": 12.3751754,
    "startYear": -200,
    "endYear": 500,
    "source": "Pleiades",
    "category": "infrastructure",
    "description": "The so-called Ponte Ladrone was a Roman bridge of the Via Ostiensis located at Acilia. According to L. Quilici, its remaining material vestiges were buried in 1982 by infrastructure works.",
    "props": { "ancientName": "Ponte Ladrone" },
    "estimatedTemporal": true
  },
  {
    "id": "pleiades:426603",
    "type": "bridge",
    "name": "Bridge at Muraccio dell\u2019Omo",
    "lat": 41.875,
    "lng": 12.625,
    "startYear": -200,
    "endYear": 500,
    "source": "Pleiades",
    "category": "infrastructure",
    "description": "An ancient place, cited: BAtlas 43 C2 no. 27 (bridge on Via Labicana)",
    "estimatedTemporal": true
  },
  {
    "id": "pleiades:426607",
    "type": "bridge",
    "name": "Bridge near Grotta del Mortale",
    "lat": 41.875,
    "lng": 12.875,
    "startYear": -200,
    "endYear": 500,
    "source": "Pleiades",
    "category": "infrastructure",
    "description": "An ancient place, cited: BAtlas 43 D2 no. 31 (bridge over R. Acquoria, temple and quarries)",
    "estimatedTemporal": true
  },
  {
    "id": "pleiades:426608",
    "type": "bridge",
    "name": "Roman bridges at Tibur",
    "lat": 41.963602,
    "lng": 12.79818,
    "startYear": -200,
    "endYear": 500,
    "source": "Pleiades",
    "category": "infrastructure",
    "description": "An ancient place, cited: BAtlas 43 D2 no. 32 (bridges at Tibur (2))",
    "estimatedTemporal": true
  },
  {
    "id": "pleiades:426610",
    "type": "bridge",
    "name": "Bridge near Grotta del Mortale",
    "lat": 41.875,
    "lng": 12.875,
    "startYear": -200,
    "endYear": 500,
    "source": "Pleiades",
    "category": "infrastructure",
    "description": "An ancient place, cited: BAtlas 43 D2 no. 34 (bridge at S. Stefano)",
    "estimatedTemporal": true
  },
  {
    "id": "pleiades:426611",
    "type": "bridge",
    "name": "Bridge at S. Stefano",
    "lat": 41.9232405711212,
    "lng": 12.783054132394374,
    "startYear": -200,
    "endYear": 500,
    "source": "Pleiades",
    "category": "infrastructure",
    "description": "An ancient place, cited: BAtlas 43 D2 no. 35 (bridge (Ponte Terra))",
    "props": { "ancientName": "Ponte Terra" },
    "estimatedTemporal": true
  },
  {
    "id": "pleiades:426612",
    "type": "bridge",
    "name": "Bridge over Fosso di Acqua Rossa",
    "lat": 41.904633,
    "lng": 12.79031,
    "startYear": -200,
    "endYear": 500,
    "source": "Pleiades",
    "category": "infrastructure",
    "description": "The remains of a Roman bridge that once carried a road over the Fosso di Acqua Rossa. Ward-Perkins posits a date of the second or first century BCE based on comparanda in the vicinity.",
    "estimatedTemporal": true
  },
  {
    "id": "pleiades:426613",
    "type": "bridge",
    "name": "Ponte Ceccara",
    "lat": 41.878927388333935,
    "lng": 12.760130441037191,
    "startYear": -200,
    "endYear": 500,
    "source": "Pleiades",
    "category": "infrastructure",
    "qid": "Q131900839",
    "description": "The Ponte Ceccara, also referred to as the ponte di Terra, is a Republican period bridge located on the fosso di Passerano along the Via Praenestina. It is located within the modern comune of Zagarolo, some 30.5 km southeast of the center of Rome.",
    "estimatedTemporal": true
  },
  {
    "id": "pleiades:426614",
    "type": "bridge",
    "name": "Ponte dell\u2019Acqua Nera",
    "lat": 41.871736,
    "lng": 12.7863084,
    "startYear": -200,
    "endYear": 500,
    "source": "Pleiades",
    "category": "infrastructure",
    "description": "An ancient place, cited: BAtlas 43 D2 no. 38 (bridge (Ponte dell\u2019Acqua Nera))",
    "props": { "ancientName": "Ponte dell\u2019Acqua Nera" },
    "estimatedTemporal": true
  },
  {
    "id": "pleiades:426615",
    "type": "bridge",
    "name": "Ponte Amato",
    "lat": 41.86836795,
    "lng": 12.81137605,
    "startYear": -200,
    "endYear": 500,
    "source": "Pleiades",
    "category": "infrastructure",
    "qid": "Q55162587",
    "description": "The bridge known as Ponte Amato carries the Via Praenestina near Gallicano nel Lazio.",
    "props": { "ancientName": "Ponte Amato" },
    "estimatedTemporal": true
  },
  {
    "id": "pleiades:426629",
    "type": "bridge",
    "name": "Ponte Loreto",
    "lat": 41.64544434529342,
    "lng": 12.694170941329187,
    "startYear": -200,
    "endYear": 500,
    "source": "Pleiades",
    "category": "infrastructure",
    "description": "A Roman bridge at Lanuvium.",
    "props": { "ancientName": "Ponte Loreto " },
    "estimatedTemporal": true
  },
  {
    "id": "pleiades:426630",
    "type": "bridge",
    "name": "Ponte di Mele",
    "lat": 41.625,
    "lng": 12.625,
    "startYear": -200,
    "endYear": 500,
    "source": "Pleiades",
    "category": "infrastructure",
    "description": "A Roman bridge along the Via Appia.",
    "props": { "ancientName": "Ponte di Mele" },
    "estimatedTemporal": true
  },
  {
    "id": "pleiades:426631",
    "type": "bridge",
    "name": "Bridge near Cora",
    "lat": 41.625,
    "lng": 12.875,
    "startYear": -200,
    "endYear": 500,
    "source": "Pleiades",
    "category": "infrastructure",
    "description": "An ancient place, cited: BAtlas 43 D3 no. 55 (bridge over Fosso delle Mole)",
    "estimatedTemporal": true
  },
  {
    "id": "pleiades:426634",
    "type": "bridge",
    "name": "Ponte di Traiano at Tor Tre Ponti",
    "lat": 41.50349415,
    "lng": 12.95039285,
    "startYear": -200,
    "endYear": 500,
    "source": "Pleiades",
    "category": "infrastructure",
    "description": "A Roman bridge located on the Via Appia at modern Tor Tre Ponti.",
    "props": { "ancientName": "Ponte di Traiano" },
    "estimatedTemporal": true
  },
  {
    "id": "pleiades:426635",
    "type": "bridge",
    "name": "Bridge near Ad Turres Albas",
    "lat": 41.375,
    "lng": 12.875,
    "startYear": -200,
    "endYear": 500,
    "source": "Pleiades",
    "category": "infrastructure",
    "description": "An ancient place, cited: BAtlas 43 D4 no. 59 (bridge (Ponte S. Felicit\u00e0))",
    "props": { "ancientName": "Ponte S. Felicita" },
    "estimatedTemporal": true
  },
  {
    "id": "pleiades:433035",
    "type": "bridge",
    "name": "Pons Apollinis",
    "lat": 42.0387821,
    "lng": 11.8812405,
    "startYear": -200,
    "endYear": 500,
    "source": "Pleiades",
    "category": "infrastructure",
    "description": "An ancient place, cited: BAtlas 44 A1 Pons Apollinis",
    "props": { "ancientName": "Pons Apollinis" },
    "estimatedTemporal": true
  },
  {
    "id": "pleiades:433036",
    "type": "bridge",
    "name": "Pons Campanus",
    "lat": 41.131744499999996,
    "lng": 13.968802499999999,
    "startYear": -200,
    "endYear": 500,
    "source": "Pleiades",
    "category": "infrastructure",
    "description": "An ancient place, cited: BAtlas 44 E3 Pons Campanus",
    "props": { "ancientName": "Pons Campanus" },
    "estimatedTemporal": true
  },
  {
    "id": "pleiades:433037",
    "type": "bridge",
    "name": "Pons Auruncus",
    "lat": 41.232489,
    "lng": 13.909388,
    "startYear": -200,
    "endYear": 500,
    "source": "Pleiades",
    "category": "infrastructure",
    "description": "An ancient place, cited: BAtlas 44 E3 Pons Auruncus",
    "props": { "ancientName": "Pons Auruncus" },
    "estimatedTemporal": true
  },
  {
    "id": "pleiades:433039",
    "type": "bridge",
    "name": "Pons Tirenus",
    "lat": 41.241686,
    "lng": 13.771826,
    "startYear": -200,
    "endYear": 500,
    "source": "Pleiades",
    "category": "infrastructure",
    "description": "An ancient place, cited: BAtlas 44 E3 Pons Tirenus",
    "props": { "ancientName": "Pons Tirenus" },
    "estimatedTemporal": true
  },
  {
    "id": "pleiades:434132",
    "type": "bridge",
    "name": "Bridge at Minturnae",
    "lat": 41.25,
    "lng": 13.75,
    "startYear": -200,
    "endYear": 500,
    "source": "Pleiades",
    "category": "infrastructure",
    "description": "An ancient place, cited: BAtlas 44 E3 unnamed bridge (at Pons Campanus)",
    "estimatedTemporal": true
  },
  {
    "id": "pleiades:434133",
    "type": "bridge",
    "name": "Unnamed bridge over the Volturnus river on the Via Domitiana",
    "lat": 41.30221187825358,
    "lng": 14.14990036816852,
    "startYear": -200,
    "endYear": 500,
    "source": "Pleiades",
    "category": "infrastructure",
    "description": "An unnamed bridge located along the Via Domitiana.",
    "estimatedTemporal": true
  },
  {
    "id": "pleiades:434134",
    "type": "bridge",
    "name": "Ponte Latrone",
    "lat": 41.508821,
    "lng": 14.124737,
    "startYear": -200,
    "endYear": 500,
    "source": "Pleiades",
    "category": "infrastructure",
    "description": "A Roman bridge on the Volturno river located near Capriati.",
    "estimatedTemporal": true
  },
  {
    "id": "pleiades:434135",
    "type": "bridge",
    "name": "Ponte Romano di Val d'Assano",
    "lat": 41.24855777819971,
    "lng": 14.135804137683905,
    "startYear": -200,
    "endYear": 500,
    "source": "Pleiades",
    "category": "infrastructure",
    "description": "An ancient bridge located to the east of ancient Teanum Sidicinum (modern Teano in Italy).",
    "props": { "ancientName": "Ponte Sfondato" },
    "estimatedTemporal": true
  },
  {
    "id": "pleiades:434136",
    "type": "bridge",
    "name": "Bridge near Trebula Balliensium",
    "lat": 41.25,
    "lng": 14.25,
    "startYear": -200,
    "endYear": 500,
    "source": "Pleiades",
    "category": "infrastructure",
    "description": "An ancient place, cited: BAtlas 44 F3 unnamed bridge (near Monte Acero)",
    "estimatedTemporal": true
  },
  {
    "id": "pleiades:434137",
    "type": "bridge",
    "name": "Bridge W of Pagus Meflanus",
    "lat": 41.25,
    "lng": 14.75,
    "startYear": -200,
    "endYear": 500,
    "source": "Pleiades",
    "category": "infrastructure",
    "description": "An ancient place, cited: BAtlas 44 G3 unnamed bridge group (Via Appia from Caudium to Beneventum)",
    "estimatedTemporal": true
  },
  {
    "id": "pleiades:434140",
    "type": "bridge",
    "name": "Bridge W of Pagus Meflanus",
    "lat": 41.25,
    "lng": 14.75,
    "startYear": -200,
    "endYear": 500,
    "source": "Pleiades",
    "category": "infrastructure",
    "description": "An ancient place, cited: BAtlas 44 G3 unnamed bridge (Via Traiana bridge over Calor, E Beneventum)",
    "estimatedTemporal": true
  },
  {
    "id": "pleiades:442727",
    "type": "bridge",
    "name": "Pons Aufidi",
    "lat": 41.01968919778756,
    "lng": 15.554294952028346,
    "startYear": -200,
    "endYear": 500,
    "source": "Pleiades",
    "category": "infrastructure",
    "qid": "Q51948",
    "description": "A Roman bridge (and possibly coincident road station) on the Via Appia over the Aufidus (modern Ofanto) river in Italy, listed on the Peutinger map and in the Antonine Itinerary. Traditionally it has been identified with a bridge known today as Ponte S. Venere, but recently archaeological work has cast doubt on this view and some scholars now favor an identification with the Ponte romano Pietra dell'Oglio, which lies about 15 miles further south and can be securely dated to the Roman period.",
    "props": { "ancientName": "Ponte Aufidi" },
    "estimatedTemporal": true
  },
  {
    "id": "pleiades:50864838",
    "type": "bridge",
    "name": "Ponte Nomentano",
    "lat": 41.9336012,
    "lng": 12.532485300000001,
    "startYear": -200,
    "endYear": 500,
    "source": "Pleiades",
    "category": "infrastructure",
    "qid": "Q1351222",
    "description": "A Roman bridge over the Aniene river.",
    "props": { "ancientName": "Ponte Nomentano" },
    "estimatedTemporal": true
  },
  {
    "id": "pleiades:567970829",
    "type": "bridge",
    "name": "Ponte Molino",
    "lat": 45.4116765,
    "lng": 11.873766,
    "startYear": -200,
    "endYear": 500,
    "source": "Pleiades",
    "category": "infrastructure",
    "qid": "Q474747",
    "description": "A Roman segmental arch bridge across the Bacchiglione river in Padua, Italy.",
    "props": { "ancientName": "Ponte Molino" },
    "estimatedTemporal": true
  },
  {
    "id": "pleiades:567970830",
    "type": "bridge",
    "name": "Ponte di San Lorenzo",
    "lat": 45.40611245,
    "lng": 11.87782705,
    "startYear": -200,
    "endYear": 500,
    "source": "Pleiades",
    "category": "infrastructure",
    "qid": "Q2103738",
    "description": "An early segmental arch bridge, built between 47 and 30 B.C.",
    "estimatedTemporal": true
  },
  {
    "id": "pleiades:532772123",
    "type": "bridge",
    "name": "Ponte Corvo",
    "lat": 45.40186475,
    "lng": 11.88366745,
    "startYear": -200,
    "endYear": 500,
    "source": "Pleiades",
    "category": "infrastructure",
    "qid": "Q1428534",
    "description": "A Roman segmental arch bridge across the Bacchiglione river in Padua, Italy.",
    "estimatedTemporal": true
  },
  {
    "id": "pleiades:765102512",
    "type": "bridge",
    "name": "bridgehead west",
    "lat": 55.025069,
    "lng": -2.1356652,
    "startYear": -200,
    "endYear": 500,
    "source": "Pleiades",
    "category": "infrastructure",
    "qid": "Q5093849",
    "description": "Ancient bridgehead west of Milecastle 27 (Hadrian's Wall), providing link to Cilurnum.",
    "props": { "ancientName": "Chesters Roman bridge" },
    "estimatedTemporal": true
  },
  {
    "id": "pleiades:56387635",
    "type": "bridge",
    "name": "Puentecillas",
    "lat": 42.010129198598825,
    "lng": -4.539550236937216,
    "startYear": -200,
    "endYear": 500,
    "source": "Pleiades",
    "category": "infrastructure",
    "description": "A bridge of the sixteenth century that rests on Roman foundations.",
    "estimatedTemporal": true
  },
  {
    "id": "pleiades:411767088",
    "type": "bridge",
    "name": "Ponte Gobbo",
    "lat": 44.76715873199541,
    "lng": 9.390833746732293,
    "startYear": -200,
    "endYear": 500,
    "source": "Pleiades",
    "category": "infrastructure",
    "qid": "Q844241",
    "description": "A Medieval bridge across the river Trebia that is said to have Roman origins.",
    "estimatedTemporal": true
  },
  {
    "id": "pleiades:958331561",
    "type": "bridge",
    "name": "Porta Neola",
    "lat": 41.9234958,
    "lng": 12.7611468,
    "startYear": -200,
    "endYear": 500,
    "source": "Pleiades",
    "category": "infrastructure",
    "qid": "Q131909955",
    "description": "A Roman bridge located in the Colle Merulino near Tivoli, Italy.",
    "estimatedTemporal": true
  },
  {
    "id": "pleiades:7283642",
    "type": "bridge",
    "name": "Ancient bridge on Via Egnatia at modern Arisvi",
    "lat": 41.0527727,
    "lng": 25.618715,
    "startYear": -200,
    "endYear": 500,
    "source": "Pleiades",
    "category": "infrastructure",
    "description": "An ancient bridge was reported at modern Arisvi, crossing the river Lissos, in documents in the general state archive of Komotini 1945-1961, which still seems to be known to local community and described as Roman. A modern bridge stands in its place today.",
    "estimatedTemporal": true
  },
  {
    "id": "pleiades:857761",
    "type": "bridge",
    "name": "Bridge S of Pteria",
    "lat": 41.254944,
    "lng": 35.262719,
    "startYear": -200,
    "endYear": 500,
    "source": "Pleiades",
    "category": "infrastructure",
    "description": "An ancient place, cited: BAtlas 87 A3 unnamed bridge (NW Andrapa, over Halys fl.)",
    "estimatedTemporal": true
  },
  {
    "id": "pleiades:857762",
    "type": "bridge",
    "name": "Bridge S of Chadisia",
    "lat": 41.1802622,
    "lng": 36.7190803,
    "startYear": -200,
    "endYear": 500,
    "source": "Pleiades",
    "category": "infrastructure",
    "description": "An ancient place, cited: BAtlas 87 B4 unnamed bridge (Eupatoria, over Iris)",
    "estimatedTemporal": true
  },
  {
    "id": "pleiades:857763",
    "type": "bridge",
    "name": "Bridge at Eupatoria",
    "lat": 40.5,
    "lng": 36.5,
    "startYear": -200,
    "endYear": 500,
    "source": "Pleiades",
    "category": "infrastructure",
    "description": "An ancient place, cited: BAtlas 87 B4 unnamed bridge (SE Eupatoria)",
    "estimatedTemporal": true
  },
  {
    "id": "pleiades:857764",
    "type": "bridge",
    "name": "Bridge at Eupatoria",
    "lat": 40.5,
    "lng": 36.5,
    "startYear": -200,
    "endYear": 500,
    "source": "Pleiades",
    "category": "infrastructure",
    "description": "An ancient place, cited: BAtlas 87 B4 unnamed bridge (1 mile S Mirones)",
    "estimatedTemporal": true
  },
  {
    "id": "pleiades:857765",
    "type": "bridge",
    "name": "Bridge at Eupatoria",
    "lat": 40.5,
    "lng": 36.5,
    "startYear": -200,
    "endYear": 500,
    "source": "Pleiades",
    "category": "infrastructure",
    "description": "An ancient place, cited: BAtlas 87 B4 unnamed bridge (Talaz K\u00f6pr\u00fcs\u00fc, W Kabeira)",
    "estimatedTemporal": true
  },
  {
    "id": "pleiades:857766",
    "type": "bridge",
    "name": "Bridge at Eupatoria",
    "lat": 40.5,
    "lng": 36.5,
    "startYear": -200,
    "endYear": 500,
    "source": "Pleiades",
    "category": "infrastructure",
    "description": "An ancient place, cited: BAtlas 87 B4 unnamed bridge (Kad\u0131k\u00f6pr\u00fcs\u00fc, 2 miles E Gagonda, now under dam lake)",
    "estimatedTemporal": true
  },
  {
    "id": "pleiades:857767",
    "type": "bridge",
    "name": "Bridge at Eupatoria",
    "lat": 40.5,
    "lng": 36.5,
    "startYear": -200,
    "endYear": 500,
    "source": "Pleiades",
    "category": "infrastructure",
    "description": "An ancient place, cited: BAtlas 87 B4 unnamed bridge (N Gazioura)",
    "estimatedTemporal": true
  },
  {
    "id": "pleiades:857768",
    "type": "bridge",
    "name": "Bridge at Eupatoria",
    "lat": 40.5,
    "lng": 36.5,
    "startYear": -200,
    "endYear": 500,
    "source": "Pleiades",
    "category": "infrastructure",
    "description": "An ancient place, cited: BAtlas 87 B4 unnamed bridge (\u00c7er\u00e7i, 9 miles W Dazimon)",
    "estimatedTemporal": true
  },
  {
    "id": "pleiades:857769",
    "type": "bridge",
    "name": "Bridge (41.50, 38.50)",
    "lat": 41.5,
    "lng": 38.5,
    "startYear": -200,
    "endYear": 500,
    "source": "Pleiades",
    "category": "infrastructure",
    "description": "An ancient place, cited: BAtlas 87 D3 unnamed bridge (K\u00fcnd\u00fcr K\u00f6pr\u00fcs\u00fc, 6 miles E Re\u015fadiye)",
    "estimatedTemporal": true
  },
  {
    "id": "pleiades:857770",
    "type": "bridge",
    "name": "Bridge S of Dasteira",
    "lat": 40.09408,
    "lng": 38.19463,
    "startYear": -200,
    "endYear": 500,
    "source": "Pleiades",
    "category": "infrastructure",
    "description": "An ancient place, cited: BAtlas 87 D4 unnamed bridge (S Dasteira)",
    "estimatedTemporal": true
  },
  {
    "id": "pleiades:857771",
    "type": "bridge",
    "name": "Bridge E of Tzantzakon",
    "lat": 40.5,
    "lng": 39.5,
    "startYear": -200,
    "endYear": 500,
    "source": "Pleiades",
    "category": "infrastructure",
    "description": "An ancient place, cited: BAtlas 87 E4 unnamed bridge (between Ad Vincesimum and Trapezus)",
    "estimatedTemporal": true
  },
  {
    "id": "pleiades:857772",
    "type": "bridge",
    "name": "unnamed ancient bridge located",
    "lat": 40.5,
    "lng": 39.5,
    "startYear": -200,
    "endYear": 500,
    "source": "Pleiades",
    "category": "infrastructure",
    "description": "An unnamed ancient bridge located at Ba\u011fdar K\u00f6pr\u00fcsu, to the west of Longini Fossatum according to the Barrington Atlas.",
    "estimatedTemporal": true
  },
  {
    "id": "pleiades:607714945",
    "type": "bridge",
    "name": "Piercebridge Roman Bridge",
    "lat": 54.53531983164754,
    "lng": -1.6705280276450756,
    "startYear": -200,
    "endYear": 500,
    "source": "Pleiades",
    "category": "infrastructure",
    "qid": "Q7191840",
    "description": "A Roman bridge that carried Dere Street across the River Tees in northern England.",
    "estimatedTemporal": true
  },
  {
    "id": "pleiades:208942144",
    "type": "bridge",
    "name": "Unnamed group of bridges over R. Zadorra, north of Bele(g)ia",
    "lat": 42.858309950000006,
    "lng": -2.7231852,
    "startYear": -200,
    "endYear": 500,
    "source": "Pleiades",
    "category": "infrastructure",
    "description": "An ancient place, cited: BAtlas 25 C3 unnamed bridge group (Trespuentes over R. Zadorra, N Bele(g)ia)",
    "estimatedTemporal": true
  },
  {
    "id": "pleiades:208942265",
    "type": "bridge",
    "name": "Bridge near Ad Duodecimum",
    "lat": 41.030071,
    "lng": 24.070463,
    "startYear": -200,
    "endYear": 500,
    "source": "Pleiades",
    "category": "infrastructure",
    "description": "An ancient place, cited: BAtlas 51 C2 unnamed bridge group (SW Ad Duodecimum, near Symvoli)",
    "estimatedTemporal": true
  },
  {
    "id": "pleiades:208942835",
    "type": "bridge",
    "name": "Bridge at Ponte Spiano",
    "lat": 43.333301,
    "lng": 12.721115,
    "startYear": -200,
    "endYear": 500,
    "source": "Pleiades",
    "category": "infrastructure",
    "description": "An ancient place, cited: BAtlas 42 D1-C4 unnamed bridge (on Via Flaminia (20))",
    "estimatedTemporal": true
  },
  {
    "id": "pleiades:208942836",
    "type": "bridge",
    "name": "Ponte Spiano",
    "lat": 43.3379371,
    "lng": 12.7315991,
    "startYear": -200,
    "endYear": 500,
    "source": "Pleiades",
    "category": "infrastructure",
    "description": "The so-called Ponte Spiano is a Roman bridge located along the Via Flaminia in the modern comune of Sigillo.",
    "estimatedTemporal": true
  },
  {
    "id": "pleiades:208942837",
    "type": "bridge",
    "name": "Ponte Grosso",
    "lat": 43.50090741723492,
    "lng": 12.633077082118334,
    "startYear": -200,
    "endYear": 500,
    "source": "Pleiades",
    "category": "infrastructure",
    "description": "An ancient place, cited: BAtlas 42 D1-C4 unnamed bridge (on Via Flaminia (20))",
    "estimatedTemporal": true
  },
  {
    "id": "pleiades:208942838",
    "type": "bridge",
    "name": "Ponte Manlio",
    "lat": 43.5509864,
    "lng": 12.6507458,
    "startYear": -200,
    "endYear": 500,
    "source": "Pleiades",
    "category": "infrastructure",
    "description": "The Roman bridge known as \"Ponte Manlio\" carried the Via Flaminia across the Bosso torrent, whose main channel is now some hundreds of meters to the south. This is a well-preserved Roman vaulted arch bridge that dates to the second century B.C.",
    "estimatedTemporal": true
  },
  {
    "id": "pleiades:208942839",
    "type": "bridge",
    "name": "Bridge near Pitinum Mergens",
    "lat": 43.586198,
    "lng": 12.676511,
    "startYear": -200,
    "endYear": 500,
    "source": "Pleiades",
    "category": "infrastructure",
    "description": "An ancient place, cited: BAtlas 42 D1-C4 unnamed bridge (on Via Flaminia (20))",
    "estimatedTemporal": true
  },
  {
    "id": "pleiades:208942840",
    "type": "bridge",
    "name": "Bridge at Colombara",
    "lat": 43.619141,
    "lng": 12.6782,
    "startYear": -200,
    "endYear": 500,
    "source": "Pleiades",
    "category": "infrastructure",
    "description": "An ancient place, cited: BAtlas 42 D1-C4 unnamed bridge (on Via Flaminia (20))",
    "estimatedTemporal": true
  },
  {
    "id": "pleiades:208942841",
    "type": "bridge",
    "name": "Bridge at Ponte Trajano",
    "lat": 43.672531,
    "lng": 12.752462,
    "startYear": -200,
    "endYear": 500,
    "source": "Pleiades",
    "category": "infrastructure",
    "description": "An ancient place, cited: BAtlas 42 D1-C4 unnamed bridge (on Via Flaminia (20))",
    "estimatedTemporal": true
  },
  {
    "id": "pleiades:208942842",
    "type": "bridge",
    "name": "Bridge at Ponte di Diocleziano",
    "lat": 43.678181,
    "lng": 12.777484,
    "startYear": -200,
    "endYear": 500,
    "source": "Pleiades",
    "category": "infrastructure",
    "description": "An ancient place, cited: BAtlas 42 D1-C4 unnamed bridge (on Via Flaminia (20))",
    "estimatedTemporal": true
  },
  {
    "id": "pleiades:208942843",
    "type": "bridge",
    "name": "Bridge at Ponte Caldaro",
    "lat": 42.567293,
    "lng": 12.535463,
    "startYear": -200,
    "endYear": 500,
    "source": "Pleiades",
    "category": "infrastructure",
    "description": "An ancient place, cited: BAtlas 42 D1-C4 unnamed bridge (on Via Flaminia (20))",
    "estimatedTemporal": true
  },
  {
    "id": "pleiades:208942844",
    "type": "bridge",
    "name": "Bridge at Ponte Fondaia",
    "lat": 42.707563,
    "lng": 12.553036,
    "startYear": -200,
    "endYear": 500,
    "source": "Pleiades",
    "category": "infrastructure",
    "description": "An ancient place, cited: BAtlas 42 D1-C4 unnamed bridge (on Via Flaminia (20))",
    "estimatedTemporal": true
  },
  {
    "id": "pleiades:208942845",
    "type": "bridge",
    "name": "Ponte del Toro",
    "lat": 42.5535438,
    "lng": 12.70473475,
    "startYear": -200,
    "endYear": 500,
    "source": "Pleiades",
    "category": "infrastructure",
    "description": "A Roman arched bridge on the Via Flaminia near modern Terni.",
    "props": { "ancientName": "Ponte del Toro" },
    "estimatedTemporal": true
  },
  {
    "id": "pleiades:208942846",
    "type": "bridge",
    "name": "Ponte di Augusto",
    "lat": 42.52503897893899,
    "lng": 12.51451819736712,
    "startYear": -200,
    "endYear": 500,
    "source": "Pleiades",
    "category": "infrastructure",
    "qid": "Q2103779",
    "description": "A Roman arched bridge located near Narni built originally in the Augustan period that remained in use until A.D. 1055.",
    "props": { "ancientName": "Ponte di Augusto" },
    "estimatedTemporal": true
  },
  {
    "id": "pleiades:208942847",
    "type": "bridge",
    "name": "Ponte Calamone ",
    "lat": 42.5489654,
    "lng": 12.528505099999999,
    "startYear": -200,
    "endYear": 500,
    "source": "Pleiades",
    "category": "infrastructure",
    "description": "A Roman bridge near Narnia that was built over the river Nera ca. 27 B.C.",
    "estimatedTemporal": true
  },
  {
    "id": "pleiades:208942848",
    "type": "bridge",
    "name": "Ponte Fonnaia",
    "lat": 42.717784222939166,
    "lng": 12.543182340455147,
    "startYear": -200,
    "endYear": 500,
    "source": "Pleiades",
    "category": "infrastructure",
    "qid": "Q28923250",
    "description": "The Roman bridge at Ponte Fonnaia carried a branch of the Via Flaminia over the river Naia. It is located north of modern Acquasparta in Umbria.",
    "estimatedTemporal": true
  },
  {
    "id": "pleiades:208942849",
    "type": "bridge",
    "name": "Ponte di San Giovanni de Butris",
    "lat": 42.6801049,
    "lng": 12.5510371,
    "startYear": -200,
    "endYear": 500,
    "source": "Pleiades",
    "category": "infrastructure",
    "description": "The remains of a Roman bridge along the Via Flaminia that have been incorporated into the thirteenth-century church of San Giovanni de Butris.",
    "estimatedTemporal": true
  },
  {
    "id": "pleiades:208943032",
    "type": "bridge",
    "name": "Bridge near Antiochia",
    "lat": 38.318816,
    "lng": 31.205786,
    "startYear": -200,
    "endYear": 500,
    "source": "Pleiades",
    "category": "infrastructure",
    "description": "An ancient place, cited: BAtlas 62 F5 unnamed bridge (three in aqueduct NE Antiochia)",
    "estimatedTemporal": true
  },
  {
    "id": "pleiades:208943033",
    "type": "bridge",
    "name": "Bridge near Antiochia",
    "lat": 38.321523,
    "lng": 31.217773,
    "startYear": -200,
    "endYear": 500,
    "source": "Pleiades",
    "category": "infrastructure",
    "description": "An ancient place, cited: BAtlas 62 F5 unnamed bridge (three in aqueduct NE Antiochia)",
    "estimatedTemporal": true
  },
  {
    "id": "pleiades:433411640",
    "type": "bridge",
    "name": "bridge located",
    "lat": 41.8167337,
    "lng": 12.4145379,
    "startYear": -200,
    "endYear": 500,
    "source": "Pleiades",
    "category": "infrastructure",
    "description": "A Roman bridge located in the Parco dei Medici near Rome, Italy.",
    "estimatedTemporal": true
  },
  {
    "id": "pleiades:431699813",
    "type": "bridge",
    "name": "Selciatella Roman bridge",
    "lat": 41.9010819,
    "lng": 12.7994379,
    "startYear": -200,
    "endYear": 500,
    "source": "Pleiades",
    "category": "infrastructure",
    "qid": "Q139622813",
    "description": "Ponte della Selciatella, a Roman-period bridge crossing the Fosso di Acqua Rossa in San Vittorino, Lazio, Italy.",
    "props": { "ancientName": "Ponte della Selciatella" },
    "estimatedTemporal": true
  },
  {
    "id": "pleiades:659874",
    "type": "bridge",
    "name": "Bridge W of Anazarbos",
    "lat": 37.25,
    "lng": 35.75,
    "startYear": -200,
    "endYear": 500,
    "source": "Pleiades",
    "category": "infrastructure",
    "description": "An ancient place, cited: BAtlas 67 B2 unnamed bridge (E Anazarbos)",
    "estimatedTemporal": true
  },
  {
    "id": "pleiades:659875",
    "type": "bridge",
    "name": "Bridge W of Anazarbos",
    "lat": 37.25,
    "lng": 35.75,
    "startYear": -200,
    "endYear": 500,
    "source": "Pleiades",
    "category": "infrastructure",
    "description": "An ancient place, cited: BAtlas 67 B2 unnamed bridge (S Anazarbos)",
    "estimatedTemporal": true
  },