[{"id":"pleiades:267272","type":"bridge","name":"Unnamed bridge at Isturgi on the Guadalquivir river","lat":38.0330123,"lng":-4.0614776,"startYear":0,"endYear":0,"source":"Pleiades","category":"infrastructure","qid":"Q97630143","description":"Its ancient name is unknown.","props":{"ancientName":"Puente romano de Andújar"}},{"id":"pleiades:267273","type":"bridge","name":"Puente sobre el Arroyo Rabanales","lat":37.902847,"lng":-4.732364,"startYear":0,"endYear":0,"source":"Pleiades","category":"infrastructure","description":"A bridge, originally of Roman date, over the modern Arroyo Rabanales (a tributary of the Guadalquivir) just east of Cordoba, Spain. The bridge was in use as late as the 1920s."},{"id":"pleiades:267274","type":"bridge","name":"Untitled","lat":37.5,"lng":-4.5,"startYear":0,"endYear":0,"source":"Pleiades","category":"infrastructure","description":"An ancient place, cited: BAtlas 27 A4 unnamed bridge (Ad Decumum on R. Guadalmellato)"},{"id":"pleiades:267275","type":"bridge","name":"Untitled","lat":37.5,"lng":-4.5,"startYear":0,"endYear":0,"source":"Pleiades","category":"infrastructure","description":"An ancient place, cited: BAtlas 27 A4 unnamed bridge (Campillo Bajo on R. Guadalquivir)"},{"id":"pleiades:267276","type":"bridge","name":"Villa del Río Roman Bridge","lat":37.98719284487926,"lng":-4.271617220391354,"startYear":0,"endYear":0,"source":"Pleiades","category":"infrastructure","description":"A Roman bridge over the Arroyo Salado de Porcuna, located just east of modern Villa del Río in Spain's Cordoba province."},{"id":"pleiades:267277","type":"bridge","name":"Puente de Cañete","lat":37.8784531,"lng":-4.2135188,"startYear":0,"endYear":0,"source":"Pleiades","category":"infrastructure","qid":"Q108337284","description":"The remains of a Roman bridge known locally as Puente Viejo or Puente de Cañete lying one mile west west of Obulco on the Arroyo Salado. The bridge may have been associated with a conjectured secondary Roman road or route between Corduba and Catulo because although unmentioned in the Antonine Itinerary, the bridge's location lies between two mentioned stations: Calpurniana and Vircao."},{"id":"pleiades:267278","type":"bridge","name":"Untitled","lat":39.726715,"lng":-3.929833,"startYear":0,"endYear":0,"source":"Pleiades","category":"infrastructure","description":"An ancient place, cited: BAtlas 27 B2 unnamed bridge (Orgaz, SE Toledo)"},{"id":"pleiades:267279","type":"bridge","name":"Unnamed Bridge","lat":37.59907341189635,"lng":-4.670408684201695,"startYear":0,"endYear":0,"source":"Pleiades","category":"infrastructure","description":"This archaeologically attested Roman bridge was located east of Salaria on the Guadalquivir River."},{"id":"pleiades:267280","type":"bridge","name":"Untitled","lat":37.5,"lng":-3.5,"startYear":0,"endYear":0,"source":"Pleiades","category":"infrastructure","description":"An ancient place, cited: BAtlas 27 B4 unnamed bridge (NW Calecula)"},{"id":"pleiades:267281","type":"bridge","name":"Untitled","lat":39.8846041,"lng":-2.2654996,"startYear":0,"endYear":0,"source":"Pleiades","category":"infrastructure","description":"An ancient place, cited: BAtlas 27 C2 unnamed bridge (El Castellar, NW Valeria)"},{"id":"pleiades:267282","type":"bridge","name":"Untitled","lat":39.4090773,"lng":-2.4159727,"startYear":0,"endYear":0,"source":"Pleiades","category":"infrastructure","description":"An ancient place, cited: BAtlas 27 C2 unnamed bridge (S. Clemente on R. Rus, SW Valeria)"},{"id":"pleiades:267283","type":"bridge","name":"Puente Mocho (Río Guadalimar)","lat":38.279861,"lng":-2.9638124,"startYear":0,"endYear":0,"source":"Pleiades","category":"infrastructure","qid":"Q6091223","description":"A Roman bridge located between Chiclana and Beas de Segura, S Mariana."},{"id":"pleiades:267284","type":"bridge","name":"Puente de Génave Roman Bridge","lat":38.35542585,"lng":-2.8031491500000003,"startYear":0,"endYear":0,"source":"Pleiades","category":"infrastructure","qid":"Q97632198","description":"Known locally as the Puente Romano or Puente Viejo, this single-arched bridge crosses the modern Río Guadalimar at Puente de Génave in Andalusia, Spain."},{"id":"pleiades:267285","type":"bridge","name":"Untitled","lat":37.929107,"lng":-2.952102,"startYear":0,"endYear":0,"source":"Pleiades","category":"infrastructure","description":"An ancient place, cited: BAtlas 27 C4 unnamed bridge (W Tugia, Las Herrerías, Cazorla on R. Guadalquivir)"},{"id":"pleiades:296717","type":"bridge","name":"Untitled","lat":36.532654,"lng":1.691148,"startYear":0,"endYear":0,"source":"Pleiades","category":"infrastructure","description":"An ancient place, cited: BAtlas 30 C3 unnamed bridge (S Cartili, Oued Damous)"},{"id":"pleiades:296718","type":"bridge","name":"Unnamed bridges (west of Iol Caesarea)","lat":36.599367101229554,"lng":2.183035622598022,"startYear":0,"endYear":0,"source":"Pleiades","category":"infrastructure","description":"A pair of bridges located west of Iol Caesarea, spanning the Oued el Kantara and Oued Rassoul (marked with one symbol on BAtlas)."},{"id":"pleiades:296719","type":"bridge","name":"Untitled","lat":36.424197,"lng":2.379871,"startYear":0,"endYear":0,"source":"Pleiades","category":"infrastructure","description":"An ancient place, cited: BAtlas 30 D4 unnamed bridge (N Sidi Aissa, Sidi-Salah)"},{"id":"pleiades:296720","type":"bridge","name":"Untitled","lat":36.774437,"lng":3.250637,"startYear":0,"endYear":0,"source":"Pleiades","category":"infrastructure","description":"An ancient place, cited: BAtlas 30 F3 unnamed bridge (S Rusguniae (2): el Kounitra and Oued el Hamiz)"},{"id":"pleiades:296721","type":"bridge","name":"Untitled","lat":36.761713,"lng":3.773258,"startYear":0,"endYear":0,"source":"Pleiades","category":"infrastructure","description":"An ancient place, cited: BAtlas 30 G3 unnamed bridge (near Castellum Tulei, Oued Chender)"},{"id":"pleiades:176421766","type":"bridge","name":"Ponte di Pratolungo","lat":41.93280479185253,"lng":12.593725228849921,"startYear":0,"endYear":0,"source":"Pleiades","category":"infrastructure","description":"Remains of a Roman Republican bridge crossing the Fosso di Pratolungo along the line of the via Tiburtina."},{"id":"pleiades:135082913","type":"bridge","name":"Unnamed Roman bridge","lat":41.67016599508885,"lng":13.68296945718162,"startYear":0,"endYear":0,"source":"Pleiades","category":"infrastructure","description":"An Unnamed Roman bridge that spans the Rio di Fontechiari."},{"id":"pleiades:663875862","type":"bridge","name":"San Giuliano Roman bridge","lat":41.6336248,"lng":13.7989589,"startYear":0,"endYear":0,"source":"Pleiades","category":"infrastructure","description":"A Roman bridge crossing the Melfa river in Lazio, Italy."},{"id":"pleiades:148202","type":"bridge","name":"Sextantio","lat":43.64232,"lng":3.896373,"startYear":0,"endYear":0,"source":"Pleiades","category":"infrastructure","qid":"Q11949612","description":"Sextantio was a Celtic settlement at a ford on the Ledus fl. and later became a Gallo-Roman town.","props":{"ancientName":"Sextantio"}},{"id":"pleiades:149492","type":"bridge","name":"Pont d'Ambroix","lat":43.7172164,"lng":4.151942549999999,"startYear":0,"endYear":0,"source":"Pleiades","category":"infrastructure","description":"A bridge over the Vidourle and road station on the Via Domitia."},{"id":"pleiades:149493","type":"bridge","name":"Roman Bridge at Villevieille, Sommières","lat":43.78223547231463,"lng":4.088960991551396,"startYear":0,"endYear":0,"source":"Pleiades","category":"infrastructure","description":"The so-called \"Pont Tibère\" in the modern French commune of Villevieille, in Sommières canton, France. Its ancient name is unknown."},{"id":"pleiades:149494","type":"bridge","name":"Roman Bridge at Moulin de Boisseron","lat":43.761684149999994,"lng":4.08143775,"startYear":0,"endYear":0,"source":"Pleiades","category":"infrastructure","description":"Ancient name unknown. Located in modern Boisseron, France."},{"id":"pleiades:149495","type":"bridge","name":"Nages Roman Bridge","lat":43.7914388,"lng":4.2109259,"startYear":0,"endYear":0,"source":"Pleiades","category":"infrastructure","description":"An unnamed Roman bridge over the modern river Rhôny. It is located in the modern Nages-et-Solorgues commune in France's Gard department."},{"id":"pleiades:149497","type":"bridge","name":"Untitled","lat":43.681847,"lng":4.626751,"startYear":0,"endYear":0,"source":"Pleiades","category":"infrastructure","description":"An ancient place, cited: BAtlas 15 D2 unnamed bridge (Col. Arelate (pontoon bridge))"},{"id":"pleiades:149498","type":"bridge","name":"Vaison-la-Romaine Roman Bridge","lat":44.23891185,"lng":5.07466205,"startYear":0,"endYear":0,"source":"Pleiades","category":"infrastructure","qid":"Q2179572","description":"The Roman bridge at Vaison-la-Romaine is supposedly dated to the first century CE."},{"id":"pleiades:149499","type":"bridge","name":"Pont Flavien","lat":43.54065216666667,"lng":5.043846299999999,"startYear":0,"endYear":0,"source":"Pleiades","category":"infrastructure","qid":"Q2103625","description":"A Roman bridge that carries the Via Julia Augusta across the Touloubre river."},{"id":"pleiades:149500","type":"bridge","name":"Pont Julien","lat":43.86272390133762,"lng":5.306486299795836,"startYear":0,"endYear":0,"source":"Pleiades","category":"infrastructure","qid":"Q1780937","description":"A bridge that spans the river known as the Cavalon (French), once part of the Via Domitia."},{"id":"pleiades:855536858","type":"bridge","name":"Roman bridge at Ascain","lat":43.35023220304213,"lng":-1.621914323384264,"startYear":0,"endYear":0,"source":"Pleiades","category":"infrastructure","description":"A fifth-century Roman bridge over the river Nivelle at Ascain in France."},{"id":"pleiades:631631547","type":"bridge","name":"Handere bridge","lat":39.23274939717021,"lng":38.273133718820375,"startYear":0,"endYear":0,"source":"Pleiades","category":"infrastructure","description":"A bridge on the road from to Egin and Harput."},{"id":"pleiades:613488678","type":"bridge","name":"Cobos Roman bridge","lat":40.5716404,"lng":-4.8989371,"startYear":0,"endYear":0,"source":"Pleiades","category":"infrastructure","qid":"Q6091545","description":"A bridge with Roman origins across the río Adaja."},{"id":"pleiades:100447491","type":"bridge","name":"Pons Neronianus","lat":41.901,"lng":12.4641,"startYear":0,"endYear":0,"source":"Pleiades","category":"infrastructure","qid":"Q1902995","description":"A bridge across the Tiber river built either by Caius or Nero in order to connect the western part of the Campus Martius with the Campus Vaticanus."},{"id":"pleiades:385053","type":"bridge","name":"Unnamed bridge at Lévérogne","lat":45.7024174,"lng":7.2074956,"startYear":0,"endYear":0,"source":"Pleiades","category":"infrastructure","description":"According to the Barrington Atlas directory, an ancient group of bridges crossing the river Duria (Bautica) is found at Villeneuve/Leverogne to the west of Aosta."},{"id":"pleiades:385054","type":"bridge","name":"Roman Bridge of Châtillon","lat":45.7480008,"lng":7.6108771,"startYear":0,"endYear":0,"source":"Pleiades","category":"infrastructure","description":"A Roman bridge over the Torrente Marmore at Châtillon in the Valle d'Aosta, Italy.","props":{"ancientName":"Ponte di Châtillon"}},{"id":"pleiades:385055","type":"bridge","name":"Unnamed bridge at Vitricium","lat":45.75,"lng":7.75,"startYear":0,"endYear":0,"source":"Pleiades","category":"infrastructure","description":"An ancient place, cited: BAtlas 39 B2 unnamed bridge (at Vitricium)"},{"id":"pleiades:385056","type":"bridge","name":"Pont-Saint-Martin (bridge)","lat":45.5992967,"lng":7.800099850000001,"startYear":0,"endYear":0,"source":"Pleiades","category":"infrastructure","qid":"Q1339290","description":"A Roman segmental arch bridge in the Aosta Valley in Italy that dates to the first century BC. The bridge spans 31.4 m across the Betuctelum to the NNW of Eporedia."},{"id":"pleiades:385057","type":"bridge","name":"Unnamed bridge at Bard","lat":45.611788149999995,"lng":7.7442709999999995,"startYear":0,"endYear":0,"source":"Pleiades","category":"infrastructure","description":"The so-called \"Ponte di Bard\" located at Bard, to the southeast of Vitricium."},{"id":"pleiades:385058","type":"bridge","name":"Unnamed bridge","lat":44.757596,"lng":8.833833,"startYear":0,"endYear":0,"source":"Pleiades","category":"infrastructure","description":"An unnamed bridge over the Ir(i)a fl., north of Libarna."},{"id":"pleiades:385059","type":"bridge","name":"Untitled","lat":45.75,"lng":9.25,"startYear":0,"endYear":0,"source":"Pleiades","category":"infrastructure","description":"An ancient place, cited: BAtlas 39 E2 unnamed bridge (over Addua fl. SE Monte Barro)"},{"id":"pleiades:385060","type":"bridge","name":"Untitled","lat":45.75,"lng":9.25,"startYear":0,"endYear":0,"source":"Pleiades","category":"infrastructure","description":"An ancient place, cited: BAtlas 39 E2 unnamed bridge (at Annone Brianza, SW Monte Barro)"},{"id":"pleiades:385061","type":"bridge","name":"Roman bridge at Clastidium","lat":45.011113,"lng":9.123457,"startYear":0,"endYear":0,"source":"Pleiades","category":"infrastructure","description":"An ancient place, cited: BAtlas 39 E3 unnamed bridge (at Clastidium)"},{"id":"pleiades:385062","type":"bridge","name":"Untitled","lat":45.25,"lng":9.25,"startYear":0,"endYear":0,"source":"Pleiades","category":"infrastructure","description":"An ancient place, cited: BAtlas 39 E3 unnamed bridge (over Ticinus fl., at Ticinum)"},{"id":"pleiades:385063","type":"bridge","name":"Untitled","lat":44.999293,"lng":8.998533,"startYear":0,"endYear":0,"source":"Pleiades","category":"infrastructure","description":"An ancient place, cited: BAtlas 39 E4 unnamed bridge (over Iria fl., at Iria)"},{"id":"pleiades:385064","type":"bridge","name":"Untitled","lat":45.75,"lng":9.75,"startYear":0,"endYear":0,"source":"Pleiades","category":"infrastructure","description":"An ancient place, cited: BAtlas 39 F2 unnamed bridge group (at Almenno S. Bartolomeo/Salvatore, NW Bergomum)"},{"id":"pleiades:385065","type":"bridge","name":"Unnamed bridge","lat":45.009302,"lng":9.767245,"startYear":0,"endYear":0,"source":"Pleiades","category":"infrastructure","description":"An unnamed bridge over the Nure fl., southeast of Placentia."},{"id":"pleiades:385066","type":"bridge","name":"Untitled","lat":44.75,"lng":10.25,"startYear":0,"endYear":0,"source":"Pleiades","category":"infrastructure","description":"An ancient place, cited: BAtlas 39 G4 unnamed bridge (over [Sesterrio] fl., at Fidentia)"},{"id":"pleiades:385067","type":"bridge","name":"Enza Roman Bridge","lat":44.7699767,"lng":10.42671335,"startYear":0,"endYear":0,"source":"Pleiades","category":"infrastructure","description":"An unnamed Roman bridge on the Via Aemilia over the ancient Incia river. Located near modern S. Ilario d’Enza in Italy."},{"id":"pleiades:93478894","type":"bridge","name":"Ponte Brabaciera","lat":39.7385368,"lng":9.1390874,"startYear":0,"endYear":0,"source":"Pleiades","category":"infrastructure","description":"A second-century Roman bridge on the Riu Brabaciera.","props":{"ancientName":"Ponte Romano di Rio Brabaciera"}},{"id":"pleiades:551907","type":"bridge","name":"Untitled","lat":39.75,"lng":26.25,"startYear":0,"endYear":0,"source":"Pleiades","category":"infrastructure","description":"An ancient place, cited: BAtlas 56 C2 unnamed bridge (N Smintheion)"},{"id":"pleiades:551908","type":"bridge","name":"Untitled","lat":39.160108,"lng":26.295366,"startYear":0,"endYear":0,"source":"Pleiades","category":"infrastructure","description":"An ancient place, cited: BAtlas 56 C3 unnamed bridge (near Pyrra, on Lesbos)"},{"id":"pleiades:551909","type":"bridge","name":"Untitled","lat":39.771213,"lng":27.648097,"startYear":0,"endYear":0,"source":"Pleiades","category":"infrastructure","description":"An ancient place, cited: BAtlas 56 F2 unnamed bridge (at Pericharaxis)"},{"id":"pleiades:551910","type":"bridge","name":"Unnamed bridge","lat":38.539194,"lng":27.9694445,"startYear":0,"endYear":0,"source":"Pleiades","category":"infrastructure","description":"The remains of a bridge of Byzantine or Turkish construction located northwest of Sardis."},{"id":"pleiades:551911","type":"bridge","name":"Untitled","lat":38.436382,"lng":27.534187,"startYear":0,"endYear":0,"source":"Pleiades","category":"infrastructure","description":"An ancient place, cited: BAtlas 56 F5 unnamed bridge (S Mostene?)"},{"id":"pleiades:551912","type":"bridge","name":"Untitled","lat":39.853624,"lng":28.189246,"startYear":0,"endYear":0,"source":"Pleiades","category":"infrastructure","description":"An ancient place, cited: BAtlas 56 G2 unnamed bridge (NE Laneion)"},{"id":"pleiades:551913","type":"bridge","name":"Untitled","lat":38.543328,"lng":28.289624,"startYear":0,"endYear":0,"source":"Pleiades","category":"infrastructure","description":"An ancient place, cited: BAtlas 56 G4 unnamed bridge (near Satala)"},{"id":"pleiades:317667991","type":"bridge","name":"Ponte Valentino","lat":41.145533424695245,"lng":14.830154775294343,"startYear":0,"endYear":0,"source":"Pleiades","category":"infrastructure","qid":"Q3908039","description":"A Roman bridge located east of Benevento, Italy, and built by Flavius Iulius Valens."},{"id":"pleiades:844957","type":"bridge","name":"Iustiniani Pons","lat":40.73734065,"lng":30.372651675,"startYear":0,"endYear":0,"source":"Pleiades","category":"infrastructure","qid":"Q144629","description":"The Bridge of Justinian or Sangarius Bridge is a Late Roman bridge built by the emperor Justinian I across the Sangarius river. The bridge's original span was ca. 430 m.","props":{"ancientName":"Iustiniani Pons"}},{"id":"pleiades:845084","type":"bridge","name":"Tios/Tieion","lat":41.571174366755656,"lng":32.03150953999192,"startYear":0,"endYear":0,"source":"Pleiades","category":"infrastructure","description":"An ancient place, cited: BAtlas 86 C2 Tios/Tieion","props":{"ancientName":"Tios"}},{"id":"pleiades:846357","type":"bridge","name":"Untitled","lat":40.5,"lng":31.5,"startYear":0,"endYear":0,"source":"Pleiades","category":"infrastructure","description":"An ancient place, cited: BAtlas 86 B3 unnamed bridge (Iuliopolis)"},{"id":"pleiades:846358","type":"bridge","name":"Untitled","lat":40.5,"lng":31.5,"startYear":0,"endYear":0,"source":"Pleiades","category":"infrastructure","description":"An ancient place, cited: BAtlas 86 B3 unnamed bridge (Prusias ad Hypium)"},{"id":"pleiades:846359","type":"bridge","name":"Untitled","lat":40.5,"lng":31.5,"startYear":0,"endYear":0,"source":"Pleiades","category":"infrastructure","description":"An ancient place, cited: BAtlas 86 B3 unnamed bridge (on Siberis fl., near *Hieronpotamon)"},{"id":"pleiades:846360","type":"bridge","name":"Untitled","lat":41.5,"lng":32.5,"startYear":0,"endYear":0,"source":"Pleiades","category":"infrastructure","description":"An ancient place, cited: BAtlas 86 C2 unnamed bridge (SE Tieion at Derecikören)"},{"id":"pleiades:619857","type":"bridge","name":"Untitled","lat":39.418769,"lng":33.384496,"startYear":0,"endYear":0,"source":"Pleiades","category":"infrastructure","description":"An ancient place, cited: BAtlas 63 C2 unnamed bridge (Kesik Köprü)"},{"id":"pleiades:619858","type":"bridge","name":"Untitled","lat":38.840066,"lng":35.173168,"startYear":0,"endYear":0,"source":"Pleiades","category":"infrastructure","description":"An ancient place, cited: BAtlas 63 G3 unnamed bridge (Çokgözköprü)"},{"id":"pleiades:629672","type":"bridge","name":"Unnamed bridge","lat":39.75,"lng":36.25,"startYear":0,"endYear":0,"source":"Pleiades","category":"infrastructure","description":"An ancient place, cited: BAtlas 64 C1 no. 1 (at Sebastopolis over Çekerek Irmak (Skylax fl.))"},{"id":"pleiades:629673","type":"bridge","name":"Unnamed bridge","lat":39.75,"lng":36.75,"startYear":0,"endYear":0,"source":"Pleiades","category":"infrastructure","description":"An ancient place, cited: BAtlas 64 D1 no. 2 (12 miles WNW Sivas at Yıldızırmak)"},{"id":"pleiades:629674","type":"bridge","name":"Unnamed bridge","lat":39.25,"lng":37.75,"startYear":0,"endYear":0,"source":"Pleiades","category":"infrastructure","description":"An ancient place, cited: BAtlas 64 F2 no. 3 (NW Arane at Koç Köprüsü)"},{"id":"pleiades:629675","type":"bridge","name":"Unnamed bridge","lat":39.25,"lng":38.25,"startYear":0,"endYear":0,"source":"Pleiades","category":"infrastructure","description":"An ancient place, cited: BAtlas 64 G2 no. 4 (SW Zimara at Burmahan on Çaltı Çay)"},{"id":"pleiades:629676","type":"bridge","name":"Unnamed bridge","lat":39.75,"lng":38.75,"startYear":0,"endYear":0,"source":"Pleiades","category":"infrastructure","description":"An ancient place, cited: BAtlas 64 H1 no. 5 (SW Analib(l)a over Karabudak (Sabrina fl.))"},{"id":"pleiades:629677","type":"bridge","name":"Unnamed bridge","lat":39.75,"lng":38.75,"startYear":0,"endYear":0,"source":"Pleiades","category":"infrastructure","description":"An ancient place, cited: BAtlas 64 H1 no. 6 (S Charax?)"},{"id":"pleiades:629678","type":"bridge","name":"Unnamed bridge","lat":37.6056811,"lng":35.5849343,"startYear":0,"endYear":0,"source":"Pleiades","category":"infrastructure","description":"An ancient place, cited: BAtlas 64 C4 no. 7 (6 miles E Comana at Kemer over Saros fl.)"},{"id":"pleiades:629679","type":"bridge","name":"Unnamed bridge","lat":38.25,"lng":37.25,"startYear":0,"endYear":0,"source":"Pleiades","category":"infrastructure","description":"An ancient place, cited: BAtlas 64 E4 no. 8 (NE Pagrum? at Gâvur Ören on Sögütlü Dere)"},{"id":"pleiades:629680","type":"bridge","name":"Unnamed bridge","lat":38.25,"lng":37.75,"startYear":0,"endYear":0,"source":"Pleiades","category":"infrastructure","description":"An ancient place, cited: BAtlas 64 F4 no. 9 (5 miles NW Arca)"},{"id":"pleiades:629681","type":"bridge","name":"Unnamed bridge","lat":38.25,"lng":37.75,"startYear":0,"endYear":0,"source":"Pleiades","category":"infrastructure","description":"An ancient place, cited: BAtlas 64 F4 no. 10 (1.5 miles NE Zizoatra at Kırıkköprü)"},{"id":"pleiades:629682","type":"bridge","name":"Unnamed bridge","lat":38.25,"lng":38.25,"startYear":0,"endYear":0,"source":"Pleiades","category":"infrastructure","description":"An ancient place, cited: BAtlas 64 G4 no. 11 (N Melitene at Kırk Göz Köprü on Tohma Su (Melas fl.))"},{"id":"pleiades:629683","type":"bridge","name":"Unnamed bridge","lat":38.75,"lng":38.25,"startYear":0,"endYear":0,"source":"Pleiades","category":"infrastructure","description":"An ancient place, cited: BAtlas 64 G3 no. 12 (S Kiakis on Kuruçay)"},{"id":"pleiades:629684","type":"bridge","name":"Unnamed bridge at Bahadın","lat":38.75,"lng":38.75,"startYear":0,"endYear":0,"source":"Pleiades","category":"infrastructure","description":"A Roman-era bridge NNW Korpinik Hüyük at Bahadın on Arabkir Çay."},{"id":"pleiades:629685","type":"bridge","name":"Karamagara Bridge","lat":38.924961,"lng":38.658486,"startYear":0,"endYear":0,"source":"Pleiades","category":"infrastructure","qid":"Q1418783","description":"A Roman-era bridge spanning the Arabkir Çay south of Hastek Kale in Turkey. Now submerged and inaccessible.","props":{"ancientName":"Karamağara Köprüsü, Karamagara Koprusu"}},{"id":"pleiades:640242","type":"bridge","name":"Untitled","lat":37.75,"lng":28.75,"startYear":0,"endYear":0,"source":"Pleiades","category":"infrastructure","description":"An ancient place, cited: BAtlas 65 A2 unnamed bridge (near Antiochia ad Maeandrum)"},{"id":"pleiades:640243","type":"bridge","name":"Untitled","lat":37.878539,"lng":29.157624,"startYear":0,"endYear":0,"source":"Pleiades","category":"infrastructure","description":"An ancient place, cited: BAtlas 65 B2 unnamed bridge (N Laodicea ad Lycum)"},{"id":"pleiades:640244","type":"bridge","name":"Kemer bridge","lat":36.693330925,"lng":29.362000825000003,"startYear":0,"endYear":0,"source":"Pleiades","category":"infrastructure","description":"A Roman segmental arch bridge over the Xanthos fl. near the ancient city of Xanthos in Lycia."},{"id":"pleiades:640245","type":"bridge","name":"Untitled","lat":36.3203,"lng":29.8157,"startYear":0,"endYear":0,"source":"Pleiades","category":"infrastructure","description":"An ancient place, cited: BAtlas 65 C5 unnamed bridge (Dereağzi)"},{"id":"pleiades:640246","type":"bridge","name":"Limyra Bridge","lat":36.350935,"lng":30.21186,"startYear":0,"endYear":0,"source":"Pleiades","category":"infrastructure","description":"A late-Roman bridge, ancient name unknown, located near the ancient city of Limyra in modern Turkey.","props":{"ancientName":"Kırk Göz Kemeri, Kirk Goz Kemeri"}},{"id":"pleiades:640247","type":"bridge","name":"Zindan Bridge","lat":37.81166,"lng":31.084683,"startYear":0,"endYear":0,"source":"Pleiades","category":"infrastructure","description":"A Roman-era bridge associated with the Zindan Mağarası sanctuary in Turkey's Isparta province. It spans the modern Aksu river."},{"id":"pleiades:640248","type":"bridge","name":"Untitled","lat":36.914232,"lng":31.162999,"startYear":0,"endYear":0,"source":"Pleiades","category":"infrastructure","description":"An ancient place, cited: BAtlas 65 F3 unnamed bridge (at Asarbaşı, over Eurymedon fl.)"},{"id":"pleiades:640249","type":"bridge","name":"Untitled","lat":37.25,"lng":31.25,"startYear":0,"endYear":0,"source":"Pleiades","category":"infrastructure","description":"An ancient place, cited: BAtlas 65 F3 unnamed bridge (S Selge, at Boğurt Köprü)"},{"id":"pleiades:640250","type":"bridge","name":"Untitled","lat":37.191973,"lng":31.181033,"startYear":0,"endYear":0,"source":"Pleiades","category":"infrastructure","description":"An ancient place, cited: BAtlas 65 F3 unnamed bridge (S Selge, at Oluk Köprü)"},{"id":"pleiades:640251","type":"bridge","name":"Bridge at Aspendos","lat":36.9143333490085,"lng":31.16303517150471,"startYear":0,"endYear":0,"source":"Pleiades","category":"infrastructure","qid":"Q846250","description":"An unnamed bridge over Eurymedon fl."},{"id":"pleiades:640252","type":"bridge","name":"Untitled","lat":37.030342,"lng":31.635364,"startYear":0,"endYear":0,"source":"Pleiades","category":"infrastructure","description":"An ancient place, cited: BAtlas 65 G3 unnamed bridge (at Kotenna, over Melas fl.)"},{"id":"pleiades:214128051","type":"bridge","name":"Ponte Scotonico","lat":42.02400365,"lng":13.0099219,"startYear":0,"endYear":0,"source":"Pleiades","category":"infrastructure","qid":"Q131690826","description":"An ancient Roman bridge located along the Via Valeria near Roviano, Italy."},{"id":"pleiades:967100965","type":"bridge","name":"Ponte d'Augusto","lat":44.063640649999996,"lng":12.563807300000002,"startYear":0,"endYear":0,"source":"Pleiades","category":"infrastructure","qid":"Q2063557","description":"A Iulio-Claudian bridge located in Ariminum."},{"id":"pleiades:452983868","type":"bridge","name":"Ponte de Rubiaes","lat":41.90424890845731,"lng":-8.62656824858789,"startYear":0,"endYear":0,"source":"Pleiades","category":"infrastructure","qid":"Q910908","description":"A Roman bridge located by the Rio Coura."},{"id":"pleiades:121168648","type":"bridge","name":"Puente del Chantre","lat":40.1423643,"lng":-2.1325018499999997,"startYear":0,"endYear":0,"source":"Pleiades","category":"infrastructure","description":"A Medieval bridge spanning the Jucar stream."},{"id":"pleiades:705163202","type":"bridge","name":"Ponte Caldaro","lat":42.57014499500123,"lng":12.538151341121694,"startYear":0,"endYear":0,"source":"Pleiades","category":"infrastructure","description":"A Roman bridge of the Via Flaminia."},{"id":"pleiades:88537488","type":"bridge","name":"Pont Serme","lat":43.26862275,"lng":3.04909405,"startYear":0,"endYear":0,"source":"Pleiades","category":"infrastructure","description":"A Roman bridge on the Via Domitia."},{"id":"pleiades:216938","type":"bridge","name":"Pons Constantini","lat":43.733311,"lng":24.486248,"startYear":0,"endYear":0,"source":"Pleiades","category":"infrastructure","qid":"Q3063225","description":"An ancient place, cited: BAtlas 22 B5 Pons Constantini","props":{"ancientName":"Pons Constantini"}},{"id":"pleiades:218198","type":"bridge","name":"Roman bridge at Valeriana","lat":43.69115,"lng":24.271632,"startYear":0,"endYear":0,"source":"Pleiades","category":"infrastructure","description":"A bridge constructed across the Danube at the Roman fort of Valeriana."},{"id":"pleiades:588990228","type":"bridge","name":"Ponte di Annibale - Sant'Angelo","lat":39.132931750811665,"lng":16.274567050389432,"startYear":0,"endYear":0,"source":"Pleiades","category":"infrastructure","qid":"Q55188945","description":"A Roman bridge known by a variety of local toponyms that crosses the Savuto river. It is located in the modern Italian municipality of Altilia, Calabria."},{"id":"pleiades:68481414","type":"bridge","name":"Pons Fabricius","lat":41.89107991559776,"lng":12.478235854839614,"startYear":0,"endYear":0,"source":"Pleiades","category":"infrastructure","qid":"Q944688","description":"The Pons Fabricius (sometimes referred to as the Ponte dei Quattro Capi) is a first-century BC bridge in Rome that spans part of the Tiber River from the area of the Circus Flaminius to the Tiber Island.","props":{"ancientName":"Ponte dei Quattro Capi"}},{"id":"pleiades:244583542","type":"bridge","name":"Ponte Apollosa","lat":41.0750945,"lng":14.7129451,"startYear":0,"endYear":0,"source":"Pleiades","category":"infrastructure","description":"Ponte Apollosa, a bridge of the Via Appia that may have been restored by Septimius Severus in 198 CE.","props":{"ancientName":"Ponte Apollosa"}},{"id":"pleiades:1628988","type":"bridge","name":"Pietra Dell’Oglio (bridge)","lat":40.965243794279836,"lng":15.563056318171212,"startYear":0,"endYear":0,"source":"Pleiades","category":"infrastructure","description":"A Roman bridge crossing the Aufidus (modern Ofanto) river at the border between the modern Italian provinces of Campania and Basilicata. The bridge is one of two candidate identifications for the \"Pons Aufidi\" shown on the Peutinger map (the Ponte S. Venere), a possibility bolstered by recent comparative archaeological studies of the two bridges. The Pietra Dell'Oglio remains in use today for the Strada Comunale Fs di Monteverde, which connects to the Strada Statale 401 dir dell'Alto Ofanto e del Vulture at the southeast end of the bridge."},{"id":"pleiades:446574720","type":"bridge","name":"Ponte di Diocleziano, San Lazzaro di Fossombrone","lat":43.6831366,"lng":12.7713803,"startYear":0,"endYear":0,"source":"Pleiades","category":"infrastructure","description":"The so-called \"Ponte di Diocleziano\" in the local comune of San Lazzaro di Fossombrone was a Roman bridge along the Via Flaminia in the valley of the Metaurus river. The Roman bridge was completely destroyed during the Second World War."},{"id":"pleiades:110784870","type":"bridge","name":"Roman bridge at Habitancum","lat":55.1700915,"lng":-2.1764202,"startYear":0,"endYear":0,"source":"Pleiades","category":"infrastructure","description":"Structural remains of a Roman bridge located on the River Rede in the vicinity of Habitancum Roman fort. The bridge lay along the ancient Watling Street."},{"id":"pleiades:376634672","type":"bridge","name":"Ponte dell'Ospedalato","lat":41.8341512,"lng":12.8976195,"startYear":0,"endYear":0,"source":"Pleiades","category":"infrastructure","description":"A Roman bridge located near Praeneste."},{"id":"pleiades:183817908","type":"bridge","name":"Unnamed bridge over the Simbruina Stagna (Anio flumen) at Villa Neronis","lat":41.922059,"lng":13.101729,"startYear":0,"endYear":0,"source":"Pleiades","category":"infrastructure","description":"Unlabeled feature captured from the Barrington Atlas"},{"id":"pleiades:286808786","type":"bridge","name":"Pons Sublicius","lat":42.678308540569176,"lng":12.327542552487452,"startYear":0,"endYear":0,"source":"Pleiades","category":"infrastructure","qid":"Q1466700","description":"The Pons Sublicius is traditionally held to be the earliest Roman bridge across the river Tiber. The textual tradition assigns its construction to the king Ancus Marcius in 642 B.C. It crossed the Tiber River near the Forum Boarium just downstream from Tiber Island.","props":{"ancientName":"Pons Theodosii"}},{"id":"pleiades:259024851","type":"bridge","name":"Roman bridge of Lugo","lat":43.00193412427929,"lng":-7.563580925694127,"startYear":0,"endYear":0,"source":"Pleiades","category":"infrastructure","qid":"Q12397861","description":"A bridge across the Minho River at Lugo with Roman origins. Heavily restored in modern times, the bridge now serves as a pedestrian walkway."},{"id":"pleiades:297866878","type":"bridge","name":"Via Ostiensis viaduct","lat":41.782095985447604,"lng":12.356535960578894,"startYear":0,"endYear":0,"source":"Pleiades","category":"infrastructure","description":"A viaduct of the ancient Via Ostiensis that purportedly dates to the republican period."},{"id":"pleiades:306532","type":"bridge","name":"Unnamed bridge (south of Rusicade)","lat":36.737776305184575,"lng":6.863077013877826,"startYear":0,"endYear":0,"source":"Pleiades","category":"infrastructure","description":"Gsell (whence BAtlas) repeats an earlier report of a well-preserved Roman bridge over the \"Oued Ameur\" upstream from its confluence with the Safsaf (ancient Thapsus)."},{"id":"pleiades:306533","type":"bridge","name":"Unnamed bridge (south of Hippo Regius)","lat":36.81276434316631,"lng":7.72937894004465,"startYear":0,"endYear":0,"source":"Pleiades","category":"infrastructure","description":"Gsell (whence BAtlas) reports remains of an ancient bridge over the Oued Méboudja."},{"id":"pleiades:306534","type":"bridge","name":"Unnamed bridge (north of Niniba)","lat":36.53649642366446,"lng":7.71402809665693,"startYear":0,"endYear":0,"source":"Pleiades","category":"infrastructure","description":"Gsell (whence BAtlas) noted remains of a Roman bridge over the Seybouse (ancient Ubus), about 500 meters upstream from its confluence with the Frarah."},{"id":"pleiades:317857","type":"bridge","name":"Untitled","lat":36.25,"lng":8.75,"startYear":0,"endYear":0,"source":"Pleiades","category":"infrastructure","description":"An ancient place, cited: BAtlas 32 C4 unnamed bridge (E Simitthu)"},{"id":"pleiades:317858","type":"bridge","name":"Untitled","lat":36.25,"lng":8.75,"startYear":0,"endYear":0,"source":"Pleiades","category":"infrastructure","description":"An ancient place, cited: BAtlas 32 C4 unnamed bridge (between Sicca Veneria and Ucubi)"},{"id":"pleiades:317859","type":"bridge","name":"Untitled","lat":36.75,"lng":9.25,"startYear":0,"endYear":0,"source":"Pleiades","category":"infrastructure","description":"An ancient place, cited: BAtlas 32 D3 unnamed bridge group (near Vicus Augusti? and Teglata?)"},{"id":"pleiades:317860","type":"bridge","name":"Untitled","lat":36.75,"lng":9.25,"startYear":0,"endYear":0,"source":"Pleiades","category":"infrastructure","description":"An ancient place, cited: BAtlas 32 D3 unnamed bridge (near Vaga)"},{"id":"pleiades:317861","type":"bridge","name":"Untitled","lat":36.25,"lng":9.25,"startYear":0,"endYear":0,"source":"Pleiades","category":"infrastructure","description":"An ancient place, cited: BAtlas 32 D4 unnamed bridge (E Thubursicu Bure, near Civitas Mizigitanorum)"},{"id":"pleiades:317862","type":"bridge","name":"Untitled","lat":36.322191,"lng":10.493508,"startYear":0,"endYear":0,"source":"Pleiades","category":"infrastructure","description":"An ancient place, cited: BAtlas 32 G4 unnamed bridge (SW Pupput)"},{"id":"pleiades:439339512","type":"bridge","name":"Pont Romà","lat":39.8824325,"lng":3.0149992,"startYear":0,"endYear":0,"source":"Pleiades","category":"infrastructure","qid":"Q43103827","description":"A Roman bridge on the island of Majorca (Pollença, Mallorca, Spain)."},{"id":"pleiades:306780756","type":"bridge","name":"Ponte di Apollo, Punicum","lat":42.0387821,"lng":11.8812405,"startYear":0,"endYear":0,"source":"Pleiades","category":"infrastructure","description":"A Roman bridge."},{"id":"pleiades:306780757","type":"bridge","name":"Ponte Romano Di Largo Impero, Santa Marinella","lat":42.0377163,"lng":11.8764434,"startYear":0,"endYear":0,"source":"Pleiades","category":"infrastructure","description":"The remains of a Roman bridge located in the comune of Santa Marinella."},{"id":"pleiades:99965183","type":"bridge","name":"Yibna Bridge","lat":31.869431000000002,"lng":34.752263400000004,"startYear":0,"endYear":0,"source":"Pleiades","category":"infrastructure","description":"The Mamluk arched bridge dating to the 1270s crosses the river Nahal Sorek near modern Yibna, Israel.","props":{"ancientName":"Yibna Bridge"}},{"id":"pleiades:413249072","type":"bridge","name":"Solestà Roman bridge","lat":42.85851385,"lng":13.5718295,"startYear":0,"endYear":0,"source":"Pleiades","category":"infrastructure","qid":"Q2103727","description":"A Roman bridge over the Truentus river."},{"id":"pleiades:679502","type":"bridge","name":"Untitled","lat":32.25,"lng":34.75,"startYear":0,"endYear":0,"source":"Pleiades","category":"infrastructure","description":"An ancient place, cited: BAtlas 69 A5 unnamed bridge (SE Caesarea)"},{"id":"pleiades:679503","type":"bridge","name":"Untitled","lat":32.25,"lng":34.75,"startYear":0,"endYear":0,"source":"Pleiades","category":"infrastructure","description":"An ancient place, cited: BAtlas 69 A5 unnamed bridge (near Bir el 'Abd)"},{"id":"pleiades:679504","type":"bridge","name":"Untitled","lat":33.75,"lng":35.25,"startYear":0,"endYear":0,"source":"Pleiades","category":"infrastructure","description":"An ancient place, cited: BAtlas 69 B2 unnamed bridge (Wadi ez-Zaini, N Sidon)"},{"id":"pleiades:679505","type":"bridge","name":"Untitled","lat":33.75,"lng":35.25,"startYear":0,"endYear":0,"source":"Pleiades","category":"infrastructure","description":"An ancient place, cited: BAtlas 69 B2 unnamed bridge (Nahr Awali, S Sidon)"},{"id":"pleiades:679506","type":"bridge","name":"Untitled","lat":33.339524,"lng":35.2507838,"startYear":0,"endYear":0,"source":"Pleiades","category":"infrastructure","description":"A Roman bridge located in what is now Lebanon that crosses the Litani River (Leontes). The bridge is located in the vicinity of Nahr Abou Assouad, approximately 10 km north of Tyre."},{"id":"pleiades:679507","type":"bridge","name":"Untitled","lat":32.570273,"lng":35.184981,"startYear":0,"endYear":0,"source":"Pleiades","category":"infrastructure","description":"An ancient place, cited: BAtlas 69 B4 unnamed bridge (Legio)"},{"id":"pleiades:679508","type":"bridge","name":"Maalmetein Roman Bridge","lat":34.01289527898782,"lng":35.642738998786875,"startYear":0,"endYear":0,"source":"Pleiades","category":"infrastructure","description":"An ancient place, cited: BAtlas 69 C1 unnamed bridge (Maameltein, N Palaibyblos)"},{"id":"pleiades:679509","type":"bridge","name":"Untitled","lat":33.75,"lng":35.75,"startYear":0,"endYear":0,"source":"Pleiades","category":"infrastructure","description":"An ancient place, cited: BAtlas 69 C2 unnamed bridge (Nahr Beyrut, E Berytus)"},{"id":"pleiades:679510","type":"bridge","name":"Untitled","lat":33.75,"lng":35.75,"startYear":0,"endYear":0,"source":"Pleiades","category":"infrastructure","description":"An ancient place, cited: BAtlas 69 C2 unnamed bridge (Nahr el-Kelb, SW Palaibyblos)"},{"id":"pleiades:679511","type":"bridge","name":"Untitled","lat":32.75,"lng":36.25,"startYear":0,"endYear":0,"source":"Pleiades","category":"infrastructure","description":"An ancient place, cited: BAtlas 69 D4 unnamed bridge (et-Tayyibe, SE Adra(h)a)"},{"id":"pleiades:679512","type":"bridge","name":"Untitled","lat":32.75,"lng":36.25,"startYear":0,"endYear":0,"source":"Pleiades","category":"infrastructure","description":"An ancient place, cited: BAtlas 69 D4 unnamed bridge (Nahr Jemarrin, N Bostra)"},{"id":"pleiades:689317","type":"bridge","name":"Untitled","lat":32.25,"lng":34.75,"startYear":0,"endYear":0,"source":"Pleiades","category":"infrastructure","description":"An ancient place, cited: BAtlas 70 F1 unnamed bridge (Ferekhiyeh, over R. Yarkon, between Ioppe and Neapolis)"},{"id":"pleiades:689318","type":"bridge","name":"Untitled","lat":32.25,"lng":34.75,"startYear":0,"endYear":0,"source":"Pleiades","category":"infrastructure","description":"An ancient place, cited: BAtlas 70 F1 unnamed bridge (Jisr es Sudah, over R. Ayalon, between Lydda and Antipatris)"},{"id":"pleiades:689319","type":"bridge","name":"Untitled","lat":31.75,"lng":34.75,"startYear":0,"endYear":0,"source":"Pleiades","category":"infrastructure","description":"An ancient place, cited: BAtlas 70 F2 unnamed bridge (Jisr Jindas, over R. Ayalon, between Lydda and Antipatris)"},{"id":"pleiades:689320","type":"bridge","name":"Untitled","lat":31.75,"lng":34.75,"startYear":0,"endYear":0,"source":"Pleiades","category":"infrastructure","description":"An ancient place, cited: BAtlas 70 F2 unnamed bridge (Jisr el Rubin, on coast road over R. Soreq, near Iamneia Paralios)"},{"id":"pleiades:689321","type":"bridge","name":"Untitled","lat":31.75,"lng":34.75,"startYear":0,"endYear":0,"source":"Pleiades","category":"infrastructure","description":"An ancient place, cited: BAtlas 70 F2 unnamed bridge (el Jisr, over R. Lakhish, between Ashqelon and Ierusalem)"},{"id":"pleiades:689322","type":"bridge","name":"Untitled","lat":31.75,"lng":35.25,"startYear":0,"endYear":0,"source":"Pleiades","category":"infrastructure","description":"An unnamed bridge located near Moza, over the river Soreq, between Jerusalem and Emmaus."},{"id":"pleiades:689323","type":"bridge","name":"Untitled","lat":31.75,"lng":35.25,"startYear":0,"endYear":0,"source":"Pleiades","category":"infrastructure","description":"An ancient place, cited: BAtlas 70 G2 unnamed bridge (near Hierichous, at Jisr Wadi el Qelt across Wadi Qelt)"},{"id":"pleiades:689324","type":"bridge","name":"Damiya Roman Bridge","lat":32.10271825,"lng":35.53513115,"startYear":0,"endYear":0,"source":"Pleiades","category":"infrastructure","qid":"Q2916379","description":"Sited at an ancient crossing-point over the river Jordan, between Neapolis and Philadelpheia, a Roman-era bridge is thought to have been one of many. The modern bridge and its antecedents are often referred to as the \"Damia Bridge\".","props":{"ancientName":"Jisr Damiya"}},{"id":"pleiades:698379","type":"bridge","name":"Untitled","lat":31.551316,"lng":35.767994,"startYear":0,"endYear":0,"source":"Pleiades","category":"infrastructure","description":"An ancient place, cited: BAtlas 71 B2 unnamed bridge (Valtha, over Wadi Wala)"},{"id":"pleiades:698380","type":"bridge","name":"Untitled","lat":31.452153,"lng":35.80628,"startYear":0,"endYear":0,"source":"Pleiades","category":"infrastructure","description":"An ancient place, cited: BAtlas 71 B3 unnamed bridge (over Arnon fl. at Wadi Mujib)"},{"id":"pleiades:698381","type":"bridge","name":"Untitled","lat":30.75,"lng":35.75,"startYear":0,"endYear":0,"source":"Pleiades","category":"infrastructure","description":"An ancient place, cited: BAtlas 71 B4 unnamed bridge (over Zered fl. (W) at Wadi el-Hesa)"},{"id":"pleiades:698382","type":"bridge","name":"Untitled","lat":30.75,"lng":35.75,"startYear":0,"endYear":0,"source":"Pleiades","category":"infrastructure","description":"An ancient place, cited: BAtlas 71 B4 unnamed bridge (over Zered fl. (E) at Wadi el-Hesa)"},{"id":"pleiades:66910159","type":"bridge","name":"Ponte Romano di Viale Roma","lat":42.0370513,"lng":11.8722269,"startYear":0,"endYear":0,"source":"Pleiades","category":"infrastructure","description":"The ruins of a Roman bridge located in the Viale Roma, Santa Marinella, Italy."},{"id":"pleiades:789975647","type":"bridge","name":"Unnamed Roman bridge","lat":39.479433084240405,"lng":-6.26752868872106,"startYear":0,"endYear":0,"source":"Pleiades","category":"infrastructure","description":"The remains of a bridge located in Sierra de Fuentes, Spain."},{"id":"pleiades:591167","type":"bridge","name":"Untitled","lat":35.371064,"lng":24.21092,"startYear":0,"endYear":0,"source":"Pleiades","category":"infrastructure","description":"An ancient place, cited: BAtlas 60 B2 unnamed bridge (W Amphimala)"},{"id":"pleiades:591168","type":"bridge","name":"Eleutherna Bridge","lat":35.3380413,"lng":24.670378550000002,"startYear":0,"endYear":0,"source":"Pleiades","category":"infrastructure","qid":"Q996135","description":"An ancient place, cited: BAtlas 60 C2 unnamed bridge (Eleutherna)"},{"id":"pleiades:334776903","type":"bridge","name":"Pons Aelius","lat":41.90189433889392,"lng":12.466439912123187,"startYear":0,"endYear":0,"source":"Pleiades","category":"infrastructure","qid":"Q870476","description":"The Pons Aelius or Aelian Bridge (now Ponte Sant'Angelo) was completed by Hadrian in AD 134 to span the Tiber opposite the new mausoleum of the emperor.","props":{"ancientName":"Ponte Sant'Angelo"}},{"id":"pleiades:158906364","type":"bridge","name":"Ponte Sereno","lat":41.704699950000006,"lng":13.2668477,"startYear":0,"endYear":0,"source":"Pleiades","category":"infrastructure","qid":"Q133441687","description":"A bridge near Ferentinum (modern Ferentino in Italy) that is traditionally dated to A.D. 260 or after. A substructure in polygonal masonry supports the bridge."},{"id":"pleiades:550561","type":"bridge","name":"(H)Alesion Pedion","lat":39.584862,"lng":26.109862,"startYear":0,"endYear":0,"source":"Pleiades","category":"infrastructure","description":"An ancient place, cited: BAtlas 56 C2 (H)Alesion Pedion","props":{"ancientName":" Halesion Pedion"}},{"id":"pleiades:425067","type":"bridge","name":"Unnamed bridge (Ad Turres)","lat":41.936088,"lng":12.155399500000001,"startYear":0,"endYear":0,"source":"Pleiades","category":"infrastructure","description":"An ancient place, cited: BAtlas 43 A2 unnamed bridge (Ad Turres)"},{"id":"pleiades:425068","type":"bridge","name":"Pons Aemilius","lat":41.88933725410385,"lng":12.479372767819696,"startYear":0,"endYear":0,"source":"Pleiades","category":"infrastructure","qid":"Q640092","description":"The Pons Aemilius was the first stone bridge built across the Tiber River at Rome (241 B.C.). Its remains are known today as the 'Ponte Rotto'.","props":{"ancientName":"Ponte Rotto"}},{"id":"pleiades:425069","type":"bridge","name":"Untitled","lat":41.875,"lng":12.625,"startYear":0,"endYear":0,"source":"Pleiades","category":"infrastructure","description":"An ancient place, cited: BAtlas 43 C2 unnamed bridge (near Muraccio dell’Omo)"},{"id":"pleiades:425070","type":"bridge","name":"Unnamed bridge (Cessati Spiriti)","lat":41.862522,"lng":12.533184,"startYear":0,"endYear":0,"source":"Pleiades","category":"infrastructure","description":"An ancient place, cited: BAtlas 43 C2 unnamed bridge (Cessati Spiriti)"},{"id":"pleiades:425071","type":"bridge","name":"Unnamed bridge","lat":41.625,"lng":12.875,"startYear":0,"endYear":0,"source":"Pleiades","category":"infrastructure","description":"An ancient place, cited: BAtlas 43 D3 unnamed bridge (Cora)"},{"id":"pleiades:425072","type":"bridge","name":"Untitled","lat":41.58389,"lng":12.84611,"startYear":0,"endYear":0,"source":"Pleiades","category":"infrastructure","description":"An ancient place, cited: BAtlas 43 D3 unnamed bridge (Ad Sponsas)"},{"id":"pleiades:425073","type":"bridge","name":"Unnamed bridge (near Forum Appii)","lat":41.375,"lng":12.875,"startYear":0,"endYear":0,"source":"Pleiades","category":"infrastructure","description":"An ancient place, cited: BAtlas 43 D4 unnamed bridge (near Forum Appii)"},{"id":"pleiades:426578","type":"bridge","name":"Unnamed bridge over R. Quartaccio","lat":41.875,"lng":12.125,"startYear":0,"endYear":0,"source":"Pleiades","category":"infrastructure","description":"An ancient place, cited: BAtlas 43 A2 no. 2 (bridge over R. Quartaccio)"},{"id":"pleiades:426579","type":"bridge","name":"Roman bridge at Palidoro","lat":41.9301799,"lng":12.1785507,"startYear":0,"endYear":0,"source":"Pleiades","category":"infrastructure","description":"An ancient Roman bridge along the Via Aurelia."},{"id":"pleiades:426580","type":"bridge","name":"Unnamed bridge","lat":41.90637082796347,"lng":12.265532115348313,"startYear":0,"endYear":0,"source":"Pleiades","category":"infrastructure","description":"A feature included on Barrington Atlas map 43 B2 no. 4, an unnamed bridge that crosses the river Arrone."},{"id":"pleiades:426581","type":"bridge","name":"Untitled","lat":41.875,"lng":12.375,"startYear":0,"endYear":0,"source":"Pleiades","category":"infrastructure","description":"An ancient place, cited: BAtlas 43 B2 no. 5 (bridge over Fosso di Prima Porta)"},{"id":"pleiades:426582","type":"bridge","name":"Untitled","lat":42.06254478358026,"lng":12.390000896654083,"startYear":0,"endYear":0,"source":"Pleiades","category":"infrastructure","description":"An ancient place, cited: BAtlas 43 B2 no. 6 (bridge over Cremera fl.)"},{"id":"pleiades:426586","type":"bridge","name":"Unnamed bridge in the Piazza Eugenio Biffi","lat":41.86666403070025,"lng":12.490163496752352,"startYear":0,"endYear":0,"source":"Pleiades","category":"infrastructure","description":"The remains of an ancient Roman bridge in the present Piazza Eugenio Biffi in Rome. This bridge is thought to have spanned the Almo river."},{"id":"pleiades:426587","type":"bridge","name":"Untitled","lat":41.86776434405035,"lng":12.50294554417796,"startYear":0,"endYear":0,"source":"Pleiades","category":"infrastructure","description":"An ancient place, cited: BAtlas 43 C2 no. 11 (bridge near so-called Tomb of Geta)"},{"id":"pleiades:426589","type":"bridge","name":"Ponte di Vallerano","lat":41.826733,"lng":12.445345,"startYear":0,"endYear":0,"source":"Pleiades","category":"infrastructure","qid":"Q134707539","description":"The Ponte di Vallerano is a second-century Roman bridge that carried the via Ostiensis across the fosso di Vallerano.","props":{"ancientName":"Ponte di Vallerano"}},{"id":"pleiades:426590","type":"bridge","name":"Unnamed bridge","lat":41.875,"lng":12.375,"startYear":0,"endYear":0,"source":"Pleiades","category":"infrastructure","description":"An ancient place, cited: BAtlas 43 B2 no. 14 (bridge at Mezzocamino)"},{"id":"pleiades:426591","type":"bridge","name":"Ponte di Malafede","lat":41.7755265,"lng":12.3780048,"startYear":0,"endYear":0,"source":"Pleiades","category":"infrastructure","description":"A Roman bridge that is no longer extant. Quilici notes that the bridge was destroyed both by the Second World War and by urbanization that followed in the post-war period. Blake publishes a photo of E. B. van Deman and indicates that the bridge was built in peperino and of \"indeterminate date\". She compares the Ponte di Malafede with the construction of the Via Appia viaduct that lies just beyond Ariccia, a structure that was Augustan in its date.","props":{"ancientName":"Ponte di Malafede"}},{"id":"pleiades:426592","type":"bridge","name":"Ponte Ladrone","lat":41.7896892,"lng":12.3751754,"startYear":0,"endYear":0,"source":"Pleiades","category":"infrastructure","description":"The so-called Ponte Ladrone was a Roman bridge of the Via Ostiensis located at Acilia. According to L. Quilici, its remaining material vestiges were buried in 1982 by infrastructure works.","props":{"ancientName":"Ponte Ladrone"}},{"id":"pleiades:426603","type":"bridge","name":"Untitled","lat":41.875,"lng":12.625,"startYear":0,"endYear":0,"source":"Pleiades","category":"infrastructure","description":"An ancient place, cited: BAtlas 43 C2 no. 27 (bridge on Via Labicana)"},{"id":"pleiades:426607","type":"bridge","name":"Untitled","lat":41.875,"lng":12.875,"startYear":0,"endYear":0,"source":"Pleiades","category":"infrastructure","description":"An ancient place, cited: BAtlas 43 D2 no. 31 (bridge over R. Acquoria, temple and quarries)"},{"id":"pleiades:426608","type":"bridge","name":"Roman bridges at Tibur","lat":41.963602,"lng":12.79818,"startYear":0,"endYear":0,"source":"Pleiades","category":"infrastructure","description":"An ancient place, cited: BAtlas 43 D2 no. 32 (bridges at Tibur (2))"},{"id":"pleiades:426610","type":"bridge","name":"Untitled","lat":41.875,"lng":12.875,"startYear":0,"endYear":0,"source":"Pleiades","category":"infrastructure","description":"An ancient place, cited: BAtlas 43 D2 no. 34 (bridge at S. Stefano)"},{"id":"pleiades:426611","type":"bridge","name":"Untitled","lat":41.9232405711212,"lng":12.783054132394374,"startYear":0,"endYear":0,"source":"Pleiades","category":"infrastructure","description":"An ancient place, cited: BAtlas 43 D2 no. 35 (bridge (Ponte Terra))","props":{"ancientName":"Ponte Terra"}},{"id":"pleiades:426612","type":"bridge","name":"Bridge over Fosso di Acqua Rossa","lat":41.904633,"lng":12.79031,"startYear":0,"endYear":0,"source":"Pleiades","category":"infrastructure","description":"The remains of a Roman bridge that once carried a road over the Fosso di Acqua Rossa. Ward-Perkins posits a date of the second or first century BCE based on comparanda in the vicinity."},{"id":"pleiades:426613","type":"bridge","name":"Ponte Ceccara","lat":41.878927388333935,"lng":12.760130441037191,"startYear":0,"endYear":0,"source":"Pleiades","category":"infrastructure","qid":"Q131900839","description":"The Ponte Ceccara, also referred to as the ponte di Terra, is a Republican period bridge located on the fosso di Passerano along the Via Praenestina. It is located within the modern comune of Zagarolo, some 30.5 km southeast of the center of Rome."},{"id":"pleiades:426614","type":"bridge","name":"Ponte dell’Acqua Nera","lat":41.871736,"lng":12.7863084,"startYear":0,"endYear":0,"source":"Pleiades","category":"infrastructure","description":"An ancient place, cited: BAtlas 43 D2 no. 38 (bridge (Ponte dell’Acqua Nera))","props":{"ancientName":"Ponte dell’Acqua Nera"}},{"id":"pleiades:426615","type":"bridge","name":"Ponte Amato","lat":41.86836795,"lng":12.81137605,"startYear":0,"endYear":0,"source":"Pleiades","category":"infrastructure","qid":"Q55162587","description":"The bridge known as Ponte Amato carries the Via Praenestina near Gallicano nel Lazio.","props":{"ancientName":"Ponte Amato"}},{"id":"pleiades:426629","type":"bridge","name":"Ponte Loreto","lat":41.64544434529342,"lng":12.694170941329187,"startYear":0,"endYear":0,"source":"Pleiades","category":"infrastructure","description":"A Roman bridge at Lanuvium.","props":{"ancientName":"Ponte Loreto "}},{"id":"pleiades:426630","type":"bridge","name":"Ponte di Mele","lat":41.625,"lng":12.625,"startYear":0,"endYear":0,"source":"Pleiades","category":"infrastructure","description":"A Roman bridge along the Via Appia.","props":{"ancientName":"Ponte di Mele"}},{"id":"pleiades:426631","type":"bridge","name":"Untitled","lat":41.625,"lng":12.875,"startYear":0,"endYear":0,"source":"Pleiades","category":"infrastructure","description":"An ancient place, cited: BAtlas 43 D3 no. 55 (bridge over Fosso delle Mole)"},{"id":"pleiades:426634","type":"bridge","name":"Ponte di Traiano at Tor Tre Ponti","lat":41.50349415,"lng":12.95039285,"startYear":0,"endYear":0,"source":"Pleiades","category":"infrastructure","description":"A Roman bridge located on the Via Appia at modern Tor Tre Ponti.","props":{"ancientName":"Ponte di Traiano"}},{"id":"pleiades:426635","type":"bridge","name":"Untitled","lat":41.375,"lng":12.875,"startYear":0,"endYear":0,"source":"Pleiades","category":"infrastructure","description":"An ancient place, cited: BAtlas 43 D4 no. 59 (bridge (Ponte S. Felicità))","props":{"ancientName":"Ponte S. Felicita"}},{"id":"pleiades:433035","type":"bridge","name":"Pons Apollinis","lat":42.0387821,"lng":11.8812405,"startYear":0,"endYear":0,"source":"Pleiades","category":"infrastructure","description":"An ancient place, cited: BAtlas 44 A1 Pons Apollinis","props":{"ancientName":"Pons Apollinis"}},{"id":"pleiades:433036","type":"bridge","name":"Pons Campanus","lat":41.131744499999996,"lng":13.968802499999999,"startYear":0,"endYear":0,"source":"Pleiades","category":"infrastructure","description":"An ancient place, cited: BAtlas 44 E3 Pons Campanus","props":{"ancientName":"Pons Campanus"}},{"id":"pleiades:433037","type":"bridge","name":"Pons Auruncus","lat":41.232489,"lng":13.909388,"startYear":0,"endYear":0,"source":"Pleiades","category":"infrastructure","description":"An ancient place, cited: BAtlas 44 E3 Pons Auruncus","props":{"ancientName":"Pons Auruncus"}},{"id":"pleiades:433039","type":"bridge","name":"Pons Tirenus","lat":41.241686,"lng":13.771826,"startYear":0,"endYear":0,"source":"Pleiades","category":"infrastructure","description":"An ancient place, cited: BAtlas 44 E3 Pons Tirenus","props":{"ancientName":"Pons Tirenus"}},{"id":"pleiades:434132","type":"bridge","name":"Untitled","lat":41.25,"lng":13.75,"startYear":0,"endYear":0,"source":"Pleiades","category":"infrastructure","description":"An ancient place, cited: BAtlas 44 E3 unnamed bridge (at Pons Campanus)"},{"id":"pleiades:434133","type":"bridge","name":"Unnamed bridge over the Volturnus river on the Via Domitiana","lat":41.30221187825358,"lng":14.14990036816852,"startYear":0,"endYear":0,"source":"Pleiades","category":"infrastructure","description":"An unnamed bridge located along the Via Domitiana."},{"id":"pleiades:434134","type":"bridge","name":"Ponte Latrone","lat":41.508821,"lng":14.124737,"startYear":0,"endYear":0,"source":"Pleiades","category":"infrastructure","description":"A Roman bridge on the Volturno river located near Capriati."},{"id":"pleiades:434135","type":"bridge","name":"Ponte Romano di Val d'Assano","lat":41.24855777819971,"lng":14.135804137683905,"startYear":0,"endYear":0,"source":"Pleiades","category":"infrastructure","description":"An ancient bridge located to the east of ancient Teanum Sidicinum (modern Teano in Italy).","props":{"ancientName":"Ponte Sfondato"}},{"id":"pleiades:434136","type":"bridge","name":"Untitled","lat":41.25,"lng":14.25,"startYear":0,"endYear":0,"source":"Pleiades","category":"infrastructure","description":"An ancient place, cited: BAtlas 44 F3 unnamed bridge (near Monte Acero)"},{"id":"pleiades:434137","type":"bridge","name":"Untitled","lat":41.25,"lng":14.75,"startYear":0,"endYear":0,"source":"Pleiades","category":"infrastructure","description":"An ancient place, cited: BAtlas 44 G3 unnamed bridge group (Via Appia from Caudium to Beneventum)"},{"id":"pleiades:434140","type":"bridge","name":"Untitled","lat":41.25,"lng":14.75,"startYear":0,"endYear":0,"source":"Pleiades","category":"infrastructure","description":"An ancient place, cited: BAtlas 44 G3 unnamed bridge (Via Traiana bridge over Calor, E Beneventum)"},{"id":"pleiades:442727","type":"bridge","name":"Pons Aufidi","lat":41.01968919778756,"lng":15.554294952028346,"startYear":0,"endYear":0,"source":"Pleiades","category":"infrastructure","qid":"Q51948","description":"A Roman bridge (and possibly coincident road station) on the Via Appia over the Aufidus (modern Ofanto) river in Italy, listed on the Peutinger map and in the Antonine Itinerary. Traditionally it has been identified with a bridge known today as Ponte S. Venere, but recently archaeological work has cast doubt on this view and some scholars now favor an identification with the Ponte romano Pietra dell'Oglio, which lies about 15 miles further south and can be securely dated to the Roman period.","props":{"ancientName":"Ponte Aufidi"}},{"id":"pleiades:50864838","type":"bridge","name":"Ponte Nomentano","lat":41.9336012,"lng":12.532485300000001,"startYear":0,"endYear":0,"source":"Pleiades","category":"infrastructure","qid":"Q1351222","description":"A Roman bridge over the Aniene river.","props":{"ancientName":"Ponte Nomentano"}},{"id":"pleiades:567970829","type":"bridge","name":"Ponte Molino","lat":45.4116765,"lng":11.873766,"startYear":0,"endYear":0,"source":"Pleiades","category":"infrastructure","qid":"Q474747","description":"A Roman segmental arch bridge across the Bacchiglione river in Padua, Italy.","props":{"ancientName":"Ponte Molino"}},{"id":"pleiades:567970830","type":"bridge","name":"Ponte di San Lorenzo","lat":45.40611245,"lng":11.87782705,"startYear":0,"endYear":0,"source":"Pleiades","category":"infrastructure","qid":"Q2103738","description":"An early segmental arch bridge, built between 47 and 30 B.C."},{"id":"pleiades:532772123","type":"bridge","name":"Ponte Corvo","lat":45.40186475,"lng":11.88366745,"startYear":0,"endYear":0,"source":"Pleiades","category":"infrastructure","qid":"Q1428534","description":"A Roman segmental arch bridge across the Bacchiglione river in Padua, Italy."},{"id":"pleiades:765102512","type":"bridge","name":"Unnamed Roman bridgehead","lat":55.025069,"lng":-2.1356652,"startYear":0,"endYear":0,"source":"Pleiades","category":"infrastructure","qid":"Q5093849","description":"Ancient bridgehead west of Milecastle 27 (Hadrian's Wall), providing link to Cilurnum.","props":{"ancientName":"Chesters Roman bridge"}},{"id":"pleiades:56387635","type":"bridge","name":"Puentecillas","lat":42.010129198598825,"lng":-4.539550236937216,"startYear":0,"endYear":0,"source":"Pleiades","category":"infrastructure","description":"A bridge of the sixteenth century that rests on Roman foundations."},{"id":"pleiades:411767088","type":"bridge","name":"Ponte Gobbo","lat":44.76715873199541,"lng":9.390833746732293,"startYear":0,"endYear":0,"source":"Pleiades","category":"infrastructure","qid":"Q844241","description":"A Medieval bridge across the river Trebia that is said to have Roman origins."},{"id":"pleiades:958331561","type":"bridge","name":"Porta Neola","lat":41.9234958,"lng":12.7611468,"startYear":0,"endYear":0,"source":"Pleiades","category":"infrastructure","qid":"Q131909955","description":"A Roman bridge located in the Colle Merulino near Tivoli, Italy."},{"id":"pleiades:7283642","type":"bridge","name":"Ancient bridge on Via Egnatia at modern Arisvi","lat":41.0527727,"lng":25.618715,"startYear":0,"endYear":0,"source":"Pleiades","category":"infrastructure","description":"An ancient bridge was reported at modern Arisvi, crossing the river Lissos, in documents in the general state archive of Komotini 1945-1961, which still seems to be known to local community and described as Roman. A modern bridge stands in its place today."},{"id":"pleiades:857761","type":"bridge","name":"Untitled","lat":41.254944,"lng":35.262719,"startYear":0,"endYear":0,"source":"Pleiades","category":"infrastructure","description":"An ancient place, cited: BAtlas 87 A3 unnamed bridge (NW Andrapa, over Halys fl.)"},{"id":"pleiades:857762","type":"bridge","name":"Untitled","lat":41.1802622,"lng":36.7190803,"startYear":0,"endYear":0,"source":"Pleiades","category":"infrastructure","description":"An ancient place, cited: BAtlas 87 B4 unnamed bridge (Eupatoria, over Iris)"},{"id":"pleiades:857763","type":"bridge","name":"Untitled","lat":40.5,"lng":36.5,"startYear":0,"endYear":0,"source":"Pleiades","category":"infrastructure","description":"An ancient place, cited: BAtlas 87 B4 unnamed bridge (SE Eupatoria)"},{"id":"pleiades:857764","type":"bridge","name":"Untitled","lat":40.5,"lng":36.5,"startYear":0,"endYear":0,"source":"Pleiades","category":"infrastructure","description":"An ancient place, cited: BAtlas 87 B4 unnamed bridge (1 mile S Mirones)"},{"id":"pleiades:857765","type":"bridge","name":"Untitled","lat":40.5,"lng":36.5,"startYear":0,"endYear":0,"source":"Pleiades","category":"infrastructure","description":"An ancient place, cited: BAtlas 87 B4 unnamed bridge (Talaz Köprüsü, W Kabeira)"},{"id":"pleiades:857766","type":"bridge","name":"Untitled","lat":40.5,"lng":36.5,"startYear":0,"endYear":0,"source":"Pleiades","category":"infrastructure","description":"An ancient place, cited: BAtlas 87 B4 unnamed bridge (Kadıköprüsü, 2 miles E Gagonda, now under dam lake)"},{"id":"pleiades:857767","type":"bridge","name":"Untitled","lat":40.5,"lng":36.5,"startYear":0,"endYear":0,"source":"Pleiades","category":"infrastructure","description":"An ancient place, cited: BAtlas 87 B4 unnamed bridge (N Gazioura)"},{"id":"pleiades:857768","type":"bridge","name":"Untitled","lat":40.5,"lng":36.5,"startYear":0,"endYear":0,"source":"Pleiades","category":"infrastructure","description":"An ancient place, cited: BAtlas 87 B4 unnamed bridge (Çerçi, 9 miles W Dazimon)"},{"id":"pleiades:857769","type":"bridge","name":"Untitled","lat":41.5,"lng":38.5,"startYear":0,"endYear":0,"source":"Pleiades","category":"infrastructure","description":"An ancient place, cited: BAtlas 87 D3 unnamed bridge (Kündür Köprüsü, 6 miles E Reşadiye)"},{"id":"pleiades:857770","type":"bridge","name":"Untitled","lat":40.09408,"lng":38.19463,"startYear":0,"endYear":0,"source":"Pleiades","category":"infrastructure","description":"An ancient place, cited: BAtlas 87 D4 unnamed bridge (S Dasteira)"},{"id":"pleiades:857771","type":"bridge","name":"Untitled","lat":40.5,"lng":39.5,"startYear":0,"endYear":0,"source":"Pleiades","category":"infrastructure","description":"An ancient place, cited: BAtlas 87 E4 unnamed bridge (between Ad Vincesimum and Trapezus)"},{"id":"pleiades:857772","type":"bridge","name":"Unnamed bridge","lat":40.5,"lng":39.5,"startYear":0,"endYear":0,"source":"Pleiades","category":"infrastructure","description":"An unnamed ancient bridge located at Bağdar Köprüsu, to the west of Longini Fossatum according to the Barrington Atlas."},{"id":"pleiades:607714945","type":"bridge","name":"Piercebridge Roman Bridge","lat":54.53531983164754,"lng":-1.6705280276450756,"startYear":0,"endYear":0,"source":"Pleiades","category":"infrastructure","qid":"Q7191840","description":"A Roman bridge that carried Dere Street across the River Tees in northern England."},{"id":"pleiades:208942144","type":"bridge","name":"Unnamed group of bridges over R. Zadorra, north of Bele(g)ia","lat":42.858309950000006,"lng":-2.7231852,"startYear":0,"endYear":0,"source":"Pleiades","category":"infrastructure","description":"An ancient place, cited: BAtlas 25 C3 unnamed bridge group (Trespuentes over R. Zadorra, N Bele(g)ia)"},{"id":"pleiades:208942265","type":"bridge","name":"Untitled","lat":41.030071,"lng":24.070463,"startYear":0,"endYear":0,"source":"Pleiades","category":"infrastructure","description":"An ancient place, cited: BAtlas 51 C2 unnamed bridge group (SW Ad Duodecimum, near Symvoli)"},{"id":"pleiades:208942835","type":"bridge","name":"Untitled","lat":43.333301,"lng":12.721115,"startYear":0,"endYear":0,"source":"Pleiades","category":"infrastructure","description":"An ancient place, cited: BAtlas 42 D1-C4 unnamed bridge (on Via Flaminia (20))"},{"id":"pleiades:208942836","type":"bridge","name":"Ponte Spiano","lat":43.3379371,"lng":12.7315991,"startYear":0,"endYear":0,"source":"Pleiades","category":"infrastructure","description":"The so-called Ponte Spiano is a Roman bridge located along the Via Flaminia in the modern comune of Sigillo."},{"id":"pleiades:208942837","type":"bridge","name":"Ponte Grosso","lat":43.50090741723492,"lng":12.633077082118334,"startYear":0,"endYear":0,"source":"Pleiades","category":"infrastructure","description":"An ancient place, cited: BAtlas 42 D1-C4 unnamed bridge (on Via Flaminia (20))"},{"id":"pleiades:208942838","type":"bridge","name":"Ponte Manlio","lat":43.5509864,"lng":12.6507458,"startYear":0,"endYear":0,"source":"Pleiades","category":"infrastructure","description":"The Roman bridge known as \"Ponte Manlio\" carried the Via Flaminia across the Bosso torrent, whose main channel is now some hundreds of meters to the south. This is a well-preserved Roman vaulted arch bridge that dates to the second century B.C."},{"id":"pleiades:208942839","type":"bridge","name":"Untitled","lat":43.586198,"lng":12.676511,"startYear":0,"endYear":0,"source":"Pleiades","category":"infrastructure","description":"An ancient place, cited: BAtlas 42 D1-C4 unnamed bridge (on Via Flaminia (20))"},{"id":"pleiades:208942840","type":"bridge","name":"Untitled","lat":43.619141,"lng":12.6782,"startYear":0,"endYear":0,"source":"Pleiades","category":"infrastructure","description":"An ancient place, cited: BAtlas 42 D1-C4 unnamed bridge (on Via Flaminia (20))"},{"id":"pleiades:208942841","type":"bridge","name":"Untitled","lat":43.672531,"lng":12.752462,"startYear":0,"endYear":0,"source":"Pleiades","category":"infrastructure","description":"An ancient place, cited: BAtlas 42 D1-C4 unnamed bridge (on Via Flaminia (20))"},{"id":"pleiades:208942842","type":"bridge","name":"Unnamed bridge","lat":43.678181,"lng":12.777484,"startYear":0,"endYear":0,"source":"Pleiades","category":"infrastructure","description":"An ancient place, cited: BAtlas 42 D1-C4 unnamed bridge (on Via Flaminia (20))"},{"id":"pleiades:208942843","type":"bridge","name":"Untitled","lat":42.567293,"lng":12.535463,"startYear":0,"endYear":0,"source":"Pleiades","category":"infrastructure","description":"An ancient place, cited: BAtlas 42 D1-C4 unnamed bridge (on Via Flaminia (20))"},{"id":"pleiades:208942844","type":"bridge","name":"Untitled","lat":42.707563,"lng":12.553036,"startYear":0,"endYear":0,"source":"Pleiades","category":"infrastructure","description":"An ancient place, cited: BAtlas 42 D1-C4 unnamed bridge (on Via Flaminia (20))"},{"id":"pleiades:208942845","type":"bridge","name":"Ponte del Toro","lat":42.5535438,"lng":12.70473475,"startYear":0,"endYear":0,"source":"Pleiades","category":"infrastructure","description":"A Roman arched bridge on the Via Flaminia near modern Terni.","props":{"ancientName":"Ponte del Toro"}},{"id":"pleiades:208942846","type":"bridge","name":"Ponte di Augusto","lat":42.52503897893899,"lng":12.51451819736712,"startYear":0,"endYear":0,"source":"Pleiades","category":"infrastructure","qid":"Q2103779","description":"A Roman arched bridge located near Narni built originally in the Augustan period that remained in use until A.D. 1055.","props":{"ancientName":"Ponte di Augusto"}},{"id":"pleiades:208942847","type":"bridge","name":"Ponte Calamone ","lat":42.5489654,"lng":12.528505099999999,"startYear":0,"endYear":0,"source":"Pleiades","category":"infrastructure","description":"A Roman bridge near Narnia that was built over the river Nera ca. 27 B.C."},{"id":"pleiades:208942848","type":"bridge","name":"Ponte Fonnaia","lat":42.717784222939166,"lng":12.543182340455147,"startYear":0,"endYear":0,"source":"Pleiades","category":"infrastructure","qid":"Q28923250","description":"The Roman bridge at Ponte Fonnaia carried a branch of the Via Flaminia over the river Naia. It is located north of modern Acquasparta in Umbria."},{"id":"pleiades:208942849","type":"bridge","name":"Ponte di San Giovanni de Butris","lat":42.6801049,"lng":12.5510371,"startYear":0,"endYear":0,"source":"Pleiades","category":"infrastructure","description":"The remains of a Roman bridge along the Via Flaminia that have been incorporated into the thirteenth-century church of San Giovanni de Butris."},{"id":"pleiades:208943032","type":"bridge","name":"Untitled","lat":38.318816,"lng":31.205786,"startYear":0,"endYear":0,"source":"Pleiades","category":"infrastructure","description":"An ancient place, cited: BAtlas 62 F5 unnamed bridge (three in aqueduct NE Antiochia)"},{"id":"pleiades:208943033","type":"bridge","name":"Untitled","lat":38.321523,"lng":31.217773,"startYear":0,"endYear":0,"source":"Pleiades","category":"infrastructure","description":"An ancient place, cited: BAtlas 62 F5 unnamed bridge (three in aqueduct NE Antiochia)"},{"id":"pleiades:433411640","type":"bridge","name":"Unnamed bridge","lat":41.8167337,"lng":12.4145379,"startYear":0,"endYear":0,"source":"Pleiades","category":"infrastructure","description":"A Roman bridge located in the Parco dei Medici near Rome, Italy."},{"id":"pleiades:431699813","type":"bridge","name":"Selciatella Roman bridge","lat":41.9010819,"lng":12.7994379,"startYear":0,"endYear":0,"source":"Pleiades","category":"infrastructure","qid":"Q139622813","description":"Ponte della Selciatella, a Roman-period bridge crossing the Fosso di Acqua Rossa in San Vittorino, Lazio, Italy.","props":{"ancientName":"Ponte della Selciatella"}},{"id":"pleiades:659874","type":"bridge","name":"Untitled","lat":37.25,"lng":35.75,"startYear":0,"endYear":0,"source":"Pleiades","category":"infrastructure","description":"An ancient place, cited: BAtlas 67 B2 unnamed bridge (E Anazarbos)"},{"id":"pleiades:659875","type":"bridge","name":"Untitled","lat":37.25,"lng":35.75,"startYear":0,"endYear":0,"source":"Pleiades","category":"infrastructure","description":"An ancient place, cited: BAtlas 67 B2 unnamed bridge (S Anazarbos)"},{"id":"pleiades:659876","type":"bridge","name":"Untitled","lat":36.25,"lng":36.25,"startYear":0,"endYear":0,"source":"Pleiades","category":"infrastructure","description":"An ancient place, cited: BAtlas 67 C4 unnamed bridge (over Melas fl.)"},{"id":"pleiades:659877","type":"bridge","name":"Untitled","lat":36.25,"lng":36.25,"startYear":0,"endYear":0,"source":"Pleiades","category":"infrastructure","description":"An ancient place, cited: BAtlas 67 C4 unnamed bridge (at Gephyra)"},{"id":"pleiades:659878","type":"bridge","name":"Untitled","lat":36.25,"lng":36.25,"startYear":0,"endYear":0,"source":"Pleiades","category":"infrastructure","description":"An ancient place, cited: BAtlas 67 C4 unnamed bridge (at Sinanlı, NE Symeon Mon.)"},{"id":"pleiades:659879","type":"bridge","name":"Untitled","lat":37.526822,"lng":36.895936,"startYear":0,"endYear":0,"source":"Pleiades","category":"infrastructure","description":"An ancient place, cited: BAtlas 67 D1 unnamed bridge (SW Germanikeia)"},{"id":"pleiades:659881","type":"bridge","name":"Untitled","lat":37.25,"lng":37.75,"startYear":0,"endYear":0,"source":"Pleiades","category":"infrastructure","description":"An ancient place, cited: BAtlas 67 F2 unnamed bridge (E Rhabaine near confluence with Euphrates)"},{"id":"pleiades:659882","type":"bridge","name":"Untitled","lat":37.25,"lng":37.75,"startYear":0,"endYear":0,"source":"Pleiades","category":"infrastructure","description":"An ancient place, cited: BAtlas 67 F2 unnamed bridge (E Aquae over Marsyas fl.)"},{"id":"pleiades:659883","type":"bridge","name":"Untitled","lat":37.25,"lng":37.75,"startYear":0,"endYear":0,"source":"Pleiades","category":"infrastructure","description":"An ancient place, cited: BAtlas 67 F2 unnamed bridge (N Capersana over Marsyas fl.)"},{"id":"pleiades:659884","type":"bridge","name":"Unnamed bridge","lat":37.4460531,"lng":38.16319465,"startYear":0,"endYear":0,"source":"Pleiades","category":"infrastructure","description":"An ancient place, cited: BAtlas 67 G2 unnamed bridge (Pons *Singae, Göksu bridge, E Seleukeia epi tou Zeugmatos)","props":{"ancientName":"ad Pons Singae"}},{"id":"pleiades:659885","type":"bridge","name":"Pons Chabinae","lat":37.9329058529646,"lng":38.60849691421662,"startYear":0,"endYear":0,"source":"Pleiades","category":"infrastructure","qid":"Q1058264","description":"A Roman bridge across the Cendere Çayı that lies west of Arsameia pros Nymphaio (modern Eskikale in Turkey's Adıyaman Province).","props":{"ancientName":"Cendere Koprusu"}},{"id":"pleiades:91511819","type":"bridge","name":"\"Ponte Sanguinario\" at Spoletium","lat":42.7401172,"lng":12.7377559,"startYear":0,"endYear":0,"source":"Pleiades","category":"infrastructure","qid":"Q16591318","description":"The \"Ponte Sanguinario\" at Spoleto is a late republican to early imperial Roman bridge. The remains of the bridge are now below street level in the Piazza della Vittoria, not far from the Porta San Gregorio.","props":{"ancientName":"Ponte Sanguinario"}},{"id":"pleiades:463572","type":"bridge","name":"Unnamed bridge at Selinus","lat":37.607074,"lng":12.80502,"startYear":0,"endYear":0,"source":"Pleiades","category":"infrastructure","description":"An ancient place, cited: BAtlas 47 B3 unnamed bridge (Selinus)"},{"id":"pleiades:463573","type":"bridge","name":"Roman bridge at Buonfornello","lat":37.75,"lng":13.75,"startYear":0,"endYear":0,"source":"Pleiades","category":"infrastructure","description":"An unnamed ancient bridge, located in modern Buonfornello, Sicily."},{"id":"pleiades:463574","type":"bridge","name":"Untitled","lat":37.282319,"lng":13.570975,"startYear":0,"endYear":0,"source":"Pleiades","category":"infrastructure","description":"An ancient place, cited: BAtlas 47 D4 unnamed bridge (Akragas, over R. S. Anna)"},{"id":"pleiades:463575","type":"bridge","name":"Untitled","lat":38.018848,"lng":14.180131,"startYear":0,"endYear":0,"source":"Pleiades","category":"infrastructure","description":"An ancient place, cited: BAtlas 47 E2 unnamed bridge (E Cephaloedium)"},{"id":"pleiades:463576","type":"bridge","name":"Untitled","lat":38.106314,"lng":14.695556,"startYear":0,"endYear":0,"source":"Pleiades","category":"infrastructure","description":"An ancient place, cited: BAtlas 47 F2 unnamed bridge (N Haluntium)"},{"id":"pleiades:463577","type":"bridge","name":"Untitled","lat":37.75,"lng":14.75,"startYear":0,"endYear":0,"source":"Pleiades","category":"infrastructure","description":"An ancient place, cited: BAtlas 47 F3 unnamed bridge (NE Centuripae)"},{"id":"pleiades:463578","type":"bridge","name":"Roman bridge, Pietralunga di Paternò","lat":37.575159441335195,"lng":14.864535717300795,"startYear":0,"endYear":0,"source":"Pleiades","category":"infrastructure","qid":"Q3908182","description":"An unnamed bridge located west of Hybla Gereatis at Pietralunga di Paternò, over the river Simeto."},{"id":"pleiades:463579","type":"bridge","name":"Untitled","lat":37.817276,"lng":15.241401,"startYear":0,"endYear":0,"source":"Pleiades","category":"infrastructure","description":"An ancient place, cited: BAtlas 47 G3 unnamed bridge (SW Tauromenium)"},{"id":"pleiades:285873044","type":"bridge","name":"Unnamed bridge near Concordia Sagittaria","lat":45.75852184265549,"lng":12.83801136374918,"startYear":0,"endYear":0,"source":"Pleiades","category":"infrastructure","description":"A Roman bridge near Concordia Sagittaria."},{"id":"pleiades:636310449","type":"bridge","name":"Ponte dei Saraceni, Adrano","lat":37.700927269581776,"lng":14.799810929835095,"startYear":0,"endYear":0,"source":"Pleiades","category":"infrastructure","qid":"Q108841169","description":"A bridge over the Simeto River with ancient origins, the so-called Ponte dei Saraceni has been rebuilt several times, including after the 1693 Sicily earthquake.","props":{"ancientName":"Ponte dei Saraceni, Adrano"}},{"id":"pleiades:636310450","type":"bridge","name":"Hannibal's Bridge (Rapallo)","lat":44.34691083096895,"lng":9.227127954304272,"startYear":0,"endYear":0,"source":"Pleiades","category":"infrastructure","qid":"Q69555721","description":"A ruined bridge at Rapallo, Italy, that the local toponymastic tradition links to the third-century BCE military operations of the Carthaginian commander Hannibal.","props":{"ancientName":"Hannibal's Bridge"}},{"id":"pleiades:431472221","type":"bridge","name":"Ponte delle Voze","lat":44.2057411,"lng":8.3675933,"startYear":0,"endYear":0,"source":"Pleiades","category":"infrastructure","qid":"Q28003411","description":"A Roman bridge with Augustan origins, known either as Ponte Muto or Ponte delle Vozze, associated with the Via Iulia Augusta and located in the Val Ponci in Liguria.","props":{"ancientName":"Ponte Muto"}},{"id":"pleiades:891521703","type":"bridge","name":"Afrin bridge","lat":36.7395004,"lng":36.9718468,"startYear":0,"endYear":0,"source":"Pleiades","category":"infrastructure","description":"An ancient bridge on the Afrin river."},{"id":"pleiades:865293111","type":"bridge","name":"Ponte della Concordia, Fossombrone","lat":43.68831492860611,"lng":12.803289420823221,"startYear":0,"endYear":0,"source":"Pleiades","category":"infrastructure","qid":"Q25053886","description":"A bridge over the Metauro River built initially in the thirteenth century. The original bridge was destroyed in 1765 and rebuilt in 1782. The bridge was again destroyed in 1944 and was rebuilt in 1946.","props":{"ancientName":"Ponte della Concordia, Fossombrone"}},{"id":"pleiades:726542220","type":"bridge","name":"Pons Aurelius","lat":42.28532320584172,"lng":12.399142586681084,"startYear":0,"endYear":0,"source":"Pleiades","category":"infrastructure","description":"The Pons Aurelius is known only from late Roman documents (fourth and fifth centuries CE) and is most likely the same bridge known as pons Antoninus in the early Middle Ages. The present-day Ponte Sisto (built in the fifteenth century) reused some of the ancient Roman bridge piers.","props":{"ancientName":"Pons Aurelius"}},{"id":"pleiades:726542221","type":"bridge","name":"Ponte Sisto","lat":41.89234023704535,"lng":12.470746076267808,"startYear":0,"endYear":0,"source":"Pleiades","category":"infrastructure","qid":"Q586329","description":"The Ponte Sisto is a bridge that spans the Tiber River at Rome. In the present-day city, it links the Via dei Pettinari (Rione of Regola) to the Piazza Trilussa in Trastevere. The bridge was commissioned by Pope Sixtus IV and was built between 1473 and 1479. Its architect, Baccio Pontelli, reused the piers of the ancient Roman Pons Aurelius, which had come to be known as the Pons Antoninus in Late Antiquity. That bridge was at least partially destroyed in the 770s.","props":{"ancientName":"Ponte Sisto"}},{"id":"pleiades:381893540","type":"bridge","name":"Ponte de Nossa Senhora da Guia","lat":41.769139778363915,"lng":-8.586180916918229,"startYear":0,"endYear":0,"source":"Pleiades","category":"infrastructure","qid":"Q10351438","description":"A first-century Roman bridge across the Rio Lima at Ponte de Lima that was rebuilt in part in the fourteenth century.","props":{"ancientName":"Ponte de Ponte de Lima"}},{"id":"pleiades:650057","type":"bridge","name":"Untitled","lat":36.058178,"lng":32.81928,"startYear":0,"endYear":0,"source":"Pleiades","category":"infrastructure","description":"An ancient place, cited: BAtlas 66 B4 unnamed bridge (N Anemurium)"},{"id":"pleiades:650058","type":"bridge","name":"Roman Bridge over Calycadnus at Seleucia ad Calycadnum","lat":36.3792432,"lng":33.9252471,"startYear":0,"endYear":0,"source":"Pleiades","category":"infrastructure","description":"Epigraphic evidence, uncovered in the 19th century, indicates the presence of this bridge, built at the direction of the Emperor Vespasian and his two sons Titus and Domitian by the Cilician governor L. Octavius ​​Memor in 77 or 78 CE. The inscription, now lost, was reportedly found during construction of the current Taşköprü (\"Stone Bridge\") in the early 1870s. This 19th century bridge is often referred to as the \"Roman Stone Bridge,\" despite its modernity."},{"id":"pleiades:650059","type":"bridge","name":"Untitled","lat":36.920171,"lng":34.925607,"startYear":0,"endYear":0,"source":"Pleiades","category":"infrastructure","description":"An ancient place, cited: BAtlas 66 F3 unnamed bridge (over Cydnus fl. at Tarsus)"},{"id":"pleiades:650060","type":"bridge","name":"Untitled","lat":36.75,"lng":35.25,"startYear":0,"endYear":0,"source":"Pleiades","category":"infrastructure","description":"An ancient place, cited: BAtlas 66 G3 unnamed bridge (over Pyramos fl. at Mallos)"},{"id":"pleiades:650061","type":"bridge","name":"Untitled","lat":36.75,"lng":35.25,"startYear":0,"endYear":0,"source":"Pleiades","category":"infrastructure","description":"An ancient place, cited: BAtlas 66 G3 unnamed bridge (over Pyramos fl. at Serretillis)"},{"id":"pleiades:650062","type":"bridge","name":"Taşköprü","lat":36.98626745,"lng":35.33503255,"startYear":0,"endYear":0,"source":"Pleiades","category":"infrastructure","qid":"Q1438450","description":"A large Roman bridge at Adana in the modern country of Turkey. It spans the Psaros/Sinarus/Koiranos river (modern Seyhan).","props":{"ancientName":"Taşköprü, Taskopru"}},{"id":"pleiades:6521634051202075","type":"bridge","name":"Unnamed Place","lat":36.3405,"lng":30.2075,"startYear":0,"endYear":0,"source":"Pleiades","category":"infrastructure","description":"An unnamed ancient place"},{"id":"pleiades:6521670651193656","type":"bridge","name":"Unnamed Place","lat":36.7065,"lng":29.3656,"startYear":0,"endYear":0,"source":"Pleiades","category":"infrastructure","description":"An unnamed ancient place"},{"id":"pleiades:6521703251216369","type":"bridge","name":"Unnamed Place","lat":37.0325,"lng":31.6369,"startYear":0,"endYear":0,"source":"Pleiades","category":"infrastructure","description":"An unnamed ancient place"},{"id":"pleiades:6521718641211799","type":"bridge","name":"Unnamed Place","lat":37.1864,"lng":31.1799,"startYear":0,"endYear":0,"source":"Pleiades","category":"infrastructure","description":"An unnamed ancient place"},{"id":"pleiades:6521720091211858","type":"bridge","name":"Unnamed Place","lat":37.2009,"lng":31.1858,"startYear":0,"endYear":0,"source":"Pleiades","category":"infrastructure","description":"An unnamed ancient place"},{"id":"pleiades:6521737251212163","type":"bridge","name":"Unnamed Place","lat":37.3725,"lng":31.2163,"startYear":0,"endYear":0,"source":"Pleiades","category":"infrastructure","description":"An unnamed ancient place"},{"id":"pleiades:6521781351211310","type":"bridge","name":"Unnamed Place","lat":37.8135,"lng":31.131,"startYear":0,"endYear":0,"source":"Pleiades","category":"infrastructure","description":"An unnamed ancient place"},{"id":"pleiades:6521786521191321","type":"bridge","name":"Unnamed Place","lat":37.8652,"lng":29.1321,"startYear":0,"endYear":0,"source":"Pleiades","category":"infrastructure","description":"An unnamed ancient place"},{"id":"pleiades:6521790061185606","type":"bridge","name":"Unnamed Place","lat":37.9006,"lng":28.5606,"startYear":0,"endYear":0,"source":"Pleiades","category":"infrastructure","description":"An unnamed ancient place"},{"id":"pleiades:234790083","type":"bridge","name":"Ponte del Diavolo","lat":42.27050469183873,"lng":12.027987053409214,"startYear":0,"endYear":0,"source":"Pleiades","category":"infrastructure","description":"A bridge in the territory of Blera known as the \"Devil's Bridge\"."},{"id":"pleiades:965004100","type":"bridge","name":"Ponte di Pioraco","lat":43.179198150000005,"lng":12.984748849999999,"startYear":0,"endYear":0,"source":"Pleiades","category":"infrastructure","qid":"Q2103768","description":"A single-arch Roman bridge built during the principate of Augustus."},{"id":"pleiades:112047227","type":"bridge","name":"Ponte Funicchio","lat":42.4629243,"lng":12.1198557,"startYear":0,"endYear":0,"source":"Pleiades","category":"infrastructure","description":"A Roman bridge dating to the late second century B.C."},{"id":"pleiades:967101988","type":"bridge","name":"Ponte Altinate","lat":45.4089491,"lng":11.8784996,"startYear":0,"endYear":0,"source":"Pleiades","category":"infrastructure","qid":"Q2103692","description":"A late Republican Roman segmented arch bridge in Padua, Italy.","props":{"ancientName":"Ponte Altinate"}},{"id":"pleiades:443942","type":"bridge","name":"Unnamed bridge group","lat":41.152484,"lng":15.087531,"startYear":0,"endYear":0,"source":"Pleiades","category":"infrastructure","description":"An ancient place, cited: BAtlas 45 A2 unnamed bridge group (between Forum Novum and Aequum Tuticum)"},{"id":"pleiades:443943","type":"bridge","name":"Unnamed bridge","lat":41.07225,"lng":14.939979,"startYear":0,"endYear":0,"source":"Pleiades","category":"infrastructure","description":"An ancient bridge, known as \"Ponte Rotto\", over the Calore Irpino river along the Via Appia between Beneventum and Aeclanum."},{"id":"pleiades:443944","type":"bridge","name":"Untitled","lat":41.783219,"lng":15.223583,"startYear":0,"endYear":0,"source":"Pleiades","category":"infrastructure","description":"An ancient place, cited: BAtlas 45 B1 unnamed bridge (over R. Fortore, at Teanum Apulum)"},{"id":"pleiades:443945","type":"bridge","name":"Ponte Rotto","lat":41.25,"lng":15.25,"startYear":0,"endYear":0,"source":"Pleiades","category":"infrastructure","description":"An ancient bridge over the Cervaro river between Aecae and Herdoniae on the Via Traiana."},{"id":"pleiades:443946","type":"bridge","name":"Ponte di Santo Spirito","lat":41.225343349999996,"lng":15.042872950000001,"startYear":0,"endYear":0,"source":"Pleiades","category":"infrastructure","description":"A Roman bridge over Torrente della Ginestra near Aequum Tuticum along the Via Traiana."},{"id":"pleiades:443947","type":"bridge","name":"Ponte San Cono, Buccino","lat":40.6077911,"lng":15.3906017,"startYear":0,"endYear":0,"source":"Pleiades","category":"infrastructure","description":"A Roman bridge, perhaps originally dating to the first century BC, was substantially transformed to carry a provincial road in 1872."},{"id":"pleiades:443948","type":"bridge","name":"Untitled","lat":40.75,"lng":15.25,"startYear":0,"endYear":0,"source":"Pleiades","category":"infrastructure","description":"An ancient place, cited: BAtlas 45 B3 unnamed bridge (over R. Tanagro, at Ad Tana(g)rem)"},{"id":"pleiades:443949","type":"bridge","name":"Roman bridge","lat":40.643864,"lng":15.483029,"startYear":0,"endYear":0,"source":"Pleiades","category":"infrastructure","description":"A Roman bridge over the river Platano, east of Volcei known alternately as Ponte del Diavolo/Ponte di Annibale."},{"id":"pleiades:443950","type":"bridge","name":"Untitled","lat":41.533091,"lng":15.542419,"startYear":0,"endYear":0,"source":"Pleiades","category":"infrastructure","description":"An ancient place, cited: BAtlas 45 C1 unnamed bridge (over R. Celone at Arpi)"},{"id":"pleiades:443951","type":"bridge","name":"Untitled","lat":41.25,"lng":15.75,"startYear":0,"endYear":0,"source":"Pleiades","category":"infrastructure","description":"An ancient place, cited: BAtlas 45 C2 unnamed bridge (over R. Ofanto, between Herdoniae and Venusia)"},{"id":"pleiades:443952","type":"bridge","name":"Untitled","lat":41.25,"lng":15.75,"startYear":0,"endYear":0,"source":"Pleiades","category":"infrastructure","description":"An ancient place, cited: BAtlas 45 C2 unnamed bridge (over R. Carapelle at Ausculum)"},{"id":"pleiades:443953","type":"bridge","name":"Untitled","lat":41.25,"lng":15.75,"startYear":0,"endYear":0,"source":"Pleiades","category":"infrastructure","description":"An ancient place, cited: BAtlas 45 C2 unnamed bridge (over R. Carapelle at Herdoniae on Via Traiana)"},{"id":"pleiades:443954","type":"bridge","name":"Ponte S. Venere","lat":41.074168,"lng":15.545515049999999,"startYear":0,"endYear":0,"source":"Pleiades","category":"infrastructure","description":"A much-repaired medieval bridge crossing the Aufidus (modern Ofanto) river. Long a traditional candidate location for the \"Pons Aufidi\" shown on the Peutinger map (thus BAtlas), recent survey work has found no evidence in the area consistent with a Roman-era bridge. The Pietra Dell'Oglio bridge (further south on the Ofanto) is of Roman date and now a more likely candidate. The Ponte S. Venere remains in use today for the Strada Statale 303."},{"id":"pleiades:443955","type":"bridge","name":"Untitled","lat":40.25,"lng":15.75,"startYear":0,"endYear":0,"source":"Pleiades","category":"infrastructure","description":"An ancient place, cited: BAtlas 45 C4 unnamed bridge (over R. Buco, W Tegianum)"},{"id":"pleiades:443956","type":"bridge","name":"Untitled","lat":40.25,"lng":15.75,"startYear":0,"endYear":0,"source":"Pleiades","category":"infrastructure","description":"An ancient place, cited: BAtlas 45 C4 unnamed bridge (over R. Maglia, near Grumentum)"},{"id":"pleiades:443957","type":"bridge","name":"Untitled","lat":40.25,"lng":15.75,"startYear":0,"endYear":0,"source":"Pleiades","category":"infrastructure","description":"An ancient place, cited: BAtlas 45 C4 unnamed bridge (Ponte Silla, over R. Tanagro, SE Tegianum)"},{"id":"pleiades:443958","type":"bridge","name":"Unnamed Roman bridge near Canusium","lat":41.22949429036214,"lng":16.020115032039406,"startYear":0,"endYear":0,"source":"Pleiades","category":"infrastructure","description":"An ancient Roman bridge over the River Ofanto, near Canusium on the Via Traiana."},{"id":"pleiades:443959","type":"bridge","name":"Untitled","lat":40.271335,"lng":16.042075,"startYear":0,"endYear":0,"source":"Pleiades","category":"infrastructure","description":"An ancient place, cited: BAtlas 45 D4 unnamed bridge (over R. Agri, near Armento)"},{"id":"pleiades:453757","type":"bridge","name":"Ponte Mormanno","lat":39.88082271577492,"lng":15.987361241903326,"startYear":0,"endYear":0,"source":"Pleiades","category":"infrastructure","description":"An ancient place, cited: BAtlas 46 C2 unnamed bridge (NE Laos, at Mormanno)"},{"id":"pleiades:453758","type":"bridge","name":"Untitled","lat":39.740009,"lng":16.248454,"startYear":0,"endYear":0,"source":"Pleiades","category":"infrastructure","description":"An ancient place, cited: BAtlas 46 D2 unnamed bridge (NW Camerelle, over R. Coscile)"},{"id":"pleiades:453759","type":"bridge","name":"Untitled","lat":39.132931750811665,"lng":16.274567050389432,"startYear":0,"endYear":0,"source":"Pleiades","category":"infrastructure","description":"An ancient place, cited: BAtlas 46 D3 unnamed bridge (N Ad Fluvium Sabutum, over R. Savuto)"},{"id":"pleiades:762407057","type":"bridge","name":"Puentecillas","lat":42.010129198598825,"lng":-4.539550236937215,"startYear":0,"endYear":0,"source":"Pleiades","category":"infrastructure","qid":"Q6091688","description":"A bridge of Roman origin in Palencia, Spain, that was remodeled in the fifteenth century."},{"id":"pleiades:204230210","type":"bridge","name":"Oenoanda bridge","lat":36.825274050000004,"lng":29.562047749999998,"startYear":0,"endYear":0,"source":"Pleiades","category":"infrastructure","qid":"Q996029","description":"An Ottoman bridge at Oinoanda on the Xanthos river. A Latin inscription found nearby suggests an earlier Roman bridge existed at the site."},{"id":"pleiades:939442082","type":"bridge","name":"Villa del Río Roman bridge","lat":37.9872355,"lng":-4.2718771,"startYear":0,"endYear":0,"source":"Pleiades","category":"infrastructure","description":"A Roman bridge along the Via Augusta."},{"id":"pleiades:965247252","type":"bridge","name":"Arapsu Bridge","lat":36.880906,"lng":30.659346,"startYear":0,"endYear":0,"source":"Pleiades","category":"infrastructure","qid":"Q626172","description":"A Roman bridge near Antalya, Turkey."},{"id":"pleiades:581364526","type":"bridge","name":"Band-e Kaisar","lat":32.0533241,"lng":48.8485043,"startYear":0,"endYear":0,"source":"Pleiades","category":"infrastructure","description":"A third century AD Roman bridge located near Shushtar, Iran."},{"id":"pleiades:131160567","type":"bridge","name":"Pedroches Roman Bridge","lat":37.90410427532587,"lng":-4.756237931662048,"startYear":0,"endYear":0,"source":"Pleiades","category":"infrastructure","description":"A Roman bridge over the arroyo Pedroches near Corduba, Spain. The bridge lies along the ancient road to Augusta Emerita."},{"id":"pleiades:746490963","type":"bridge","name":"Ponte di Traiano","lat":41.5033601,"lng":12.9505568,"startYear":0,"endYear":0,"source":"Pleiades","category":"infrastructure","description":"A Trajanic bridge along the Via Appia that crosses the fosso Striscia."},{"id":"pleiades:147468860","type":"bridge","name":"Ponte Acque Alte","lat":41.55455267446872,"lng":12.8843378914642,"startYear":0,"endYear":0,"source":"Pleiades","category":"infrastructure","qid":"Q131426565","description":"A Roman bridge along the Via Appia near Cisterna di Latina."},{"id":"pleiades:792786060","type":"bridge","name":"Catribana Roman bridge","lat":38.8889826659966,"lng":-9.413560248733466,"startYear":0,"endYear":0,"source":"Pleiades","category":"infrastructure","qid":"Q17389990","description":"A restored (2019) bridge located near Sintra, Portugal."},{"id":"pleiades:257120882","type":"bridge","name":"Ponte Ezzu","lat":40.614237436031104,"lng":8.978850973293817,"startYear":0,"endYear":0,"source":"Pleiades","category":"infrastructure","qid":"Q3907939","description":"Ponte Ezzu or Pont'Ezzu is a Roman bridge of the first century A.D. that crosses the Rio Mannu near Ozieri, Sardinia.","props":{"ancientName":"Pont'Ezzu"}},{"id":"pleiades:275500868","type":"bridge","name":"Ponte romano di Santa Giusta","lat":39.8695884,"lng":8.6090506,"startYear":0,"endYear":0,"source":"Pleiades","category":"infrastructure","description":"A Roman bridge dating between the first century BC and the first century AD."},{"id":"pleiades:710429513","type":"bridge","name":"Ponte Etrusco, Gallese","lat":42.367188,"lng":12.44861,"startYear":0,"endYear":0,"source":"Pleiades","category":"infrastructure","description":"The so-called \"Ponte Etrusco\" is an ancient bridge located near Gallese in the province of Viterbo, Italy."},{"id":"pleiades:710429514","type":"bridge","name":"Ponte Nepesino","lat":42.2168642,"lng":12.3384718,"startYear":0,"endYear":0,"source":"Pleiades","category":"infrastructure","description":"A bridge along the Via Amerina, just south of ancient Nepet (modern Nepi in Italy)"},{"id":"pleiades:922890940","type":"bridge","name":"Ponte Romano di Parco dei Medici","lat":41.81658279103911,"lng":12.414368728248151,"startYear":0,"endYear":0,"source":"Pleiades","category":"infrastructure","qid":"Q131914537","description":"The ruins of a second-century A.D. Roman bridge at Magliana Vecchia.","props":{"ancientName":"Ponte Romano di Parco deii Medici"}},{"id":"pleiades:960655569","type":"bridge","name":"Ponte Sanguinario (Narni)","lat":42.4759459,"lng":12.5159061,"startYear":0,"endYear":0,"source":"Pleiades","category":"infrastructure","qid":"Q55171768","description":"A Roman bridge located near Narni, Italy."},{"id":"pleiades:600982","type":"bridge","name":"Untitled","lat":37.712122,"lng":26.763955,"startYear":0,"endYear":0,"source":"Pleiades","category":"infrastructure","description":"An ancient place, cited: BAtlas 61 D2 unnamed bridge (at Neokhorion on Samos)"},{"id":"pleiades:600983","type":"bridge","name":"Untitled","lat":36.693055,"lng":27.47577,"startYear":0,"endYear":0,"source":"Pleiades","category":"infrastructure","description":"An ancient place, cited: BAtlas 61 E4 unnamed bridge (near Triopion)"},{"id":"pleiades:600984","type":"bridge","name":"Untitled","lat":37.03976,"lng":27.952285,"startYear":0,"endYear":0,"source":"Pleiades","category":"infrastructure","description":"An ancient place, cited: BAtlas 61 F3 unnamed bridge (at Keramos)"},{"id":"pleiades:600985","type":"bridge","name":"Unnamed bridge","lat":37.90436,"lng":28.57441,"startYear":0,"endYear":0,"source":"Pleiades","category":"infrastructure","description":"An ancient bridge located near Antiochia ad Maeandrum."},{"id":"pleiades:610797","type":"bridge","name":"Untitled","lat":38.75,"lng":28.75,"startYear":0,"endYear":0,"source":"Pleiades","category":"infrastructure","description":"An ancient place, cited: BAtlas 62 A4 unnamed bridge (over Hermos fl., N *Dima, *Kerbia)"},{"id":"pleiades:610798","type":"bridge","name":"Unnamed bridge","lat":38.75,"lng":28.75,"startYear":0,"endYear":0,"source":"Pleiades","category":"infrastructure","description":"An unnamed bridge that crosses the Hermos River to the southwest of Thermai Theseos near Hamamlar."},{"id":"pleiades:610799","type":"bridge","name":"Untitled","lat":38.174106,"lng":29.735575,"startYear":0,"endYear":0,"source":"Pleiades","category":"infrastructure","description":"An ancient place, cited: BAtlas 62 C5 unnamed bridge (SW Eumeneia, at Akköprü)"},{"id":"pleiades:610800","type":"bridge","name":"Untitled","lat":39.63385,"lng":30.220066,"startYear":0,"endYear":0,"source":"Pleiades","category":"infrastructure","description":"An ancient place, cited: BAtlas 62 D2 unnamed bridge (SW Dorylaion, at Koğanlu Köprü)"},{"id":"pleiades:610801","type":"bridge","name":"Untitled","lat":39.25,"lng":30.25,"startYear":0,"endYear":0,"source":"Pleiades","category":"infrastructure","description":"An ancient place, cited: BAtlas 62 D3 unnamed bridge (NW Soa, at Alibey Köy)"},{"id":"pleiades:610802","type":"bridge","name":"Untitled","lat":39.25,"lng":30.25,"startYear":0,"endYear":0,"source":"Pleiades","category":"infrastructure","description":"An ancient place, cited: BAtlas 62 D3 unnamed bridge (SE Kotiaeion, near Ağaç Köy)"},