[
  {
    "id": "press:press-001",
    "type": "press",
    "subtype": "oil",
    "name": "Volubilis Oil Press Complex",
    "lat": 34.0726,
    "lng": -5.5544,
    "startYear": 40,
    "endYear": 280,
    "source": "OxREP",
    "category": "production",
    "description": "Major olive oil production center in Roman Mauretania with over 50 identified presses"
  },
  {
    "id": "press:press-002",
    "type": "press",
    "subtype": "oil",
    "name": "Dougga Oil Press",
    "lat": 36.4225,
    "lng": 9.2194,
    "startYear": 100,
    "endYear": 400,
    "source": "OxREP",
    "category": "production",
    "description": "Olive oil press installation at the UNESCO World Heritage site of Thugga",
    "qid": "Q32378"
  },
  {
    "id": "press:press-003",
    "type": "press",
    "subtype": "oil",
    "name": "Sbeitla Oil Press Complex",
    "lat": 35.2286,
    "lng": 8.6331,
    "startYear": 150,
    "endYear": 400,
    "source": "OxREP",
    "category": "production",
    "description": "Industrial-scale olive press complex at Sufetula in the Tunisian steppe"
  },
  {
    "id": "press:press-004",
    "type": "press",
    "subtype": "oil",
    "name": "El Jem Oil Press",
    "lat": 35.2961,
    "lng": 10.7069,
    "startYear": 100,
    "endYear": 350,
    "source": "OxREP",
    "category": "production",
    "description": "Oil production facility near Thysdrus, center of the prosperous Sahel olive region"
  },
  {
    "id": "press:press-005",
    "type": "press",
    "subtype": "oil",
    "name": "Thuburbo Majus Oil Press",
    "lat": 36.3964,
    "lng": 9.9058,
    "startYear": 50,
    "endYear": 350,
    "source": "OxREP",
    "category": "production",
    "description": "Multiple olive presses in the agricultural hinterland of Carthage"
  },
  {
    "id": "press:press-006",
    "type": "press",
    "subtype": "oil",
    "name": "Uthina Oil Press",
    "lat": 36.6072,
    "lng": 10.1717,
    "startYear": 75,
    "endYear": 300,
    "source": "OxREP",
    "category": "production",
    "description": "Olive oil installation at Oudna, supplying the Carthaginian market",
    "qid": "Q269424"
  },
  {
    "id": "press:press-007",
    "type": "press",
    "subtype": "oil",
    "name": "Makthar Oil Press",
    "lat": 35.8556,
    "lng": 9.2056,
    "startYear": 100,
    "endYear": 400,
    "source": "OxREP",
    "category": "production",
    "description": "Press complex at Mactaris in the high steppe of central Tunisia"
  },
  {
    "id": "press:press-008",
    "type": "press",
    "subtype": "oil",
    "name": "Henchir el-Kasbat Oil Press",
    "lat": 35.65,
    "lng": 8.95,
    "startYear": 150,
    "endYear": 380,
    "source": "OxREP",
    "category": "production",
    "description": "Rural oil production estate in the Tunisian high steppe"
  },
  {
    "id": "press:press-009",
    "type": "press",
    "subtype": "oil",
    "name": "Kasserine Oil Press Complex",
    "lat": 35.1672,
    "lng": 8.8369,
    "startYear": 100,
    "endYear": 400,
    "source": "OxREP",
    "category": "production",
    "description": "Large-scale olive oil production in the Cillium region of Byzacena",
    "qid": "Q852735"
  },
  {
    "id": "press:press-010",
    "type": "press",
    "subtype": "oil",
    "name": "Sousse Sahel Oil Press",
    "lat": 35.8256,
    "lng": 10.6369,
    "startYear": 50,
    "endYear": 350,
    "source": "OxREP",
    "category": "production",
    "description": "Coastal oil press in the Hadrumetum region, hub of Sahel olive production",
    "qid": "Q11942400"
  },
  {
    "id": "press:press-011",
    "type": "press",
    "subtype": "oil",
    "name": "Lambaesis Oil Press",
    "lat": 35.4917,
    "lng": 6.2556,
    "startYear": 120,
    "endYear": 350,
    "source": "OxREP",
    "category": "production",
    "description": "Oil press near the legionary fortress of Lambaesis in Numidia",
    "qid": "Q23846130"
  },
  {
    "id": "press:press-012",
    "type": "press",
    "subtype": "oil",
    "name": "Tebessa Oil Press",
    "lat": 35.4042,
    "lng": 8.1244,
    "startYear": 100,
    "endYear": 380,
    "source": "OxREP",
    "category": "production",
    "description": "Olive press at Theveste, an important Numidian agricultural center"
  },
  {
    "id": "press:press-013",
    "type": "press",
    "subtype": "oil",
    "name": "Djemila Oil Press",
    "lat": 36.3214,
    "lng": 5.7358,
    "startYear": 100,
    "endYear": 400,
    "source": "OxREP",
    "category": "production",
    "description": "Oil production facility at Cuicul, one of the best-preserved Roman towns in Algeria",
    "qid": "Q457362"
  },
  {
    "id": "press:press-014",
    "type": "press",
    "subtype": "oil",
    "name": "Timgad Oil Press",
    "lat": 35.485,
    "lng": 6.4686,
    "startYear": 100,
    "endYear": 400,
    "source": "OxREP",
    "category": "production",
    "description": "Olive press at the Trajanic colony of Thamugadi in Numidia",
    "qid": "Q23846113"
  },
  {
    "id": "press:press-015",
    "type": "press",
    "subtype": "oil",
    "name": "Tipasa Oil Press",
    "lat": 36.5906,
    "lng": 2.4472,
    "startYear": 50,
    "endYear": 350,
    "source": "OxREP",
    "category": "production",
    "description": "Coastal olive press at Tipasa in Mauretania Caesariensis",
    "qid": "Q65643680"
  },
  {
    "id": "press:press-016",
    "type": "press",
    "subtype": "oil",
    "name": "Cherchell Oil Press",
    "lat": 36.6064,
    "lng": 2.1928,
    "startYear": -25,
    "endYear": 350,
    "source": "OxREP",
    "category": "production",
    "description": "Oil production near Caesarea, capital of Mauretania Caesariensis"
  },
  {
    "id": "press:press-017",
    "type": "press",
    "subtype": "oil",
    "name": "S\u00e9tif Oil Press",
    "lat": 36.1898,
    "lng": 5.4108,
    "startYear": 100,
    "endYear": 400,
    "source": "OxREP",
    "category": "production",
    "description": "Olive press at Sitifis, center of a rich agricultural region in eastern Algeria"
  },
  {
    "id": "press:press-018",
    "type": "press",
    "subtype": "oil",
    "name": "Leptis Magna Oil Press",
    "lat": 32.6381,
    "lng": 14.2886,
    "startYear": -50,
    "endYear": 350,
    "source": "OxREP",
    "category": "production",
    "description": "Major olive oil production in the hinterland of Leptis Magna, Tripolitania",
    "qid": "Q82075982"
  },
  {
    "id": "press:press-019",
    "type": "press",
    "subtype": "oil",
    "name": "Ghirza Oil Press",
    "lat": 31.6833,
    "lng": 14.6833,
    "startYear": 100,
    "endYear": 400,
    "source": "OxREP",
    "category": "production",
    "description": "Desert-edge olive press complex in the pre-Saharan zone of Tripolitania"
  },
  {
    "id": "press:press-020",
    "type": "press",
    "subtype": "oil",
    "name": "Zliten Oil Press",
    "lat": 32.4672,
    "lng": 14.5669,
    "startYear": 50,
    "endYear": 350,
    "source": "OxREP",
    "category": "production",
    "description": "Olive press in the rich agricultural territory between Leptis and Oea"
  },
  {
    "id": "press:press-021",
    "type": "press",
    "subtype": "oil",
    "name": "Sabratha Oil Press",
    "lat": 32.7933,
    "lng": 12.4842,
    "startYear": -50,
    "endYear": 300,
    "source": "OxREP",
    "category": "production",
    "description": "Olive press at Sabratha, part of the Tripolitanian oil export economy",
    "qid": "Q82074300"
  },
  {
    "id": "press:press-022",
    "type": "press",
    "subtype": "oil",
    "name": "Tarhuna Oil Press",
    "lat": 32.4353,
    "lng": 13.6331,
    "startYear": 100,
    "endYear": 350,
    "source": "OxREP",
    "category": "production",
    "description": "Highland olive press in the Gebel region of Tripolitania",
    "qid": "Q1642670"
  },
  {
    "id": "press:press-023",
    "type": "press",
    "subtype": "oil",
    "name": "Bulla Regia Oil Press",
    "lat": 36.5583,
    "lng": 8.7556,
    "startYear": 50,
    "endYear": 400,
    "source": "OxREP",
    "category": "production",
    "description": "Olive press at Bulla Regia, famed for its underground villas, in the Medjerda valley",
    "qid": "Q127429799"
  },
  {
    "id": "press:press-024",
    "type": "press",
    "subtype": "oil",
    "name": "Zama Regia Oil Press",
    "lat": 36.075,
    "lng": 9.4389,
    "startYear": 50,
    "endYear": 350,
    "source": "OxREP",
    "category": "production",
    "description": "Olive press near the site of Hannibal's defeat, in fertile northern Tunisia"
  },
  {
    "id": "press:press-025",
    "type": "press",
    "subtype": "oil",
    "name": "Ha\u00efdra Oil Press",
    "lat": 35.5678,
    "lng": 8.4594,
    "startYear": 100,
    "endYear": 400,
    "source": "OxREP",
    "category": "production",
    "description": "Oil production at Ammaedara on the Tunisian-Algerian border",
    "qid": "Q17561462"
  },
  {
    "id": "press:press-026",
    "type": "press",
    "subtype": "oil",
    "name": "Meninx Oil Press (Djerba)",
    "lat": 33.7833,
    "lng": 10.85,
    "startYear": -50,
    "endYear": 350,
    "source": "OxREP",
    "category": "production",
    "description": "Olive oil press on the island of Djerba, ancient Meninx"
  },
  {
    "id": "press:press-027",
    "type": "press",
    "subtype": "oil",
    "name": "Thala Oil Press",
    "lat": 35.5722,
    "lng": 8.6694,
    "startYear": 100,
    "endYear": 380,
    "source": "OxREP",
    "category": "production",
    "description": "Upland olive press in the Thala district of western Tunisia",
    "qid": "Q136368801"
  },
  {
    "id": "press:press-028",
    "type": "press",
    "subtype": "oil",
    "name": "Mustis Oil Press",
    "lat": 36.3333,
    "lng": 9.1667,
    "startYear": 50,
    "endYear": 350,
    "source": "OxREP",
    "category": "production",
    "description": "Olive press at Mustis in the upper Medjerda valley"
  },
  {
    "id": "press:press-029",
    "type": "press",
    "subtype": "oil",
    "name": "Sicca Veneria Oil Press",
    "lat": 36.2764,
    "lng": 8.7133,
    "startYear": 50,
    "endYear": 350,
    "source": "OxREP",
    "category": "production",
    "description": "Oil production at Le Kef, ancient Sicca Veneria, in northwestern Tunisia"
  },
  {
    "id": "press:press-030",
    "type": "press",
    "subtype": "oil",
    "name": "Sufes Oil Press",
    "lat": 35.5,
    "lng": 9.0833,
    "startYear": 100,
    "endYear": 400,
    "source": "OxREP",
    "category": "production",
    "description": "Rural olive press in the Sufes district of central Tunisia"
  },
  {
    "id": "press:press-031",
    "type": "press",
    "subtype": "oil",
    "name": "Thuburnica Oil Press",
    "lat": 36.5167,
    "lng": 8.45,
    "startYear": 100,
    "endYear": 380,
    "source": "OxREP",
    "category": "production",
    "description": "Olive press at Thuburnica near the Algerian border",
    "qid": "Q3526009"
  },
  {
    "id": "press:press-032",
    "type": "press",
    "subtype": "oil",
    "name": "Madauros Oil Press",
    "lat": 36.3833,
    "lng": 7.6833,
    "startYear": 100,
    "endYear": 400,
    "source": "OxREP",
    "category": "production",
    "description": "Oil production at M'Daourouch, birthplace of Apuleius"
  },
  {
    "id": "press:press-033",
    "type": "press",
    "subtype": "oil",
    "name": "Hippo Regius Oil Press",
    "lat": 36.8833,
    "lng": 7.75,
    "startYear": 50,
    "endYear": 400,
    "source": "OxREP",
    "category": "production",
    "description": "Olive oil production near Annaba, the see of St. Augustine"
  },
  {
    "id": "press:press-034",
    "type": "press",
    "subtype": "oil",
    "name": "Calama Oil Press",
    "lat": 36.4667,
    "lng": 7.4333,
    "startYear": 100,
    "endYear": 380,
    "source": "OxREP",
    "category": "production",
    "description": "Press installation at Guelma, ancient Calama in Numidia"
  },
  {
    "id": "press:press-035",
    "type": "press",
    "subtype": "oil",
    "name": "Thugga Countryside Oil Press",
    "lat": 36.4,
    "lng": 9.25,
    "startYear": 100,
    "endYear": 400,
    "source": "OxREP",
    "category": "production",
    "description": "Rural oil press in the fertile countryside around Dougga"
  },
  {
    "id": "press:press-036",
    "type": "press",
    "subtype": "oil",
    "name": "Uchi Maius Oil Press",
    "lat": 36.3833,
    "lng": 9.0833,
    "startYear": 50,
    "endYear": 400,
    "source": "OxREP",
    "category": "production",
    "description": "Extensive olive press installations at Henchir ed-Douamis"
  },
  {
    "id": "press:press-037",
    "type": "press",
    "subtype": "oil",
    "name": "Aggar Oil Press",
    "lat": 35.4667,
    "lng": 9.3333,
    "startYear": 100,
    "endYear": 350,
    "source": "OxREP",
    "category": "production",
    "description": "Oil press at Aggar in the olive-rich Byzacena region"
  },
  {
    "id": "press:press-038",
    "type": "press",
    "subtype": "oil",
    "name": "Mactar South Oil Press",
    "lat": 35.82,
    "lng": 9.19,
    "startYear": 150,
    "endYear": 400,
    "source": "OxREP",
    "category": "production",
    "description": "Secondary press site south of Mactaris in the Tunisian steppe"
  },
  {
    "id": "press:press-039",
    "type": "press",
    "subtype": "oil",
    "name": "Ksar Lemsa Oil Press",
    "lat": 35.925,
    "lng": 9.55,
    "startYear": 100,
    "endYear": 380,
    "source": "OxREP",
    "category": "production",
    "description": "Hilltop oil press at Limisa, overlooking fertile plains"
  },
  {
    "id": "press:press-040",
    "type": "press",
    "subtype": "oil",
    "name": "Bir Mcherga Oil Press",
    "lat": 36.5,
    "lng": 9.8833,
    "startYear": 50,
    "endYear": 350,
    "source": "OxREP",
    "category": "production",
    "description": "Rural olive press in the lower Medjerda agricultural zone"
  },
  {
    "id": "press:press-041",
    "type": "press",
    "subtype": "oil",
    "name": "Thuburbo Minus Oil Press",
    "lat": 36.8167,
    "lng": 9.8833,
    "startYear": 50,
    "endYear": 300,
    "source": "OxREP",
    "category": "production",
    "description": "Oil press at Tebourba, in the rich farmland of the lower Medjerda valley"
  },
  {
    "id": "press:press-042",
    "type": "press",
    "subtype": "oil",
    "name": "Lepcis Magna Rural Press",
    "lat": 32.6,
    "lng": 14.3333,
    "startYear": 50,
    "endYear": 350,
    "source": "OxREP",
    "category": "production",
    "description": "Countryside olive press in the agricultural hinterland of Lepcis Magna"
  },
  {
    "id": "press:press-043",
    "type": "press",
    "subtype": "oil",
    "name": "Wadi Sofeggin Oil Press",
    "lat": 31.5,
    "lng": 14,
    "startYear": 100,
    "endYear": 400,
    "source": "OxREP",
    "category": "production",
    "description": "Desert-edge press in the wadi systems of the Tripolitanian pre-desert"
  },
  {
    "id": "press:press-044",
    "type": "press",
    "subtype": "oil",
    "name": "Thugga West Oil Press",
    "lat": 36.43,
    "lng": 9.17,
    "startYear": 100,
    "endYear": 380,
    "source": "OxREP",
    "category": "production",
    "description": "Western rural oil press in the Thugga agricultural territory"
  },
  {
    "id": "press:press-045",
    "type": "press",
    "subtype": "oil",
    "name": "Utica Oil Press",
    "lat": 37.0556,
    "lng": 10.0611,
    "startYear": -100,
    "endYear": 300,
    "source": "OxREP",
    "category": "production",
    "description": "Ancient oil press at one of the oldest Phoenician-Roman cities in Africa",
    "qid": "Q166523"
  },
  {
    "id": "press:press-046",
    "type": "press",
    "subtype": "oil",
    "name": "Carthage Hinterland Oil Press",
    "lat": 36.8,
    "lng": 10.2,
    "startYear": -50,
    "endYear": 350,
    "source": "OxREP",
    "category": "production",
    "description": "Oil production in the fertile Cap Bon region near Carthage"
  },
  {
    "id": "press:press-047",
    "type": "press",
    "subtype": "oil",
    "name": "Gigthis Oil Press",
    "lat": 33.5167,
    "lng": 10.4,
    "startYear": 50,
    "endYear": 350,
    "source": "OxREP",
    "category": "production",
    "description": "Southern Tunisian oil press at Bou Grara, near the Gulf of Bou Grara"
  },
  {
    "id": "press:press-048",
    "type": "press",
    "subtype": "oil",
    "name": "Althiburos Oil Press",
    "lat": 35.7333,
    "lng": 8.7167,
    "startYear": 100,
    "endYear": 380,
    "source": "OxREP",
    "category": "production",
    "description": "Olive press at Medeina, ancient Althiburos, in western Tunisia"
  },
  {
    "id": "press:press-049",
    "type": "press",
    "subtype": "oil",
    "name": "Verecunda Oil Press",
    "lat": 35.5667,
    "lng": 6.2,
    "startYear": 100,
    "endYear": 350,
    "source": "OxREP",
    "category": "production",
    "description": "Oil press at Marcouna near Lambaesis in the Aur\u00e8s foothills"
  },
  {
    "id": "press:press-050",
    "type": "press",
    "subtype": "oil",
    "name": "Diana Veteranorum Oil Press",
    "lat": 35.6333,
    "lng": 5.8667,
    "startYear": 100,
    "endYear": 380,
    "source": "OxREP",
    "category": "production",
    "description": "Olive press at Zana, a veterans' colony in northern Numidia"
  },
  {
    "id": "press:press-051",
    "type": "press",
    "subtype": "oil",
    "name": "Capernaum Oil Press",
    "lat": 32.8814,
    "lng": 35.5753,
    "startYear": -50,
    "endYear": 400,
    "source": "Pleiades",
    "category": "production",
    "description": "Olive press at the Sea of Galilee village, mentioned in the Gospels"
  },
  {
    "id": "press:press-052",
    "type": "press",
    "subtype": "oil",
    "name": "Maresha Oil Press",
    "lat": 31.5931,
    "lng": 34.8972,
    "startYear": -200,
    "endYear": 100,
    "source": "Pleiades",
    "category": "production",
    "description": "Subterranean olive press complex in the Shephelah lowlands of Judea"
  },
  {
    "id": "press:press-053",
    "type": "press",
    "subtype": "oil",
    "name": "Gamla Oil Press",
    "lat": 32.8997,
    "lng": 35.7411,
    "startYear": -100,
    "endYear": 67,
    "source": "Pleiades",
    "category": "production",
    "description": "Oil press at the fortified town of Gamla in the Golan Heights"
  },
  {
    "id": "press:press-054",
    "type": "press",
    "subtype": "oil",
    "name": "Ein Gedi Oil Press",
    "lat": 31.4617,
    "lng": 35.3867,
    "startYear": -50,
    "endYear": 350,
    "source": "Pleiades",
    "category": "production",
    "description": "Balsam and olive press at the Dead Sea oasis of Ein Gedi",
    "qid": "Q25489001"
  },
  {
    "id": "press:press-055",
    "type": "press",
    "subtype": "oil",
    "name": "Tel Miqne-Ekron Oil Press",
    "lat": 31.7797,
    "lng": 34.8519,
    "startYear": -200,
    "endYear": 100,
    "source": "Pleiades",
    "category": "production",
    "description": "Massive olive oil production center with over 100 presses in antiquity"
  },
  {
    "id": "press:press-056",
    "type": "press",
    "subtype": "oil",
    "name": "Bethsaida Oil Press",
    "lat": 32.9083,
    "lng": 35.6306,
    "startYear": -100,
    "endYear": 200,
    "source": "Pleiades",
    "category": "production",
    "description": "Olive press at the fishing village of Bethsaida near the Sea of Galilee"
  },
  {
    "id": "press:press-057",
    "type": "press",
    "subtype": "wine",
    "name": "Sepphoris Wine Press",
    "lat": 32.7522,
    "lng": 35.2783,
    "startYear": -50,
    "endYear": 350,
    "source": "Pleiades",
    "category": "production",
    "description": "Wine press at Sepphoris (Zippori), capital of Galilee and center of wine production",
    "qid": "Q1132798"
  },
  {
    "id": "press:press-058",
    "type": "press",
    "subtype": "oil",
    "name": "Jerash Oil Press",
    "lat": 32.2747,
    "lng": 35.8914,
    "startYear": 50,
    "endYear": 400,
    "source": "Pleiades",
    "category": "production",
    "description": "Olive oil press at Gerasa, one of the Decapolis cities",
    "qid": "Q31565"
  },
  {
    "id": "press:press-059",
    "type": "press",
    "subtype": "oil",
    "name": "Umm Qais Oil Press",
    "lat": 32.6539,
    "lng": 35.6836,
    "startYear": -50,
    "endYear": 350,
    "source": "Pleiades",
    "category": "production",
    "description": "Oil press at Gadara, another Decapolis city overlooking the Sea of Galilee",
    "qid": "Q131955"
  },
  {
    "id": "press:press-060",
    "type": "press",
    "subtype": "oil",
    "name": "Beit Shean Oil Press",
    "lat": 32.4972,
    "lng": 35.5003,
    "startYear": -50,
    "endYear": 350,
    "source": "Pleiades",
    "category": "production",
    "description": "Olive press at Scythopolis, the largest Decapolis city in the Jordan Valley"
  },
  {
    "id": "press:press-061",
    "type": "press",
    "subtype": "oil",
    "name": "Suweida Oil Press",
    "lat": 32.7089,
    "lng": 36.5614,
    "startYear": 50,
    "endYear": 400,
    "source": "Pleiades",
    "category": "production",
    "description": "Olive press in the basalt country of the Hauran, southern Syria"
  },
  {
    "id": "press:press-062",
    "type": "press",
    "subtype": "oil",
    "name": "Apamea Oil Press",
    "lat": 35.4178,
    "lng": 36.4,
    "startYear": 50,
    "endYear": 400,
    "source": "Pleiades",
    "category": "production",
    "description": "Oil press in the fertile Ghab valley near Apamea on the Orontes",
    "qid": "Q7362208"
  },
  {
    "id": "press:press-063",
    "type": "press",
    "subtype": "wine",
    "name": "Baalbek Wine Press",
    "lat": 34.0069,
    "lng": 36.2042,
    "startYear": -50,
    "endYear": 350,
    "source": "Pleiades",
    "category": "production",
    "description": "Wine press in the Bekaa Valley near the great sanctuary of Heliopolis",
    "qid": "Q14524645"
  },
  {
    "id": "press:press-064",
    "type": "press",
    "subtype": "oil",
    "name": "Byblos Oil Press",
    "lat": 34.1208,
    "lng": 35.6481,
    "startYear": -100,
    "endYear": 300,
    "source": "Pleiades",
    "category": "production",
    "description": "Olive press at the ancient Phoenician port city of Byblos",
    "qid": "Q173532"
  },
  {
    "id": "press:press-065",
    "type": "press",
    "subtype": "oil",
    "name": "Sidon Oil Press",
    "lat": 33.5608,
    "lng": 35.3758,
    "startYear": -100,
    "endYear": 350,
    "source": "Pleiades",
    "category": "production",
    "description": "Olive oil production in the hinterland of the Phoenician port of Sidon"
  },
  {
    "id": "press:press-066",
    "type": "press",
    "subtype": "oil",
    "name": "Tyre Oil Press",
    "lat": 33.2706,
    "lng": 35.1947,
    "startYear": -100,
    "endYear": 350,
    "source": "Pleiades",
    "category": "production",
    "description": "Oil press in the agricultural territory around Roman Tyre",
    "qid": "Q3991738"
  },
  {
    "id": "press:press-067",
    "type": "press",
    "subtype": "oil",
    "name": "Dead Cities Oil Press (Bara)",
    "lat": 36.25,
    "lng": 36.7167,
    "startYear": 200,
    "endYear": 550,
    "source": "Pleiades",
    "category": "production",
    "description": "Well-preserved oil press in the limestone massif of northern Syria"
  },
  {
    "id": "press:press-068",
    "type": "press",
    "subtype": "oil",
    "name": "Sergilla Oil Press",
    "lat": 35.7833,
    "lng": 36.55,
    "startYear": 200,
    "endYear": 550,
    "source": "Pleiades",
    "category": "production",
    "description": "Oil press in the Dead Cities of the Syrian limestone massif"
  },
  {
    "id": "press:press-069",
    "type": "press",
    "subtype": "oil",
    "name": "Khirbet Qumran Oil Press",
    "lat": 31.7414,
    "lng": 35.4586,
    "startYear": -100,
    "endYear": 68,
    "source": "Pleiades",
    "category": "production",
    "description": "Small olive press at the Dead Sea Scrolls community site"
  },
  {
    "id": "press:press-070",
    "type": "press",
    "subtype": "oil",
    "name": "Samaria-Sebaste Oil Press",
    "lat": 32.275,
    "lng": 35.1917,
    "startYear": -50,
    "endYear": 350,
    "source": "Pleiades",
    "category": "production",
    "description": "Olive press at the Herodian-Roman city of Sebaste in the Samaritan hills"
  },
  {
    "id": "press:press-071",
    "type": "press",
    "subtype": "wine",
    "name": "Shivta Wine Press",
    "lat": 30.8806,
    "lng": 34.6281,
    "startYear": 100,
    "endYear": 600,
    "source": "Pleiades",
    "category": "production",
    "description": "Negev desert wine press at the Nabataean-Roman town of Sobata",
    "qid": "Q2037692"
  },
  {
    "id": "press:press-072",
    "type": "press",
    "subtype": "wine",
    "name": "Avdat Wine Press",
    "lat": 30.7956,
    "lng": 34.7722,
    "startYear": 50,
    "endYear": 600,
    "source": "Pleiades",
    "category": "production",
    "description": "Nabataean-Roman wine press at Oboda in the central Negev"
  },
  {
    "id": "press:press-073",
    "type": "press",
    "subtype": "wine",
    "name": "Ashkelon Wine Press",
    "lat": 31.6694,
    "lng": 34.5464,
    "startYear": -100,
    "endYear": 350,
    "source": "Pleiades",
    "category": "production",
    "description": "Wine production facility at the major Mediterranean port of Ascalon",
    "qid": "Q31197816"
  },
  {
    "id": "press:press-074",
    "type": "press",
    "subtype": "oil",
    "name": "Bosra Oil Press",
    "lat": 32.5172,
    "lng": 36.4817,
    "startYear": 50,
    "endYear": 400,
    "source": "Pleiades",
    "category": "production",
    "description": "Olive press at the capital of Roman Arabia, in the volcanic Hauran",
    "qid": "Q4870532"
  },
  {
    "id": "press:press-075",
    "type": "press",
    "subtype": "oil",
    "name": "Pella Oil Press",
    "lat": 32.45,
    "lng": 35.6167,
    "startYear": -50,
    "endYear": 400,
    "source": "Pleiades",
    "category": "production",
    "description": "Oil press at the Decapolis city of Pella in the Jordan Valley",
    "qid": "Q167993"
  },
  {
    "id": "press:press-076",
    "type": "press",
    "subtype": "wine",
    "name": "Knossos Wine Press",
    "lat": 35.2981,
    "lng": 25.1631,
    "startYear": -100,
    "endYear": 350,
    "source": "Pleiades",
    "category": "production",
    "description": "Wine press near the ancient Minoan palace, continuing into the Roman period",
    "qid": "Q173527"
  },
  {
    "id": "press:press-077",
    "type": "press",
    "subtype": "oil",
    "name": "Gortyn Oil Press",
    "lat": 35.0622,
    "lng": 24.9461,
    "startYear": -50,
    "endYear": 350,
    "source": "Pleiades",
    "category": "production",
    "description": "Olive press at the Roman provincial capital of Crete",
    "qid": "Q1136193"
  },
  {
    "id": "press:press-078",
    "type": "press",
    "subtype": "oil",
    "name": "Phaistos Oil Press",
    "lat": 35.0508,
    "lng": 24.8142,
    "startYear": -100,
    "endYear": 300,
    "source": "Pleiades",
    "category": "production",
    "description": "Oil press in the rich olive-growing Mesara plain of southern Crete",
    "qid": "Q249707"
  },
  {
    "id": "press:press-079",
    "type": "press",
    "subtype": "oil",
    "name": "Eleutherna Oil Press",
    "lat": 35.3608,
    "lng": 24.6756,
    "startYear": -50,
    "endYear": 350,
    "source": "Pleiades",
    "category": "production",
    "description": "Olive press at the hillside city of Eleutherna in central Crete"
  },
  {
    "id": "press:press-080",
    "type": "press",
    "subtype": "oil",
    "name": "Olympia Oil Press",
    "lat": 37.6386,
    "lng": 21.63,
    "startYear": -100,
    "endYear": 300,
    "source": "Pleiades",
    "category": "production",
    "description": "Olive press in the sanctuary region of Olympia in the Peloponnese",
    "qid": "Q53672865"
  },
  {
    "id": "press:press-081",
    "type": "press",
    "subtype": "oil",
    "name": "Messene Oil Press",
    "lat": 37.17,
    "lng": 21.92,
    "startYear": -50,
    "endYear": 350,
    "source": "Pleiades",
    "category": "production",
    "description": "Oil press at ancient Messene in the southwestern Peloponnese",
    "qid": "Q41079524"
  },
  {
    "id": "press:press-082",
    "type": "press",
    "subtype": "oil",
    "name": "Sparta Oil Press",
    "lat": 37.0739,
    "lng": 22.4258,
    "startYear": -50,
    "endYear": 300,
    "source": "Pleiades",
    "category": "production",
    "description": "Olive oil production in the Eurotas valley near Roman Sparta"
  },
  {
    "id": "press:press-083",
    "type": "press",
    "subtype": "wine",
    "name": "Corinth Wine Press",
    "lat": 37.9064,
    "lng": 22.88,
    "startYear": -50,
    "endYear": 350,
    "source": "Pleiades",
    "category": "production",
    "description": "Wine press at Roman Corinth, known for its wine exports"
  },
  {
    "id": "press:press-084",
    "type": "press",
    "subtype": "oil",
    "name": "Athens Oil Press (Kerameikos)",
    "lat": 37.9781,
    "lng": 23.7183,
    "startYear": -100,
    "endYear": 300,
    "source": "Pleiades",
    "category": "production",
    "description": "Urban olive press in the Kerameikos district of Roman Athens",
    "qid": "Q24204307"
  },
  {
    "id": "press:press-085",
    "type": "press",
    "subtype": "oil",
    "name": "Delos Oil Press",
    "lat": 37.3967,
    "lng": 25.2683,
    "startYear": -200,
    "endYear": 100,
    "source": "Pleiades",
    "category": "production",
    "description": "Oil press on the sacred island of Delos, commercial hub of the Aegean",
    "qid": "Q131911921"
  },
  {
    "id": "press:press-086",
    "type": "press",
    "subtype": "oil",
    "name": "Lesbos Oil Press",
    "lat": 39.1,
    "lng": 26.3,
    "startYear": -100,
    "endYear": 350,
    "source": "Pleiades",
    "category": "production",
    "description": "Olive press on Lesbos, renowned in antiquity for its olive oil"
  },
  {
    "id": "press:press-087",
    "type": "press",
    "subtype": "wine",
    "name": "Chios Wine Press",
    "lat": 38.3667,
    "lng": 26.1333,
    "startYear": -200,
    "endYear": 300,
    "source": "Pleiades",
    "category": "production",
    "description": "Wine press on Chios, producer of one of the most prized wines in the ancient world",
    "qid": "Q115658817"
  },
  {
    "id": "press:press-088",
    "type": "press",
    "subtype": "wine",
    "name": "Thasos Wine Press",
    "lat": 40.7833,
    "lng": 24.7167,
    "startYear": -200,
    "endYear": 300,
    "source": "Pleiades",
    "category": "production",
    "description": "Wine press on Thasos, famous for its sweet wines exported across the Mediterranean",
    "qid": "Q111633706"
  },
  {
    "id": "press:press-089",
    "type": "press",
    "subtype": "wine",
    "name": "Naxos Wine Press",
    "lat": 37.1,
    "lng": 25.3833,
    "startYear": -100,
    "endYear": 350,
    "source": "Pleiades",
    "category": "production",
    "description": "Wine press on Naxos, the largest and most fertile of the Cycladic islands"
  },
  {
    "id": "press:press-090",
    "type": "press",
    "subtype": "oil",
    "name": "Mycenae Oil Press",
    "lat": 37.7308,
    "lng": 22.7567,
    "startYear": -100,
    "endYear": 200,
    "source": "Pleiades",
    "category": "production",
    "description": "Olive press near the ancient citadel of Mycenae, still used in the Roman period",
    "qid": "Q132564"
  },
  {
    "id": "press:press-091",
    "type": "press",
    "subtype": "wine",
    "name": "Patras Wine Press",
    "lat": 38.2444,
    "lng": 21.735,
    "startYear": -50,
    "endYear": 350,
    "source": "Pleiades",
    "category": "production",
    "description": "Wine press at the major Roman port of Patrae in the northern Peloponnese",
    "qid": "Q133123"
  },
  {
    "id": "press:press-092",
    "type": "press",
    "subtype": "oil",
    "name": "Epidaurus Oil Press",
    "lat": 37.5958,
    "lng": 23.0792,
    "startYear": -50,
    "endYear": 300,
    "source": "Pleiades",
    "category": "production",
    "description": "Oil press in the territory of the sanctuary of Asklepios at Epidaurus",
    "qid": "Q233576"
  },
  {
    "id": "press:press-093",
    "type": "press",
    "subtype": "wine",
    "name": "Rhodes Wine Press",
    "lat": 36.4333,
    "lng": 28.2167,
    "startYear": -100,
    "endYear": 300,
    "source": "Pleiades",
    "category": "production",
    "description": "Wine press on Rhodes, once a major wine-exporting island",
    "qid": "Q188731"
  },
  {
    "id": "press:press-094",
    "type": "press",
    "subtype": "wine",
    "name": "Kos Wine Press",
    "lat": 36.8933,
    "lng": 26.99,
    "startYear": -100,
    "endYear": 300,
    "source": "Pleiades",
    "category": "production",
    "description": "Wine press on Kos, known for its Coan wine praised by ancient authors"
  },
  {
    "id": "press:press-095",
    "type": "press",
    "subtype": "oil",
    "name": "Sitia Oil Press",
    "lat": 35.205,
    "lng": 26.1,
    "startYear": -50,
    "endYear": 350,
    "source": "Pleiades",
    "category": "production",
    "description": "Olive oil press in eastern Crete, a region famed for its oil quality",
    "qid": "Q985549"
  },
  {
    "id": "press:press-096",
    "type": "press",
    "subtype": "oil",
    "name": "Pompeii Oil Press",
    "lat": 40.7508,
    "lng": 14.4869,
    "startYear": -100,
    "endYear": 79,
    "source": "Pleiades",
    "category": "production",
    "description": "Oil press preserved by the eruption of Vesuvius at Pompeii",
    "qid": "Q3748443"
  },
  {
    "id": "press:press-097",
    "type": "press",
    "subtype": "wine",
    "name": "Pompeii Wine Press",
    "lat": 40.7489,
    "lng": 14.4842,
    "startYear": -100,
    "endYear": 79,
    "source": "Pleiades",
    "category": "production",
    "description": "Wine press with associated vineyard, sealed by the eruption of Vesuvius",
    "qid": "Q3748443"
  },
  {
    "id": "press:press-098",
    "type": "press",
    "subtype": "wine",
    "name": "Herculaneum Wine Press",
    "lat": 40.8058,
    "lng": 14.3481,
    "startYear": -50,
    "endYear": 79,
    "source": "Pleiades",
    "category": "production",
    "description": "Wine press at the Villa of the Papyri, Herculaneum",
    "qid": "Q178813"
  },
  {
    "id": "press:press-099",
    "type": "press",
    "subtype": "wine",
    "name": "Stabiae Wine Press",
    "lat": 40.6975,
    "lng": 14.4831,
    "startYear": -50,
    "endYear": 79,
    "source": "Pleiades",
    "category": "production",
    "description": "Wine press at the luxurious villas of Stabiae on the Bay of Naples",
    "qid": "Q3951764"
  },
  {
    "id": "press:press-100",
    "type": "press",
    "subtype": "wine",
    "name": "Boscoreale Wine Press",
    "lat": 40.7636,
    "lng": 14.4761,
    "startYear": -100,
    "endYear": 79,
    "source": "Pleiades",
    "category": "production",
    "description": "Large-scale wine press at the Villa Regina, preserved by Vesuvius"
  },
  {
    "id": "press:press-101",
    "type": "press",
    "subtype": "oil",
    "name": "Paestum Oil Press",
    "lat": 40.4194,
    "lng": 15.0056,
    "startYear": -100,
    "endYear": 350,
    "source": "Pleiades",
    "category": "production",
    "description": "Olive press near the Greek-Roman colony of Poseidonia/Paestum",
    "qid": "Q3555920"
  },
  {
    "id": "press:press-102",
    "type": "press",
    "subtype": "oil",
    "name": "Metaponto Oil Press",
    "lat": 40.3833,
    "lng": 16.8167,
    "startYear": -100,
    "endYear": 250,
    "source": "Pleiades",
    "category": "production",
    "description": "Olive press in the rich agricultural chora of Metapontum in Lucania"
  },
  {
    "id": "press:press-103",
    "type": "press",
    "subtype": "oil",
    "name": "Agrigento Oil Press",
    "lat": 37.2894,
    "lng": 13.5872,
    "startYear": -100,
    "endYear": 300,
    "source": "Pleiades",
    "category": "production",
    "description": "Olive press in the Valley of the Temples at Akragas/Agrigentum"
  },
  {
    "id": "press:press-104",
    "type": "press",
    "subtype": "wine",
    "name": "Syracuse Wine Press",
    "lat": 37.0755,
    "lng": 15.2866,
    "startYear": -100,
    "endYear": 300,
    "source": "Pleiades",
    "category": "production",
    "description": "Wine production at the great Sicilian city of Syracuse",
    "qid": "Q18920220"
  },
  {
    "id": "press:press-105",
    "type": "press",
    "subtype": "wine",
    "name": "Marsala Wine Press",
    "lat": 37.8,
    "lng": 12.4333,
    "startYear": -100,
    "endYear": 300,
    "source": "Pleiades",
    "category": "production",
    "description": "Wine press at Lilybaeum in western Sicily"
  },
  {
    "id": "press:press-106",
    "type": "press",
    "subtype": "oil",
    "name": "Tharros Oil Press",
    "lat": 39.8753,
    "lng": 8.4394,
    "startYear": -50,
    "endYear": 300,
    "source": "Pleiades",
    "category": "production",
    "description": "Olive press at the Punic-Roman city of Tharros, western Sardinia",
    "qid": "Q736689"
  },
  {
    "id": "press:press-107",
    "type": "press",
    "subtype": "oil",
    "name": "Nora Oil Press",
    "lat": 38.9833,
    "lng": 9.0167,
    "startYear": -50,
    "endYear": 300,
    "source": "Pleiades",
    "category": "production",
    "description": "Oil press at the ancient Sardinian coastal settlement of Nora"
  },
  {
    "id": "press:press-108",
    "type": "press",
    "subtype": "oil",
    "name": "Brindisi Oil Press",
    "lat": 40.6333,
    "lng": 17.9333,
    "startYear": -50,
    "endYear": 350,
    "source": "Pleiades",
    "category": "production",
    "description": "Olive oil production near Brundisium, terminus of the Via Appia",
    "qid": "Q49280507"
  },
  {
    "id": "press:press-109",
    "type": "press",
    "subtype": "oil",
    "name": "Taranto Oil Press",
    "lat": 40.4694,
    "lng": 17.2431,
    "startYear": -100,
    "endYear": 300,
    "source": "Pleiades",
    "category": "production",
    "description": "Olive press in the agricultural hinterland of Tarentum in Apulia",
    "qid": "Q5488863"
  },
  {
    "id": "press:press-110",
    "type": "press",
    "subtype": "wine",
    "name": "Tivoli Wine Press",
    "lat": 41.9614,
    "lng": 12.8017,
    "startYear": -50,
    "endYear": 300,
    "source": "Pleiades",
    "category": "production",
    "description": "Wine press in the Sabine hills near Tibur, famed for its wines",
    "qid": "Q159605"
  },
  {
    "id": "press:press-111",
    "type": "press",
    "subtype": "wine",
    "name": "Falerno Wine Press",
    "lat": 41.1667,
    "lng": 13.9,
    "startYear": -100,
    "endYear": 300,
    "source": "Pleiades",
    "category": "production",
    "description": "Wine press in the ager Falernus, producing the most famous wine of antiquity"
  },
  {
    "id": "press:press-112",
    "type": "press",
    "subtype": "wine",
    "name": "Alba Fucens Wine Press",
    "lat": 42.0764,
    "lng": 13.4072,
    "startYear": -50,
    "endYear": 250,
    "source": "Pleiades",
    "category": "production",
    "description": "Wine press at the Latin colony of Alba Fucens in the Abruzzi",
    "qid": "Q108272104"
  },
  {
    "id": "press:press-113",
    "type": "press",
    "subtype": "oil",
    "name": "Settefinestre Oil Press",
    "lat": 42.45,
    "lng": 11.3833,
    "startYear": -50,
    "endYear": 200,
    "source": "Pleiades",
    "category": "production",
    "description": "Oil press at the excavated Roman villa of Settefinestre in Etruria"
  },
  {
    "id": "press:press-114",
    "type": "press",
    "subtype": "wine",
    "name": "Cosa Wine Press",
    "lat": 42.41,
    "lng": 11.29,
    "startYear": -100,
    "endYear": 200,
    "source": "Pleiades",
    "category": "production",
    "description": "Wine press at the Roman colony of Cosa on the Tuscan coast",
    "qid": "Q546547"
  },
  {
    "id": "press:press-115",
    "type": "press",
    "subtype": "oil",
    "name": "Catania Oil Press",
    "lat": 37.5025,
    "lng": 15.09,
    "startYear": -50,
    "endYear": 350,
    "source": "Pleiades",
    "category": "production",
    "description": "Olive press in the fertile plain below Mount Etna near Catina",
    "qid": "Q2844406"
  },
  {
    "id": "press:press-116",
    "type": "press",
    "subtype": "oil",
    "name": "\u00c9cija Oil Press",
    "lat": 37.5414,
    "lng": -5.0826,
    "startYear": -50,
    "endYear": 350,
    "source": "OxREP",
    "category": "production",
    "description": "Major oil press at Astigi, center of Baetican olive oil export to Rome"
  },
  {
    "id": "press:press-117",
    "type": "press",
    "subtype": "oil",
    "name": "C\u00f3rdoba Oil Press",
    "lat": 37.8882,
    "lng": -4.7794,
    "startYear": -50,
    "endYear": 350,
    "source": "OxREP",
    "category": "production",
    "description": "Olive oil production near Corduba, capital of Baetica"
  },
  {
    "id": "press:press-118",
    "type": "press",
    "subtype": "oil",
    "name": "Italica Oil Press",
    "lat": 37.4431,
    "lng": -6.0456,
    "startYear": -100,
    "endYear": 350,
    "source": "OxREP",
    "category": "production",
    "description": "Oil press near Italica, birthplace of Trajan and Hadrian",
    "qid": "Q658893"
  },
  {
    "id": "press:press-119",
    "type": "press",
    "subtype": "oil",
    "name": "Alcolea del R\u00edo Oil Press",
    "lat": 37.6167,
    "lng": -5.6667,
    "startYear": 50,
    "endYear": 300,
    "source": "OxREP",
    "category": "production",
    "description": "Guadalquivir valley oil press, near Monte Testaccio amphorae production sites"
  },
  {
    "id": "press:press-120",
    "type": "press",
    "subtype": "oil",
    "name": "Palma del R\u00edo Oil Press",
    "lat": 37.7,
    "lng": -5.2833,
    "startYear": 50,
    "endYear": 300,
    "source": "OxREP",
    "category": "production",
    "description": "Oil press on the Guadalquivir, part of the Dressel 20 amphora production zone"
  },
  {
    "id": "press:press-121",
    "type": "press",
    "subtype": "oil",
    "name": "Lora del R\u00edo Oil Press",
    "lat": 37.6583,
    "lng": -5.525,
    "startYear": 50,
    "endYear": 300,
    "source": "OxREP",
    "category": "production",
    "description": "Oil estate on the Guadalquivir serving the annona supply of Rome"
  },
  {
    "id": "press:press-122",
    "type": "press",
    "subtype": "oil",
    "name": "Arva Oil Press",
    "lat": 37.65,
    "lng": -5.6,
    "startYear": 50,
    "endYear": 300,
    "source": "OxREP",
    "category": "production",
    "description": "Oil press at Arva on the Guadalquivir, a major Dressel 20 production site"
  },
  {
    "id": "press:press-123",
    "type": "press",
    "subtype": "oil",
    "name": "Ja\u00e9n Oil Press",
    "lat": 37.7796,
    "lng": -3.7894,
    "startYear": -50,
    "endYear": 350,
    "source": "OxREP",
    "category": "production",
    "description": "Olive oil production in the upper Guadalquivir region near Aurgi",
    "qid": "Q5708034"
  },
  {
    "id": "press:press-124",
    "type": "press",
    "subtype": "oil",
    "name": "Antequera Oil Press",
    "lat": 37.0194,
    "lng": -4.5614,
    "startYear": 50,
    "endYear": 350,
    "source": "OxREP",
    "category": "production",
    "description": "Oil press at Anticaria in the interior of Baetica",
    "qid": "Q572041"
  },
  {
    "id": "press:press-125",
    "type": "press",
    "subtype": "wine",
    "name": "Tarragona Wine Press",
    "lat": 41.1167,
    "lng": 1.25,
    "startYear": -100,
    "endYear": 300,
    "source": "OxREP",
    "category": "production",
    "description": "Wine press near Tarraco, capital of Hispania Citerior, producing Laietanian wine",
    "qid": "Q3324718"
  },
  {
    "id": "press:press-126",
    "type": "press",
    "subtype": "wine",
    "name": "Barcelona Wine Press",
    "lat": 41.3833,
    "lng": 2.1833,
    "startYear": -50,
    "endYear": 300,
    "source": "OxREP",
    "category": "production",
    "description": "Wine production in the Laietania region near Barcino"
  },
  {
    "id": "press:press-127",
    "type": "press",
    "subtype": "wine",
    "name": "Sagunto Wine Press",
    "lat": 39.68,
    "lng": -0.27,
    "startYear": -50,
    "endYear": 300,
    "source": "OxREP",
    "category": "production",
    "description": "Wine press near Saguntum in the Valencian coastal plain"
  },
  {
    "id": "press:press-128",
    "type": "press",
    "subtype": "oil",
    "name": "M\u00e9rida Oil Press",
    "lat": 38.9164,
    "lng": -6.3447,
    "startYear": -25,
    "endYear": 350,
    "source": "OxREP",
    "category": "production",
    "description": "Oil press near Augusta Emerita, capital of Lusitania"
  },
  {
    "id": "press:press-129",
    "type": "press",
    "subtype": "oil",
    "name": "Munigua Oil Press",
    "lat": 37.6833,
    "lng": -5.7333,
    "startYear": 50,
    "endYear": 300,
    "source": "OxREP",
    "category": "production",
    "description": "Oil press at Munigua in the Sierra Morena foothills of Baetica"
  },
  {
    "id": "press:press-130",
    "type": "press",
    "subtype": "oil",
    "name": "C\u00e1stulo Oil Press",
    "lat": 38.0361,
    "lng": -3.62,
    "startYear": -50,
    "endYear": 300,
    "source": "OxREP",
    "category": "production",
    "description": "Oil production near the mining town of Castulo in the upper Guadalquivir"
  },
  {
    "id": "press:press-131",
    "type": "press",
    "subtype": "wine",
    "name": "Badalona Wine Press",
    "lat": 41.45,
    "lng": 2.25,
    "startYear": -50,
    "endYear": 250,
    "source": "OxREP",
    "category": "production",
    "description": "Wine press at Baetulo, major producer of Laietanian wine"
  },
  {
    "id": "press:press-132",
    "type": "press",
    "subtype": "wine",
    "name": "Vilafranca Wine Press",
    "lat": 41.35,
    "lng": 1.7,
    "startYear": -50,
    "endYear": 250,
    "source": "OxREP",
    "category": "production",
    "description": "Wine press in the Pened\u00e8s region, center of Roman-era Catalan viticulture"
  },
  {
    "id": "press:press-133",
    "type": "press",
    "subtype": "wine",
    "name": "Cartagena Wine Press",
    "lat": 37.6,
    "lng": -0.9833,
    "startYear": -100,
    "endYear": 300,
    "source": "OxREP",
    "category": "production",
    "description": "Wine press near Carthago Nova, major port of southeastern Hispania",
    "qid": "Q2659382"
  },
  {
    "id": "press:press-134",
    "type": "press",
    "subtype": "oil",
    "name": "Ebusus Oil Press (Ibiza)",
    "lat": 38.9089,
    "lng": 1.4328,
    "startYear": -100,
    "endYear": 300,
    "source": "OxREP",
    "category": "production",
    "description": "Oil press on the island of Ebusus (Ibiza) in the Balearics"
  },
  {
    "id": "press:press-135",
    "type": "press",
    "subtype": "oil",
    "name": "Pollentia Oil Press (Mallorca)",
    "lat": 39.8767,
    "lng": 3.1181,
    "startYear": -50,
    "endYear": 300,
    "source": "OxREP",
    "category": "production",
    "description": "Olive oil production at the Roman colony of Pollentia on Mallorca"
  },
  {
    "id": "press:press-136",
    "type": "press",
    "subtype": "wine",
    "name": "Fr\u00e9jus Wine Press",
    "lat": 43.4333,
    "lng": 6.7333,
    "startYear": -25,
    "endYear": 300,
    "source": "Pleiades",
    "category": "production",
    "description": "Wine press near Forum Julii, Augustus's naval base in Provence",
    "qid": "Q22916437"
  },
  {
    "id": "press:press-137",
    "type": "press",
    "subtype": "wine",
    "name": "Narbonne Wine Press",
    "lat": 43.1833,
    "lng": 3,
    "startYear": -100,
    "endYear": 300,
    "source": "Pleiades",
    "category": "production",
    "description": "Major wine production center near Narbo Martius in Gallia Narbonensis",
    "qid": "Q587908"
  },
  {
    "id": "press:press-138",
    "type": "press",
    "subtype": "wine",
    "name": "B\u00e9ziers Wine Press",
    "lat": 43.3414,
    "lng": 3.2156,
    "startYear": -50,
    "endYear": 300,
    "source": "Pleiades",
    "category": "production",
    "description": "Wine press near Baeterrae in the Languedoc, producer of export wine",
    "qid": "Q58917057"
  },
  {
    "id": "press:press-139",
    "type": "press",
    "subtype": "wine",
    "name": "N\u00eemes Wine Press",
    "lat": 43.8367,
    "lng": 4.36,
    "startYear": -50,
    "endYear": 300,
    "source": "Pleiades",
    "category": "production",
    "description": "Wine press in the territory of Nemausus in southern Gaul",
    "qid": "Q4871928"
  },
  {
    "id": "press:press-140",
    "type": "press",
    "subtype": "wine",
    "name": "Aix-en-Provence Wine Press",
    "lat": 43.5297,
    "lng": 5.4474,
    "startYear": -50,
    "endYear": 300,
    "source": "Pleiades",
    "category": "production",
    "description": "Wine press at Aquae Sextiae, Roman foundation in the Proven\u00e7al countryside"
  },
  {
    "id": "press:press-141",
    "type": "press",
    "subtype": "wine",
    "name": "Marseille Wine Press",
    "lat": 43.2965,
    "lng": 5.3698,
    "startYear": -200,
    "endYear": 300,
    "source": "Pleiades",
    "category": "production",
    "description": "Wine production at Massalia, the oldest Greek colony in Gaul",
    "qid": "Q3485951"
  },
  {
    "id": "press:press-142",
    "type": "press",
    "subtype": "wine",
    "name": "Orange Wine Press",
    "lat": 44.1386,
    "lng": 4.8097,
    "startYear": -25,
    "endYear": 300,
    "source": "Pleiades",
    "category": "production",
    "description": "Wine press near Arausio, a Roman colony in the Rh\u00f4ne valley",
    "qid": "Q958961"
  },
  {
    "id": "press:press-143",
    "type": "press",
    "subtype": "wine",
    "name": "Vaison-la-Romaine Wine Press",
    "lat": 44.2417,
    "lng": 5.075,
    "startYear": -50,
    "endYear": 300,
    "source": "Pleiades",
    "category": "production",
    "description": "Wine press at Vasio Vocontiorum, a prosperous Gallo-Roman town",
    "qid": "Q22986657"
  },
  {
    "id": "press:press-144",
    "type": "press",
    "subtype": "wine",
    "name": "Lyon Wine Press",
    "lat": 45.764,
    "lng": 4.8357,
    "startYear": -25,
    "endYear": 300,
    "source": "Pleiades",
    "category": "production",
    "description": "Wine press near Lugdunum, capital of the Three Gauls"
  },
  {
    "id": "press:press-145",
    "type": "press",
    "subtype": "wine",
    "name": "Vienne Wine Press",
    "lat": 45.5242,
    "lng": 4.8781,
    "startYear": -50,
    "endYear": 300,
    "source": "Pleiades",
    "category": "production",
    "description": "Wine press in the Rh\u00f4ne valley near Vienna, known for Allobrogian wine"
  },
  {
    "id": "press:press-146",
    "type": "press",
    "subtype": "oil",
    "name": "Miletus Oil Press",
    "lat": 37.53,
    "lng": 27.2781,
    "startYear": -100,
    "endYear": 350,
    "source": "Pleiades",
    "category": "production",
    "description": "Olive press near the great Ionian city of Miletus, associated with Thales' famous olive speculation",
    "qid": "Q169460"
  },
  {
    "id": "press:press-147",
    "type": "press",
    "subtype": "oil",
    "name": "Ephesus Oil Press",
    "lat": 37.9411,
    "lng": 27.3419,
    "startYear": -100,
    "endYear": 350,
    "source": "Pleiades",
    "category": "production",
    "description": "Oil press in the agricultural territory of Ephesus in Ionia",
    "qid": "Q64699469"
  },
  {
    "id": "press:press-148",
    "type": "press",
    "subtype": "oil",
    "name": "Aphrodisias Oil Press",
    "lat": 37.7086,
    "lng": 28.7278,
    "startYear": -50,
    "endYear": 400,
    "source": "Pleiades",
    "category": "production",
    "description": "Olive press at the marble city of Aphrodisias in Caria",
    "qid": "Q618495"
  },
  {
    "id": "press:press-149",
    "type": "press",
    "subtype": "oil",
    "name": "Pergamon Oil Press",
    "lat": 39.1217,
    "lng": 27.1844,
    "startYear": -100,
    "endYear": 350,
    "source": "Pleiades",
    "category": "production",
    "description": "Olive press in the chora of Pergamum in Mysia",
    "qid": "Q105232481"
  },
  {
    "id": "press:press-150",
    "type": "press",
    "subtype": "oil",
    "name": "Priene Oil Press",
    "lat": 37.6589,
    "lng": 27.2983,
    "startYear": -100,
    "endYear": 300,
    "source": "Pleiades",
    "category": "production",
    "description": "Oil press at the Hellenistic-Roman city of Priene on the Maeander",
    "qid": "Q97201473"
  },
  {
    "id": "press:press-151",
    "type": "press",
    "subtype": "oil",
    "name": "Laodicea Oil Press",
    "lat": 37.8358,
    "lng": 29.1108,
    "startYear": -50,
    "endYear": 400,
    "source": "Pleiades",
    "category": "production",
    "description": "Oil press at Laodicea on the Lycus, a prosperous city in Phrygia",
    "qid": "Q3485920"
  },
  {
    "id": "press:press-152",
    "type": "press",
    "subtype": "oil",
    "name": "Sfax Sahel Oil Press",
    "lat": 34.74,
    "lng": 10.76,
    "startYear": 50,
    "endYear": 350,
    "source": "OxREP",
    "category": "production",
    "description": "Oil press in the Taparura coastal region of the Tunisian Sahel"
  },
  {
    "id": "press:press-153",
    "type": "press",
    "subtype": "oil",
    "name": "Monastir Sahel Oil Press",
    "lat": 35.7833,
    "lng": 10.8333,
    "startYear": 50,
    "endYear": 350,
    "source": "OxREP",
    "category": "production",
    "description": "Coastal oil press at Ruspina in the northern Sahel of Tunisia"
  },
  {
    "id": "press:press-154",
    "type": "press",
    "subtype": "oil",
    "name": "Mahdia Oil Press",
    "lat": 35.5,
    "lng": 11.05,
    "startYear": 100,
    "endYear": 380,
    "source": "OxREP",
    "category": "production",
    "description": "Oil press on the Cap Africa peninsula in the Sahel region"
  },
  {
    "id": "press:press-155",
    "type": "press",
    "subtype": "oil",
    "name": "Crotone Oil Press",
    "lat": 39.0808,
    "lng": 17.1275,
    "startYear": -100,
    "endYear": 300,
    "source": "Pleiades",
    "category": "production",
    "description": "Olive press at the Greek-Roman city of Croton in Bruttium",
    "qid": "Q6681"
  },
  {
    "id": "press:press-156",
    "type": "press",
    "subtype": "oil",
    "name": "Leptiminus Oil Press",
    "lat": 35.63,
    "lng": 10.88,
    "startYear": 100,
    "endYear": 400,
    "source": "OxREP",
    "category": "production",
    "description": "Major olive oil production at ancient Leptiminus on the Tunisian Sahel coast"
  },
  {
    "id": "press:press-157",
    "type": "press",
    "subtype": "oil",
    "name": "Thapsus Oil Press",
    "lat": 35.6,
    "lng": 11.03,
    "startYear": 50,
    "endYear": 350,
    "source": "OxREP",
    "category": "production",
    "description": "Olive press at the ancient port city of Thapsus on the Sahel coast"
  },
  {
    "id": "press:press-158",
    "type": "press",
    "subtype": "oil",
    "name": "Ruspina Oil Press",
    "lat": 35.77,
    "lng": 10.6,
    "startYear": 100,
    "endYear": 380,
    "source": "OxREP",
    "category": "production",
    "description": "Oil production facility near ancient Ruspina in the productive Sahel region"
  },
  {
    "id": "press:press-159",
    "type": "press",
    "subtype": "oil",
    "name": "Hadrumetum Oil Press",
    "lat": 35.82,
    "lng": 10.59,
    "startYear": 50,
    "endYear": 400,
    "source": "OxREP",
    "category": "production",
    "description": "Olive press complex in the suburbs of ancient Hadrumetum (Sousse)"
  },
  {
    "id": "press:press-160",
    "type": "press",
    "subtype": "oil",
    "name": "Acholla Oil Press",
    "lat": 35.07,
    "lng": 10.92,
    "startYear": 100,
    "endYear": 350,
    "source": "OxREP",
    "category": "production",
    "description": "Olive oil production at the coastal town of Acholla south of Sfax"
  },
  {
    "id": "press:press-161",
    "type": "press",
    "subtype": "oil",
    "name": "Thysdrus South Oil Press",
    "lat": 35.27,
    "lng": 10.72,
    "startYear": 150,
    "endYear": 400,
    "source": "OxREP",
    "category": "production",
    "description": "Oil press in the southern agricultural hinterland of Thysdrus"
  },
  {
    "id": "press:press-162",
    "type": "press",
    "subtype": "oil",
    "name": "Ksour Essaf Oil Press",
    "lat": 35.43,
    "lng": 10.99,
    "startYear": 100,
    "endYear": 380,
    "source": "OxREP",
    "category": "production",
    "description": "Rural olive press installation in the Sahel hinterland near Ksour Essaf"
  },
  {
    "id": "press:press-163",
    "type": "press",
    "subtype": "oil",
    "name": "Sidi Bou Ali Oil Press",
    "lat": 35.95,
    "lng": 10.47,
    "startYear": 50,
    "endYear": 300,
    "source": "OxREP",
    "category": "production",
    "description": "Olive press in the northern Sahel near Sidi Bou Ali",
    "qid": "Q3142513"
  },
  {
    "id": "press:press-164",
    "type": "press",
    "subtype": "oil",
    "name": "Hergla Oil Press",
    "lat": 36.03,
    "lng": 10.51,
    "startYear": 100,
    "endYear": 350,
    "source": "OxREP",
    "category": "production",
    "description": "Oil press installation on the northern Sahel coast near Hergla"
  },
  {
    "id": "press:press-165",
    "type": "press",
    "subtype": "oil",
    "name": "Bekalta Oil Press",
    "lat": 35.62,
    "lng": 11,
    "startYear": 150,
    "endYear": 400,
    "source": "OxREP",
    "category": "production",
    "description": "Olive press in the productive Bekalta area of the central Sahel",
    "qid": "Q118595829"
  },
  {
    "id": "press:press-166",
    "type": "press",
    "subtype": "oil",
    "name": "Chebba Oil Press",
    "lat": 35.24,
    "lng": 11.11,
    "startYear": 100,
    "endYear": 370,
    "source": "OxREP",
    "category": "production",
    "description": "Coastal olive oil production facility near the promontory of Chebba"
  },
  {
    "id": "press:press-167",
    "type": "press",
    "subtype": "oil",
    "name": "Djebel Fadeloun Oil Press",
    "lat": 35.14,
    "lng": 9.35,
    "startYear": 200,
    "endYear": 450,
    "source": "OxREP",
    "category": "production",
    "description": "Hillside olive press on Djebel Fadeloun in the Tunisian steppe"
  },
  {
    "id": "press:press-168",
    "type": "press",
    "subtype": "oil",
    "name": "Kerkouane Oil Press",
    "lat": 36.94,
    "lng": 11.1,
    "startYear": -50,
    "endYear": 200,
    "source": "OxREP",
    "category": "production",
    "description": "Early olive press at the Punic-Roman site on the Cap Bon peninsula",
    "qid": "Q538061"
  },
  {
    "id": "press:press-169",
    "type": "press",
    "subtype": "oil",
    "name": "Kelibia Oil Press",
    "lat": 36.85,
    "lng": 11.1,
    "startYear": 50,
    "endYear": 350,
    "source": "OxREP",
    "category": "production",
    "description": "Olive press installation near the fortress town of Kelibia on Cap Bon"
  },
  {
    "id": "press:press-170",
    "type": "press",
    "subtype": "oil",
    "name": "Menzel Bouzelfa Oil Press",
    "lat": 36.69,
    "lng": 10.58,
    "startYear": 100,
    "endYear": 380,
    "source": "OxREP",
    "category": "production",
    "description": "Rural olive press in the rich agricultural zone of inner Cap Bon"
  },
  {
    "id": "press:press-171",
    "type": "press",
    "subtype": "oil",
    "name": "Soliman Oil Press",
    "lat": 36.69,
    "lng": 10.5,
    "startYear": 50,
    "endYear": 300,
    "source": "OxREP",
    "category": "production",
    "description": "Oil press in the fertile Soliman plain on the western side of Cap Bon"
  },
  {
    "id": "press:press-172",
    "type": "press",
    "subtype": "oil",
    "name": "Hammamet Oil Press",
    "lat": 36.4,
    "lng": 10.62,
    "startYear": 100,
    "endYear": 350,
    "source": "OxREP",
    "category": "production",
    "description": "Olive oil production near ancient Pupput in the Hammamet area"
  },
  {
    "id": "press:press-173",
    "type": "press",
    "subtype": "oil",
    "name": "Grombalia Oil Press",
    "lat": 36.6,
    "lng": 10.5,
    "startYear": 50,
    "endYear": 320,
    "source": "OxREP",
    "category": "production",
    "description": "Agricultural olive press in the fertile Grombalia valley",
    "qid": "Q1344058"
  },
  {
    "id": "press:press-174",
    "type": "press",
    "subtype": "oil",
    "name": "Thala South Oil Press",
    "lat": 35.54,
    "lng": 8.64,
    "startYear": 150,
    "endYear": 400,
    "source": "OxREP",
    "category": "production",
    "description": "Olive press in the southern outskirts of ancient Thala"
  },
  {
    "id": "press:press-175",
    "type": "press",
    "subtype": "oil",
    "name": "Maktar East Oil Press",
    "lat": 35.85,
    "lng": 9.25,
    "startYear": 100,
    "endYear": 380,
    "source": "OxREP",
    "category": "production",
    "description": "Oil press installation in the eastern hinterland of Mactaris"
  },
  {
    "id": "press:press-176",
    "type": "press",
    "subtype": "oil",
    "name": "Zama Minor Oil Press",
    "lat": 36,
    "lng": 9.5,
    "startYear": 50,
    "endYear": 300,
    "source": "OxREP",
    "category": "production",
    "description": "Olive press near ancient Zama Minor in central Tunisia"
  },
  {
    "id": "press:press-177",
    "type": "press",
    "subtype": "oil",
    "name": "Assuras Oil Press",
    "lat": 35.99,
    "lng": 9,
    "startYear": 100,
    "endYear": 350,
    "source": "OxREP",
    "category": "production",
    "description": "Oil press at the ancient colonia of Assuras in the Tell region"
  },
  {
    "id": "press:press-178",
    "type": "press",
    "subtype": "oil",
    "name": "Ammaedara South Oil Press",
    "lat": 35.55,
    "lng": 8.43,
    "startYear": 150,
    "endYear": 400,
    "source": "OxREP",
    "category": "production",
    "description": "Oil press in the southern agricultural zone of Ammaedara"
  },
  {
    "id": "press:press-179",
    "type": "press",
    "subtype": "oil",
    "name": "Thelepte Oil Press",
    "lat": 35.28,
    "lng": 8.57,
    "startYear": 200,
    "endYear": 450,
    "source": "OxREP",
    "category": "production",
    "description": "Late Roman olive press near the military and ecclesiastical center of Thelepte"
  },
  {
    "id": "press:press-180",
    "type": "press",
    "subtype": "oil",
    "name": "Capsa Oil Press",
    "lat": 34.42,
    "lng": 8.78,
    "startYear": 150,
    "endYear": 350,
    "source": "OxREP",
    "category": "production",
    "description": "Frontier olive press at the oasis town of Capsa (Gafsa)"
  },
  {
    "id": "press:press-181",
    "type": "press",
    "subtype": "oil",
    "name": "Zaghouan Oil Press",
    "lat": 36.4,
    "lng": 10.14,
    "startYear": 50,
    "endYear": 350,
    "source": "OxREP",
    "category": "production",
    "description": "Oil press in the Zaghouan region, near the famous aqueduct to Carthage"
  },
  {
    "id": "press:press-182",
    "type": "press",
    "subtype": "oil",
    "name": "Testour Oil Press",
    "lat": 36.55,
    "lng": 9.44,
    "startYear": 100,
    "endYear": 380,
    "source": "OxREP",
    "category": "production",
    "description": "Olive press in the Medjerda valley near Testour"
  },
  {
    "id": "press:press-183",
    "type": "press",
    "subtype": "oil",
    "name": "B\u00e9ja Oil Press",
    "lat": 36.73,
    "lng": 9.18,
    "startYear": 50,
    "endYear": 350,
    "source": "OxREP",
    "category": "production",
    "description": "Oil press in the wheat-and-olive belt of the ancient Bagrada valley",
    "qid": "Q814982"
  },
  {
    "id": "press:press-184",
    "type": "press",
    "subtype": "oil",
    "name": "Siliana Oil Press",
    "lat": 36.08,
    "lng": 9.37,
    "startYear": 100,
    "endYear": 350,
    "source": "OxREP",
    "category": "production",
    "description": "Olive press in the Siliana region of north-central Tunisia"
  },
  {
    "id": "press:press-185",
    "type": "press",
    "subtype": "oil",
    "name": "Kef Oil Press",
    "lat": 36.17,
    "lng": 8.7,
    "startYear": 100,
    "endYear": 380,
    "source": "OxREP",
    "category": "production",
    "description": "Oil press near ancient Sicca Veneria in the high Tell"
  },
  {
    "id": "press:press-186",
    "type": "press",
    "subtype": "oil",
    "name": "F\u00e9riana Oil Press",
    "lat": 34.95,
    "lng": 8.57,
    "startYear": 200,
    "endYear": 400,
    "source": "OxREP",
    "category": "production",
    "description": "Southern frontier olive press at Thelepte-F\u00e9riana in the steppe zone",
    "qid": "Q606165"
  },
  {
    "id": "press:press-187",
    "type": "press",
    "subtype": "oil",
    "name": "Tabarka Oil Press",
    "lat": 36.95,
    "lng": 8.76,
    "startYear": 50,
    "endYear": 300,
    "source": "OxREP",
    "category": "production",
    "description": "Olive press near the ancient port of Thabraca on the northern coast"
  },
  {
    "id": "press:press-188",
    "type": "press",
    "subtype": "oil",
    "name": "Chemtou Oil Press",
    "lat": 36.5,
    "lng": 8.57,
    "startYear": 100,
    "endYear": 350,
    "source": "OxREP",
    "category": "production",
    "description": "Oil press near the famous marble quarries of Simitthus",
    "qid": "Q1493784"
  },
  {
    "id": "press:press-189",
    "type": "press",
    "subtype": "oil",
    "name": "Oea Oil Press",
    "lat": 32.9,
    "lng": 13.18,
    "startYear": 50,
    "endYear": 350,
    "source": "OxREP",
    "category": "production",
    "description": "Olive press in the suburbs of ancient Oea (Tripoli)"
  },
  {
    "id": "press:press-190",
    "type": "press",
    "subtype": "oil",
    "name": "Gasr ed-Dauun Oil Press",
    "lat": 32.3,
    "lng": 13.1,
    "startYear": 150,
    "endYear": 400,
    "source": "OxREP",
    "category": "production",
    "description": "Fortified farm olive press in the Tripolitanian pre-desert"
  },
  {
    "id": "press:press-191",
    "type": "press",
    "subtype": "oil",
    "name": "Gasr Wif Oil Press",
    "lat": 31.9,
    "lng": 13.5,
    "startYear": 200,
    "endYear": 400,
    "source": "OxREP",
    "category": "production",
    "description": "Pre-desert olive press at a fortified farm in the Gebel Nefusa foothills"
  },
  {
    "id": "press:press-192",
    "type": "press",
    "subtype": "oil",
    "name": "Yefren Oil Press",
    "lat": 32.06,
    "lng": 12.53,
    "startYear": 100,
    "endYear": 380,
    "source": "OxREP",
    "category": "production",
    "description": "Mountain olive press in the Gebel Nefusa at Yefren"
  },
  {
    "id": "press:press-193",
    "type": "press",
    "subtype": "oil",
    "name": "Nalut Oil Press",
    "lat": 31.87,
    "lng": 10.98,
    "startYear": 150,
    "endYear": 400,
    "source": "OxREP",
    "category": "production",
    "description": "Western Gebel Nefusa olive press near the Berber town of Nalut"
  },
  {
    "id": "press:press-194",
    "type": "press",
    "subtype": "oil",
    "name": "Msellata Oil Press",
    "lat": 32.54,
    "lng": 14.04,
    "startYear": 100,
    "endYear": 350,
    "source": "OxREP",
    "category": "production",
    "description": "Olive press in the productive coastal zone between Oea and Leptis Magna"
  },
  {
    "id": "press:press-195",
    "type": "press",
    "subtype": "oil",
    "name": "Khoms Oil Press",
    "lat": 32.65,
    "lng": 14.26,
    "startYear": 50,
    "endYear": 350,
    "source": "OxREP",
    "category": "production",
    "description": "Oil press in the agricultural hinterland of Leptis Magna at Khoms"
  },
  {
    "id": "press:press-196",
    "type": "press",
    "subtype": "oil",
    "name": "Misrata Oil Press",
    "lat": 32.38,
    "lng": 15.09,
    "startYear": 100,
    "endYear": 350,
    "source": "OxREP",
    "category": "production",
    "description": "Eastern Tripolitanian olive press near ancient Tubactis"
  },
  {
    "id": "press:press-197",
    "type": "press",
    "subtype": "oil",
    "name": "Cussabat Oil Press",
    "lat": 32.2,
    "lng": 14.25,
    "startYear": 150,
    "endYear": 380,
    "source": "OxREP",
    "category": "production",
    "description": "Interior Tripolitanian olive press south of the coastal zone"
  },
  {
    "id": "press:press-198",
    "type": "press",
    "subtype": "oil",
    "name": "Gebel Tarhuna Oil Press",
    "lat": 32.33,
    "lng": 13.58,
    "startYear": 100,
    "endYear": 380,
    "source": "OxREP",
    "category": "production",
    "description": "Olive press on the productive Gebel Tarhuna plateau"
  },
  {
    "id": "press:press-199",
    "type": "press",
    "subtype": "oil",
    "name": "Bu Njem Oil Press",
    "lat": 31.05,
    "lng": 14.45,
    "startYear": 200,
    "endYear": 350,
    "source": "OxREP",
    "category": "production",
    "description": "Frontier olive press at the military outpost of Gholaia (Bu Njem)"
  },
  {
    "id": "press:press-200",
    "type": "press",
    "subtype": "oil",
    "name": "Cuicul North Oil Press",
    "lat": 36.34,
    "lng": 5.73,
    "startYear": 100,
    "endYear": 350,
    "source": "OxREP",
    "category": "production",
    "description": "Oil press north of the ancient city of Cuicul (Djemila)"
  },
  {
    "id": "press:press-201",
    "type": "press",
    "subtype": "oil",
    "name": "Sitifis West Oil Press",
    "lat": 36.19,
    "lng": 5.38,
    "startYear": 100,
    "endYear": 380,
    "source": "OxREP",
    "category": "production",
    "description": "Olive press installation west of Sitifis in the high plains"
  },
  {
    "id": "press:press-202",
    "type": "press",
    "subtype": "oil",
    "name": "Tiddis Oil Press",
    "lat": 36.46,
    "lng": 6.4,
    "startYear": 100,
    "endYear": 350,
    "source": "OxREP",
    "category": "production",
    "description": "Hillside olive press at the remarkable cliff-side city of Tiddis"
  },
  {
    "id": "press:press-203",
    "type": "press",
    "subtype": "oil",
    "name": "Theveste South Oil Press",
    "lat": 35.38,
    "lng": 8.1,
    "startYear": 150,
    "endYear": 400,
    "source": "OxREP",
    "category": "production",
    "description": "Oil press in the southern hinterland of Theveste (Tebessa)"
  },
  {
    "id": "press:press-204",
    "type": "press",
    "subtype": "oil",
    "name": "Khemissa Oil Press",
    "lat": 36.22,
    "lng": 7.63,
    "startYear": 100,
    "endYear": 350,
    "source": "OxREP",
    "category": "production",
    "description": "Olive press at ancient Thubursicu Numidarum"
  },
  {
    "id": "press:press-205",
    "type": "press",
    "subtype": "oil",
    "name": "Announa Oil Press",
    "lat": 36.27,
    "lng": 7.37,
    "startYear": 100,
    "endYear": 380,
    "source": "OxREP",
    "category": "production",
    "description": "Oil press at ancient Thibilis in eastern Numidia"
  },
  {
    "id": "press:press-206",
    "type": "press",
    "subtype": "oil",
    "name": "Khamissa Oil Press",
    "lat": 36.2,
    "lng": 7.63,
    "startYear": 100,
    "endYear": 350,
    "source": "OxREP",
    "category": "production",
    "description": "Olive press at the ancient Numidian city of Thubursicu Numidarum"
  },
  {
    "id": "press:press-207",
    "type": "press",
    "subtype": "oil",
    "name": "Batna Oil Press",
    "lat": 35.56,
    "lng": 6.17,
    "startYear": 150,
    "endYear": 400,
    "source": "OxREP",
    "category": "production",
    "description": "Oil press near the Aur\u00e8s mountain military frontier",
    "qid": "Q116140735"
  },
  {
    "id": "press:press-208",
    "type": "press",
    "subtype": "oil",
    "name": "Biskra Oil Press",
    "lat": 34.85,
    "lng": 5.73,
    "startYear": 200,
    "endYear": 380,
    "source": "OxREP",
    "category": "production",
    "description": "Southern frontier olive press near the oasis town of Vescera",
    "qid": "Q116198149"
  },
  {
    "id": "press:press-209",
    "type": "press",
    "subtype": "oil",
    "name": "Constantine Oil Press",
    "lat": 36.37,
    "lng": 6.61,
    "startYear": 50,
    "endYear": 350,
    "source": "OxREP",
    "category": "production",
    "description": "Olive press near ancient Cirta, capital of Numidia",
    "qid": "Q127430031"
  },
  {
    "id": "press:press-210",
    "type": "press",
    "subtype": "oil",
    "name": "Milev Oil Press",
    "lat": 36.45,
    "lng": 6.26,
    "startYear": 100,
    "endYear": 380,
    "source": "OxREP",
    "category": "production",
    "description": "Oil press at ancient Mila in the Constantine high plains"
  },
  {
    "id": "press:press-211",
    "type": "press",
    "subtype": "oil",
    "name": "Thagaste Oil Press",
    "lat": 36.28,
    "lng": 7.95,
    "startYear": 50,
    "endYear": 350,
    "source": "OxREP",
    "category": "production",
    "description": "Olive press at Saint Augustine's birthplace of Thagaste (Souk Ahras)",
    "qid": "Q1324444"
  },
  {
    "id": "press:press-212",
    "type": "press",
    "subtype": "oil",
    "name": "Cirta South Oil Press",
    "lat": 36.33,
    "lng": 6.6,
    "startYear": 100,
    "endYear": 350,
    "source": "OxREP",
    "category": "production",
    "description": "Oil press in the southern agricultural territory of Cirta"
  },
  {
    "id": "press:press-213",
    "type": "press",
    "subtype": "oil",
    "name": "Bougie Oil Press",
    "lat": 36.75,
    "lng": 5.08,
    "startYear": 100,
    "endYear": 350,
    "source": "OxREP",
    "category": "production",
    "description": "Coastal olive press at ancient Saldae (B\u00e9ja\u00efa) in Kabylie"
  },
  {
    "id": "press:press-214",
    "type": "press",
    "subtype": "oil",
    "name": "Chorazin Oil Press",
    "lat": 32.91,
    "lng": 35.56,
    "startYear": 50,
    "endYear": 350,
    "source": "OxREP",
    "category": "production",
    "description": "Basalt olive press at the Galilean village of Chorazin"
  },
  {
    "id": "press:press-215",
    "type": "press",
    "subtype": "oil",
    "name": "Yodefat Oil Press",
    "lat": 32.83,
    "lng": 35.28,
    "startYear": -50,
    "endYear": 70,
    "source": "OxREP",
    "category": "production",
    "description": "Early Roman olive press at the fortified village of Yodefat"
  },
  {
    "id": "press:press-216",
    "type": "press",
    "subtype": "oil",
    "name": "Meiron Oil Press",
    "lat": 33,
    "lng": 35.44,
    "startYear": 50,
    "endYear": 350,
    "source": "OxREP",
    "category": "production",
    "description": "Oil press in the olive-rich Upper Galilee near Meiron"
  },
  {
    "id": "press:press-217",
    "type": "press",
    "subtype": "oil",
    "name": "Kfar Nahum Oil Press",
    "lat": 32.88,
    "lng": 35.57,
    "startYear": 50,
    "endYear": 300,
    "source": "OxREP",
    "category": "production",
    "description": "Village olive press at ancient Kfar Nahum near the Sea of Galilee"
  },
  {
    "id": "press:press-218",
    "type": "press",
    "subtype": "oil",
    "name": "Nabratein Oil Press",
    "lat": 33.01,
    "lng": 35.5,
    "startYear": 100,
    "endYear": 350,
    "source": "OxREP",
    "category": "production",
    "description": "Olive press in the Upper Galilee village of Nabratein"
  },
  {
    "id": "press:press-219",
    "type": "press",
    "subtype": "oil",
    "name": "Khirbet Shema Oil Press",
    "lat": 33,
    "lng": 35.47,
    "startYear": 100,
    "endYear": 350,
    "source": "OxREP",
    "category": "production",
    "description": "Hillside olive press in the mountainous Upper Galilee"
  },
  {
    "id": "press:press-220",
    "type": "press",
    "subtype": "oil",
    "name": "Huqoq Oil Press",
    "lat": 32.87,
    "lng": 35.49,
    "startYear": 50,
    "endYear": 350,
    "source": "OxREP",
    "category": "production",
    "description": "Oil press at the Galilean village of Huqoq near the Sea of Galilee"
  },
  {
    "id": "press:press-221",
    "type": "press",
    "subtype": "oil",
    "name": "Arbel Oil Press",
    "lat": 32.82,
    "lng": 35.5,
    "startYear": 50,
    "endYear": 300,
    "source": "OxREP",
    "category": "production",
    "description": "Olive press beneath the cliffs of Mount Arbel in Lower Galilee"
  },
  {
    "id": "press:press-222",
    "type": "press",
    "subtype": "oil",
    "name": "Cana Oil Press",
    "lat": 32.8,
    "lng": 35.34,
    "startYear": 50,
    "endYear": 300,
    "source": "OxREP",
    "category": "production",
    "description": "Village olive press at ancient Cana in Lower Galilee"
  },
  {
    "id": "press:press-223",
    "type": "press",
    "subtype": "oil",
    "name": "Tiberias Oil Press",
    "lat": 32.79,
    "lng": 35.53,
    "startYear": 50,
    "endYear": 350,
    "source": "OxREP",
    "category": "production",
    "description": "Oil press near the Sea of Galilee lakeside city of Tiberias"
  },
  {
    "id": "press:press-224",
    "type": "press",
    "subtype": "oil",
    "name": "Gezer Oil Press",
    "lat": 31.87,
    "lng": 34.92,
    "startYear": -50,
    "endYear": 200,
    "source": "OxREP",
    "category": "production",
    "description": "Ancient olive press at the strategic site of Gezer in the Shephelah",
    "qid": "Q975999"
  },
  {
    "id": "press:press-225",
    "type": "press",
    "subtype": "oil",
    "name": "Beth Guvrin Oil Press",
    "lat": 31.61,
    "lng": 34.9,
    "startYear": 50,
    "endYear": 350,
    "source": "OxREP",
    "category": "production",
    "description": "Olive press in the cave-rich landscape of Eleutheropolis"
  },
  {
    "id": "press:press-226",
    "type": "press",
    "subtype": "oil",
    "name": "Herodium Oil Press",
    "lat": 31.66,
    "lng": 35.24,
    "startYear": -30,
    "endYear": 70,
    "source": "OxREP",
    "category": "production",
    "description": "Herodian-period olive press at the palace-fortress of Herodium"
  },
  {
    "id": "press:press-227",
    "type": "press",
    "subtype": "oil",
    "name": "Khirbet el-Muraq Oil Press",
    "lat": 31.55,
    "lng": 35.1,
    "startYear": 50,
    "endYear": 300,
    "source": "OxREP",
    "category": "production",
    "description": "Rural Judean olive press in the hill country south of Jerusalem"
  },
  {
    "id": "press:press-228",
    "type": "press",
    "subtype": "oil",
    "name": "Emmaus Oil Press",
    "lat": 31.84,
    "lng": 34.99,
    "startYear": 50,
    "endYear": 300,
    "source": "OxREP",
    "category": "production",
    "description": "Oil press at the road junction settlement of Emmaus-Nicopolis",
    "qid": "Q1268317"
  },
  {
    "id": "press:press-229",
    "type": "press",
    "subtype": "oil",
    "name": "Susiya Oil Press",
    "lat": 31.39,
    "lng": 35.11,
    "startYear": 100,
    "endYear": 350,
    "source": "OxREP",
    "category": "production",
    "description": "Olive press in the southern Hebron hills village of Susiya"
  },
  {
    "id": "press:press-230",
    "type": "press",
    "subtype": "oil",
    "name": "Horvat Eleq Oil Press",
    "lat": 32.59,
    "lng": 35.04,
    "startYear": 50,
    "endYear": 300,
    "source": "OxREP",
    "category": "production",
    "description": "Oil press in the Menashe highlands of northern Samaria"
  },
  {
    "id": "press:press-231",
    "type": "press",
    "subtype": "oil",
    "name": "Tell en-Nasbeh Oil Press",
    "lat": 31.88,
    "lng": 35.22,
    "startYear": -50,
    "endYear": 200,
    "source": "OxREP",
    "category": "production",
    "description": "Ancient olive press near the Judean town of Mizpah"
  },
  {
    "id": "press:press-232",
    "type": "press",
    "subtype": "oil",
    "name": "Chhim Oil Press",
    "lat": 33.56,
    "lng": 35.5,
    "startYear": 100,
    "endYear": 350,
    "source": "OxREP",
    "category": "production",
    "description": "Roman temple and oil press complex at Chhim in southern Lebanon"
  },
  {
    "id": "press:press-233",
    "type": "press",
    "subtype": "oil",
    "name": "Qana Oil Press",
    "lat": 33.21,
    "lng": 35.3,
    "startYear": 50,
    "endYear": 300,
    "source": "OxREP",
    "category": "production",
    "description": "Olive press at ancient Qana in southern Lebanon",
    "qid": "Q753812"
  },
  {
    "id": "press:press-234",
    "type": "press",
    "subtype": "oil",
    "name": "Jiyeh Oil Press",
    "lat": 33.67,
    "lng": 35.41,
    "startYear": 100,
    "endYear": 350,
    "source": "OxREP",
    "category": "production",
    "description": "Coastal olive and wine production at ancient Porphyreon"
  },
  {
    "id": "press:press-235",
    "type": "press",
    "subtype": "oil",
    "name": "Shahba Oil Press",
    "lat": 32.86,
    "lng": 36.63,
    "startYear": 200,
    "endYear": 400,
    "source": "OxREP",
    "category": "production",
    "description": "Olive press at Philippopolis, birthplace of Emperor Philip the Arab"
  },
  {
    "id": "press:press-236",
    "type": "press",
    "subtype": "oil",
    "name": "Qanawat Oil Press",
    "lat": 32.77,
    "lng": 36.52,
    "startYear": 100,
    "endYear": 350,
    "source": "OxREP",
    "category": "production",
    "description": "Monumental olive press at the Hauran sanctuary town of Canatha"
  },
  {
    "id": "press:press-237",
    "type": "press",
    "subtype": "oil",
    "name": "Ezra Oil Press",
    "lat": 32.78,
    "lng": 36.39,
    "startYear": 100,
    "endYear": 350,
    "source": "OxREP",
    "category": "production",
    "description": "Oil press in the basalt landscape of the northern Hauran"
  },
  {
    "id": "press:press-238",
    "type": "press",
    "subtype": "oil",
    "name": "Sia Oil Press",
    "lat": 32.72,
    "lng": 36.57,
    "startYear": 50,
    "endYear": 300,
    "source": "OxREP",
    "category": "production",
    "description": "Olive press near the hilltop sanctuary of Sia in the Hauran"
  },
  {
    "id": "press:press-239",
    "type": "press",
    "subtype": "oil",
    "name": "Madaba Oil Press",
    "lat": 31.72,
    "lng": 35.79,
    "startYear": 100,
    "endYear": 400,
    "source": "OxREP",
    "category": "production",
    "description": "Olive press at the mosaic-famous city of Madaba on the Moab plateau"
  },
  {
    "id": "press:press-240",
    "type": "press",
    "subtype": "oil",
    "name": "Abila Oil Press",
    "lat": 32.66,
    "lng": 35.85,
    "startYear": 50,
    "endYear": 350,
    "source": "OxREP",
    "category": "production",
    "description": "Oil press at the Decapolis city of Abila in northern Jordan",
    "qid": "Q1314033"
  },
  {
    "id": "press:press-241",
    "type": "press",
    "subtype": "oil",
    "name": "Gadara Oil Press",
    "lat": 32.66,
    "lng": 35.67,
    "startYear": 50,
    "endYear": 350,
    "source": "OxREP",
    "category": "production",
    "description": "Olive press at the Decapolis city of Gadara overlooking the Sea of Galilee"
  },
  {
    "id": "press:press-242",
    "type": "press",
    "subtype": "oil",
    "name": "Rabbath Ammon Oil Press",
    "lat": 31.95,
    "lng": 35.93,
    "startYear": 100,
    "endYear": 350,
    "source": "OxREP",
    "category": "production",
    "description": "Oil press near ancient Philadelphia (Amman) in the Jordan valley hills"
  },
  {
    "id": "press:press-243",
    "type": "press",
    "subtype": "oil",
    "name": "Hesban Oil Press",
    "lat": 31.8,
    "lng": 35.81,
    "startYear": 100,
    "endYear": 350,
    "source": "OxREP",
    "category": "production",
    "description": "Olive press at biblical Heshbon on the Transjordan plateau"
  },
  {
    "id": "press:press-244",
    "type": "press",
    "subtype": "oil",
    "name": "Dhiban Oil Press",
    "lat": 31.5,
    "lng": 35.78,
    "startYear": 100,
    "endYear": 350,
    "source": "OxREP",
    "category": "production",
    "description": "Oil press at ancient Dibon on the King's Highway in Moab"
  },
  {
    "id": "press:press-245",
    "type": "press",
    "subtype": "oil",
    "name": "Umm el-Jimal Oil Press",
    "lat": 32.32,
    "lng": 36.35,
    "startYear": 200,
    "endYear": 500,
    "source": "OxREP",
    "category": "production",
    "description": "Late antique basalt olive press at the black stone city of Umm el-Jimal"
  },
  {
    "id": "press:press-246",
    "type": "press",
    "subtype": "oil",
    "name": "La Catria Oil Press",
    "lat": 37.64,
    "lng": -5.55,
    "startYear": 50,
    "endYear": 300,
    "source": "OxREP",
    "category": "production",
    "description": "Major Dressel 20 amphora production and oil press site on the Guadalquivir"
  },
  {
    "id": "press:press-247",
    "type": "press",
    "subtype": "oil",
    "name": "Pe\u00f1aflor Oil Press",
    "lat": 37.71,
    "lng": -5.34,
    "startYear": 50,
    "endYear": 350,
    "source": "OxREP",
    "category": "production",
    "description": "Olive oil production at ancient Celti on the Guadalquivir",
    "qid": "Q23982511"
  },
  {
    "id": "press:press-248",
    "type": "press",
    "subtype": "oil",
    "name": "Posadas Oil Press",
    "lat": 37.81,
    "lng": -5.11,
    "startYear": 50,
    "endYear": 300,
    "source": "OxREP",
    "category": "production",
    "description": "Oil press in the middle Guadalquivir near ancient Detumo",
    "qid": "Q818312"
  },
  {
    "id": "press:press-249",
    "type": "press",
    "subtype": "oil",
    "name": "Montoro Oil Press",
    "lat": 38.02,
    "lng": -4.38,
    "startYear": 50,
    "endYear": 350,
    "source": "OxREP",
    "category": "production",
    "description": "Olive press at ancient Epora on the upper Guadalquivir"
  },
  {
    "id": "press:press-250",
    "type": "press",
    "subtype": "oil",
    "name": "Bujalance Oil Press",
    "lat": 37.88,
    "lng": -4.39,
    "startYear": 100,
    "endYear": 350,
    "source": "OxREP",
    "category": "production",
    "description": "Oil press in the Guadalquivir campi\u00f1a near Bujalance"
  },
  {
    "id": "press:press-251",
    "type": "press",
    "subtype": "oil",
    "name": "Castro del R\u00edo Oil Press",
    "lat": 37.69,
    "lng": -4.48,
    "startYear": 50,
    "endYear": 350,
    "source": "OxREP",
    "category": "production",
    "description": "Olive press in the Guadalquivir basin at Castro del R\u00edo"
  },
  {
    "id": "press:press-252",
    "type": "press",
    "subtype": "oil",
    "name": "Martos Oil Press",
    "lat": 37.72,
    "lng": -3.97,
    "startYear": 50,
    "endYear": 350,
    "source": "OxREP",
    "category": "production",
    "description": "Olive oil production near ancient Tucci in the Ja\u00e9n foothills"
  },
  {
    "id": "press:press-253",
    "type": "press",
    "subtype": "oil",
    "name": "Baena Oil Press",
    "lat": 37.62,
    "lng": -4.32,
    "startYear": 50,
    "endYear": 350,
    "source": "OxREP",
    "category": "production",
    "description": "Oil press at ancient Iponoba in the southern Guadalquivir basin"
  },
  {
    "id": "press:press-254",
    "type": "press",
    "subtype": "oil",
    "name": "Puente Genil Oil Press",
    "lat": 37.39,
    "lng": -4.77,
    "startYear": 100,
    "endYear": 350,
    "source": "OxREP",
    "category": "production",
    "description": "Olive press at the confluence of the Genil and Guadalquivir basins"
  },
  {
    "id": "press:press-255",
    "type": "press",
    "subtype": "oil",
    "name": "Montilla Oil Press",
    "lat": 37.59,
    "lng": -4.64,
    "startYear": 100,
    "endYear": 350,
    "source": "OxREP",
    "category": "production",
    "description": "Oil press in the Cordoban campi\u00f1a south of the Guadalquivir"
  },
  {
    "id": "press:press-256",
    "type": "press",
    "subtype": "oil",
    "name": "Carmona Oil Press",
    "lat": 37.47,
    "lng": -5.64,
    "startYear": 50,
    "endYear": 300,
    "source": "OxREP",
    "category": "production",
    "description": "Olive press at the hilltop city of Carmo in western Baetica",
    "qid": "Q20995230"
  },
  {
    "id": "press:press-257",
    "type": "press",
    "subtype": "oil",
    "name": "Marchena Oil Press",
    "lat": 37.33,
    "lng": -5.42,
    "startYear": 100,
    "endYear": 350,
    "source": "OxREP",
    "category": "production",
    "description": "Oil press in the agricultural heartland of the lower Guadalquivir"
  },
  {
    "id": "press:press-258",
    "type": "press",
    "subtype": "oil",
    "name": "Osuna Oil Press",
    "lat": 37.24,
    "lng": -5.1,
    "startYear": 50,
    "endYear": 350,
    "source": "OxREP",
    "category": "production",
    "description": "Olive press at ancient Urso, Caesarian colony in Baetica"
  },
  {
    "id": "press:press-259",
    "type": "press",
    "subtype": "oil",
    "name": "Priego de C\u00f3rdoba Oil Press",
    "lat": 37.44,
    "lng": -4.2,
    "startYear": 100,
    "endYear": 350,
    "source": "OxREP",
    "category": "production",
    "description": "Mountain olive press in the Subb\u00e9tica zone of eastern Baetica"
  },
  {
    "id": "press:press-260",
    "type": "press",
    "subtype": "oil",
    "name": "Alcaudete Oil Press",
    "lat": 37.59,
    "lng": -4.08,
    "startYear": 100,
    "endYear": 380,
    "source": "OxREP",
    "category": "production",
    "description": "Olive press in the Ja\u00e9n uplands between Baetica and the Sierra"
  },
  {
    "id": "press:press-261",
    "type": "press",
    "subtype": "oil",
    "name": "\u00dabeda Oil Press",
    "lat": 38.01,
    "lng": -3.37,
    "startYear": 100,
    "endYear": 350,
    "source": "OxREP",
    "category": "production",
    "description": "Oil press in the upper Guadalquivir near ancient Salaria"
  },
  {
    "id": "press:press-262",
    "type": "press",
    "subtype": "oil",
    "name": "Baeza Oil Press",
    "lat": 37.99,
    "lng": -3.47,
    "startYear": 100,
    "endYear": 350,
    "source": "OxREP",
    "category": "production",
    "description": "Olive press near ancient Vivatia in the Ja\u00e9n olive belt"
  },
  {
    "id": "press:press-263",
    "type": "press",
    "subtype": "oil",
    "name": "Porcuna Oil Press",
    "lat": 37.87,
    "lng": -4.19,
    "startYear": 50,
    "endYear": 300,
    "source": "OxREP",
    "category": "production",
    "description": "Oil press at ancient Obulco, major center of Baetican oil trade"
  },
  {
    "id": "press:press-264",
    "type": "press",
    "subtype": "oil",
    "name": "Linares Oil Press",
    "lat": 38.1,
    "lng": -3.64,
    "startYear": 50,
    "endYear": 350,
    "source": "OxREP",
    "category": "production",
    "description": "Olive press near the mining and agricultural town of Castulo"
  },
  {
    "id": "press:press-265",
    "type": "press",
    "subtype": "oil",
    "name": "And\u00fajar Oil Press",
    "lat": 38.04,
    "lng": -4.05,
    "startYear": 50,
    "endYear": 350,
    "source": "OxREP",
    "category": "production",
    "description": "Oil press at ancient Isturgi, center of terra sigillata and oil production"
  },
  {
    "id": "press:press-266",
    "type": "press",
    "subtype": "wine",
    "name": "Rioja Wine Press",
    "lat": 42.45,
    "lng": -2.45,
    "startYear": 50,
    "endYear": 300,
    "source": "OxREP",
    "category": "production",
    "description": "Wine press in the Ebro valley, early Roman viticulture in Hispania Tarraconensis",
    "qid": "Q1569384"
  },
  {
    "id": "press:press-267",
    "type": "press",
    "subtype": "wine",
    "name": "Navarra Wine Press",
    "lat": 42.67,
    "lng": -1.65,
    "startYear": 50,
    "endYear": 300,
    "source": "OxREP",
    "category": "production",
    "description": "Roman wine production in the Navarra region of the upper Ebro valley"
  },
  {
    "id": "press:press-268",
    "type": "press",
    "subtype": "wine",
    "name": "Pened\u00e8s Wine Press",
    "lat": 41.38,
    "lng": 1.71,
    "startYear": 50,
    "endYear": 300,
    "source": "OxREP",
    "category": "production",
    "description": "Wine press in the Laetanian wine region south of Barcino"
  },
  {
    "id": "press:press-269",
    "type": "press",
    "subtype": "wine",
    "name": "Ampurias Wine Press",
    "lat": 42.14,
    "lng": 3.12,
    "startYear": -50,
    "endYear": 200,
    "source": "OxREP",
    "category": "production",
    "description": "Early wine press at the Greek-Roman colony of Emporiae"
  },
  {
    "id": "press:press-270",
    "type": "press",
    "subtype": "wine",
    "name": "Priorat Wine Press",
    "lat": 41.2,
    "lng": 0.74,
    "startYear": 100,
    "endYear": 300,
    "source": "OxREP",
    "category": "production",
    "description": "Wine production in the Priorat hills of coastal Tarraconensis"
  },
  {
    "id": "press:press-271",
    "type": "press",
    "subtype": "wine",
    "name": "Jumilla Wine Press",
    "lat": 38.47,
    "lng": -1.33,
    "startYear": 100,
    "endYear": 350,
    "source": "OxREP",
    "category": "production",
    "description": "Wine press in the southeastern Spanish meseta at Jumilla"
  },
  {
    "id": "press:press-272",
    "type": "press",
    "subtype": "wine",
    "name": "Valdepe\u00f1as Wine Press",
    "lat": 38.76,
    "lng": -3.38,
    "startYear": 100,
    "endYear": 350,
    "source": "OxREP",
    "category": "production",
    "description": "Wine production in the La Mancha region of central Hispania"
  },
  {
    "id": "press:press-273",
    "type": "press",
    "subtype": "wine",
    "name": "Lugo Wine Press",
    "lat": 43.01,
    "lng": -7.56,
    "startYear": 100,
    "endYear": 300,
    "source": "OxREP",
    "category": "production",
    "description": "Wine press in Roman Gallaecia, northern frontier viticulture"
  },
  {
    "id": "press:press-274",
    "type": "press",
    "subtype": "wine",
    "name": "Requena Wine Press",
    "lat": 39.49,
    "lng": -1.1,
    "startYear": 100,
    "endYear": 350,
    "source": "OxREP",
    "category": "production",
    "description": "Wine press in the Utiel-Requena region of eastern Hispania"
  },
  {
    "id": "press:press-275",
    "type": "press",
    "subtype": "oil",
    "name": "Lyttos Oil Press",
    "lat": 35.2,
    "lng": 25.38,
    "startYear": 50,
    "endYear": 350,
    "source": "OxREP",
    "category": "production",
    "description": "Olive press at the ancient Cretan city of Lyttos in central Crete"
  },
  {
    "id": "press:press-276",
    "type": "press",
    "subtype": "oil",
    "name": "Aptera Oil Press",
    "lat": 35.46,
    "lng": 24.14,
    "startYear": 50,
    "endYear": 350,
    "source": "OxREP",
    "category": "production",
    "description": "Oil press at the fortified city of Aptera overlooking Souda Bay",
    "qid": "Q127429611"
  },
  {
    "id": "press:press-277",
    "type": "press",
    "subtype": "wine",
    "name": "Chersonesos Wine Press",
    "lat": 35.31,
    "lng": 25.39,
    "startYear": 100,
    "endYear": 350,
    "source": "OxREP",
    "category": "production",
    "description": "Wine press at the prosperous port town of Chersonesos in northern Crete",
    "qid": "Q5092564"
  },
  {
    "id": "press:press-278",
    "type": "press",
    "subtype": "oil",
    "name": "Kissamos Oil Press",
    "lat": 35.5,
    "lng": 23.66,
    "startYear": 50,
    "endYear": 350,
    "source": "OxREP",
    "category": "production",
    "description": "Olive press at ancient Kissamos in western Crete",
    "qid": "Q1021629"
  },
  {
    "id": "press:press-279",
    "type": "press",
    "subtype": "oil",
    "name": "Hierapytna Oil Press",
    "lat": 35,
    "lng": 25.73,
    "startYear": 100,
    "endYear": 350,
    "source": "OxREP",
    "category": "production",
    "description": "Oil press at the southernmost city of the Roman Empire in eastern Crete",
    "qid": "Q17322269"
  },
  {
    "id": "press:press-280",
    "type": "press",
    "subtype": "oil",
    "name": "Tegea Oil Press",
    "lat": 37.45,
    "lng": 22.42,
    "startYear": 50,
    "endYear": 300,
    "source": "OxREP",
    "category": "production",
    "description": "Olive press at the Arcadian city of Tegea in the central Peloponnese"
  },
  {
    "id": "press:press-281",
    "type": "press",
    "subtype": "oil",
    "name": "Argos Oil Press",
    "lat": 37.63,
    "lng": 22.72,
    "startYear": 50,
    "endYear": 300,
    "source": "OxREP",
    "category": "production",
    "description": "Oil press in the fertile Argive plain of the northeastern Peloponnese",
    "qid": "Q13533353"
  },
  {
    "id": "press:press-282",
    "type": "press",
    "subtype": "oil",
    "name": "Elis Oil Press",
    "lat": 37.89,
    "lng": 21.37,
    "startYear": 50,
    "endYear": 300,
    "source": "OxREP",
    "category": "production",
    "description": "Olive press in the agricultural region of Elis in the western Peloponnese",
    "qid": "Q106996940"
  },
  {
    "id": "press:press-283",
    "type": "press",
    "subtype": "oil",
    "name": "Nikopolis Oil Press",
    "lat": 38.96,
    "lng": 20.72,
    "startYear": 50,
    "endYear": 350,
    "source": "OxREP",
    "category": "production",
    "description": "Oil press at Augustan victory city of Nikopolis in Epirus"
  },
  {
    "id": "press:press-284",
    "type": "press",
    "subtype": "oil",
    "name": "Thebes Oil Press",
    "lat": 38.32,
    "lng": 23.32,
    "startYear": 50,
    "endYear": 300,
    "source": "OxREP",
    "category": "production",
    "description": "Olive press in the agricultural hinterland of Boeotian Thebes",
    "qid": "Q11225429"
  },
  {
    "id": "press:press-285",
    "type": "press",
    "subtype": "oil",
    "name": "Delphi Oil Press",
    "lat": 38.48,
    "lng": 22.5,
    "startYear": 50,
    "endYear": 300,
    "source": "OxREP",
    "category": "production",
    "description": "Oil press in the sacred landscape near the oracle of Delphi",
    "qid": "Q75459"
  },
  {
    "id": "press:press-286",
    "type": "press",
    "subtype": "oil",
    "name": "Larissa Oil Press",
    "lat": 39.64,
    "lng": 22.42,
    "startYear": 100,
    "endYear": 350,
    "source": "OxREP",
    "category": "production",
    "description": "Olive press in the Thessalian plain near Larissa",
    "qid": "Q30693443"
  },
  {
    "id": "press:press-287",
    "type": "press",
    "subtype": "wine",
    "name": "Philippi Wine Press",
    "lat": 41.01,
    "lng": 24.29,
    "startYear": 50,
    "endYear": 350,
    "source": "OxREP",
    "category": "production",
    "description": "Wine press at the Macedonian colony of Philippi",
    "qid": "Q379652"
  },
  {
    "id": "press:press-288",
    "type": "press",
    "subtype": "wine",
    "name": "Samos Wine Press",
    "lat": 37.75,
    "lng": 26.97,
    "startYear": 50,
    "endYear": 350,
    "source": "OxREP",
    "category": "production",
    "description": "Wine production on the renowned wine island of Samos"
  },
  {
    "id": "press:press-289",
    "type": "press",
    "subtype": "wine",
    "name": "Paros Wine Press",
    "lat": 37.04,
    "lng": 25.15,
    "startYear": 50,
    "endYear": 300,
    "source": "OxREP",
    "category": "production",
    "description": "Wine press on the Cycladic island of Paros"
  },
  {
    "id": "press:press-290",
    "type": "press",
    "subtype": "wine",
    "name": "Santorini Wine Press",
    "lat": 36.42,
    "lng": 25.43,
    "startYear": 100,
    "endYear": 350,
    "source": "OxREP",
    "category": "production",
    "description": "Volcanic terroir wine press on ancient Thera"
  },
  {
    "id": "press:press-291",
    "type": "press",
    "subtype": "oil",
    "name": "Cephalonia Oil Press",
    "lat": 38.18,
    "lng": 20.49,
    "startYear": 50,
    "endYear": 300,
    "source": "OxREP",
    "category": "production",
    "description": "Olive press on the Ionian island of Cephalonia"
  },
  {
    "id": "press:press-292",
    "type": "press",
    "subtype": "oil",
    "name": "Corfu Oil Press",
    "lat": 39.62,
    "lng": 19.92,
    "startYear": 50,
    "endYear": 350,
    "source": "OxREP",
    "category": "production",
    "description": "Oil press on the olive-rich Ionian island of Corcyra",
    "qid": "Q4120811"
  },