[
  {
    "id": "142298158",
    "name": "'Ain el-Sabil Church",
    "lat": 25.5027,
    "lng": 29.0835,
    "religion": "roman",
    "siteType": "church",
    "deity": null,
    "startYear": 400,
    "endYear": 400,
    "description": "Late antique mud-brick church located at Ain el-Sabil in Egypt. The exact dating of the site is still unknown.",
    "source": "Pleiades"
  },
  {
    "id": "93794091",
    "name": "'Awām",
    "lat": 15.4042,
    "lng": 45.356,
    "religion": "roman",
    "siteType": "temple",
    "deity": null,
    "startYear": 50,
    "endYear": 250,
    "description": "The ruins of the Sabaean temple dedicated to Almaqah and its associated burial ground are located near the town of Mārib, Yemen.",
    "source": "Pleiades"
  },
  {
    "id": "196074068",
    "name": "'Ein Gedi",
    "lat": 31.4684,
    "lng": 35.3884,
    "religion": "roman",
    "siteType": "temple",
    "deity": null,
    "startYear": 50,
    "endYear": 250,
    "description": "A Ghassulian public building dating ca. 3500 B.C. near the oasis of Ein Gedi on the western shore of the Dead Sea.",
    "source": "Pleiades"
  },
  {
    "id": "678133",
    "name": "'Evron",
    "lat": 32.9871,
    "lng": 35.0968,
    "religion": "roman",
    "siteType": "church",
    "deity": null,
    "startYear": 400,
    "endYear": 400,
    "description": "An ancient place, cited: BAtlas 69 B4 'Evron",
    "source": "Pleiades"
  },
  {
    "id": "432875",
    "name": "‘Herculis Rani’?",
    "lat": 41.4504,
    "lng": 14.5331,
    "religion": "roman",
    "siteType": "sanctuary",
    "deity": null,
    "startYear": -200,
    "endYear": 400,
    "description": "A large fanum sacred to ‘Herculis Rani’? at Campochiaro, the name of which is then preserved in the station mentioned on the Peutinger Table. Scholars like Adriano La Regina support linking this fanum to a place mentioned by Livy, although see the discussion by Oakley.",
    "source": "Pleiades"
  },
  {
    "id": "432886",
    "name": "‘Iovis Lareni’",
    "lat": 42.0029,
    "lng": 13.9901,
    "religion": "roman",
    "siteType": "sanctuary",
    "deity": null,
    "startYear": -200,
    "endYear": 50,
    "description": "‘Iovis Lareni’ is marked as a station on the Peutinger map. It lies 7 miles from Sulmo. This place coincides with the ancient site of Ocriticum, a pre-Roman and Roman settlement. The site, located in the Italian comune of Cansano (province of L'Aquila, Abruzzo), includes the remains of two Italo-Roman temples sacred to Jupiter and Hercules and a sacellum of Ceres and Venus.",
    "source": "Pleiades"
  },
  {
    "id": "79556",
    "name": "‘Lavobrinta’?",
    "lat": 52.5821,
    "lng": -3.171,
    "religion": "roman",
    "siteType": "sanctuary",
    "deity": null,
    "startYear": 50,
    "endYear": 400,
    "description": "‘Lavobrinta’? was a Roman fort on the east bank of the Severn river.",
    "source": "Pleiades"
  },
  {
    "id": "433163",
    "name": "‘Trebula’",
    "lat": 41.9137,
    "lng": 14.2828,
    "religion": "roman",
    "siteType": "church",
    "deity": null,
    "startYear": -450,
    "endYear": -200,
    "description": "A pre-Roman site in the valley of the Sangro river that was later converted to a Christian church.",
    "source": "Pleiades"
  },
  {
    "id": "73180225",
    "name": "\"Basilica\" of San Vitale",
    "lat": 44.4205,
    "lng": 12.1962,
    "religion": "roman",
    "siteType": "church",
    "deity": null,
    "startYear": 400,
    "endYear": 400,
    "description": "A church (but not a basilica) in Ravenna, Italy, established by Bishop Ecclesius in 526 AD and consecrated ca. 547 AD.",
    "source": "Pleiades"
  },
  {
    "id": "108771",
    "name": "[Augusta] Ambianorum",
    "lat": 50.0216,
    "lng": 1.4619,
    "religion": "roman",
    "siteType": "sanctuary",
    "deity": null,
    "startYear": -200,
    "endYear": 400,
    "description": "An ancient place, cited: BAtlas 11 B2 [Augusta] Ambianorum",
    "source": "Pleiades"
  },
  {
    "id": "138260",
    "name": "[Camelaria]",
    "lat": 45.776,
    "lng": 3.0677,
    "religion": "roman",
    "siteType": "sanctuary",
    "deity": null,
    "startYear": -200,
    "endYear": 400,
    "description": "Numerous ex-votos were excavated from a spring at La Source des Roches.",
    "source": "Pleiades"
  },
  {
    "id": "619170",
    "name": "[Hagios Prokopios]",
    "lat": 38.6554,
    "lng": 34.7345,
    "religion": "roman",
    "siteType": "church",
    "deity": null,
    "startYear": 400,
    "endYear": 400,
    "description": "An ancient place, cited: BAtlas 63 F3 [Hagios Prokopios]",
    "source": "Pleiades"
  },
  {
    "id": "776215",
    "name": "[Per-ousekh]",
    "lat": 25.2866,
    "lng": 30.5579,
    "religion": "roman",
    "siteType": "temple",
    "deity": null,
    "startYear": 50,
    "endYear": 250,
    "description": "An ancient place, cited: BAtlas 79 D3 [Per-ousekh]",
    "source": "Pleiades"
  },
  {
    "id": "756676",
    "name": "[Wadi Sarga]",
    "lat": 26.8561,
    "lng": 31.2203,
    "religion": "roman",
    "siteType": "monastery",
    "deity": null,
    "startYear": 400,
    "endYear": 400,
    "description": "An ancient place, cited: BAtlas 77 E3 [Wadi Sarga]",
    "source": "Pleiades"
  },
  {
    "id": "89128",
    "name": "*Brocolitia",
    "lat": 55.0346,
    "lng": -2.2222,
    "religion": "roman",
    "siteType": "temple",
    "deity": null,
    "startYear": 50,
    "endYear": 400,
    "description": "Roman fort near present-day Carrawburgh.",
    "source": "Pleiades"
  },
  {
    "id": "256042",
    "name": "*Calanta",
    "lat": 38.7672,
    "lng": -8.0334,
    "religion": "roman",
    "siteType": "temple",
    "deity": null,
    "startYear": 50,
    "endYear": 50,
    "description": "An ancient place, cited: BAtlas 26 B3 *Calanta",
    "source": "Pleiades"
  },
  {
    "id": "138294",
    "name": "*Chrononum",
    "lat": 45.7392,
    "lng": 3.1993,
    "religion": "roman",
    "siteType": "church",
    "deity": null,
    "startYear": 400,
    "endYear": 400,
    "description": "An ancient place, cited: BAtlas 14 I3 *Chrononum",
    "source": "Pleiades"
  },
  {
    "id": "109000",
    "name": "*Ganuenta?",
    "lat": 51.599,
    "lng": 3.8462,
    "religion": "roman",
    "siteType": "sanctuary",
    "deity": null,
    "startYear": 50,
    "endYear": 50,
    "description": "Colijnsplaat, The Netherlands, is the site of an ancient sanctuary dedicated to Nehalennia.",
    "source": "Pleiades"
  },
  {
    "id": "413165",
    "name": "*Hercules Curinus",
    "lat": 42.0884,
    "lng": 13.9347,
    "religion": "roman",
    "siteType": "sanctuary",
    "deity": null,
    "startYear": -200,
    "endYear": 50,
    "description": "A sanctuary in the territory of the Paeligni dedicated to Hercules Curinus situated on an artificial terrace on the slopes of Mount Morrone. The terrace sanctuary looks over Sulmo in the valley below.",
    "source": "Pleiades"
  },
  {
    "id": "138389",
    "name": "*Iciacum",
    "lat": 45.934,
    "lng": 3.0935,
    "religion": "roman",
    "siteType": "church",
    "deity": null,
    "startYear": 400,
    "endYear": 400,
    "description": "An ancient place, cited: BAtlas 14 I3 *Iciacum",
    "source": "Pleiades"
  },
  {
    "id": "413175",
    "name": "*Incerulae",
    "lat": 42.237,
    "lng": 13.7293,
    "religion": "roman",
    "siteType": "sanctuary",
    "deity": null,
    "startYear": -200,
    "endYear": 400,
    "description": "*Incerulae, an ancient sanctuary site in the territory of the Vestini.",
    "source": "Pleiades"
  },
  {
    "id": "481874",
    "name": "*Karistoron",
    "lat": 42.3308,
    "lng": 22.7,
    "religion": "roman",
    "siteType": "temple",
    "deity": null,
    "startYear": 50,
    "endYear": 400,
    "description": "An ancient place, cited: BAtlas 49 E1 *Karistoron",
    "source": "Pleiades"
  },
  {
    "id": "138439",
    "name": "*Manatum",
    "lat": 46.1027,
    "lng": 2.902,
    "religion": "roman",
    "siteType": "church",
    "deity": null,
    "startYear": 400,
    "endYear": 400,
    "description": "An ancient place, cited: BAtlas 14 H2 *Manatum",
    "source": "Pleiades"
  },
  {
    "id": "138444",
    "name": "*Marciacum",
    "lat": 45.8768,
    "lng": 3.0821,
    "religion": "roman",
    "siteType": "church",
    "deity": null,
    "startYear": 400,
    "endYear": 400,
    "description": "An ancient place, cited: BAtlas 14 I3 *Marciacum",
    "source": "Pleiades"
  },
  {
    "id": "138448",
    "name": "*Maroialum",
    "lat": 47.2938,
    "lng": 1.3291,
    "religion": "roman",
    "siteType": "church",
    "deity": null,
    "startYear": 50,
    "endYear": 250,
    "description": "An ancient place, cited: BAtlas 14 G1 *Maroialum",
    "source": "Pleiades"
  },
  {
    "id": "138462",
    "name": "*Melita",
    "lat": 45.2554,
    "lng": 2.4301,
    "religion": "roman",
    "siteType": "church",
    "deity": null,
    "startYear": 50,
    "endYear": 250,
    "description": "An ancient place, cited: BAtlas 14 H3 *Melita",
    "source": "Pleiades"
  },
  {
    "id": "138498",
    "name": "*Novivicum",
    "lat": 47.6036,
    "lng": 0.5951,
    "religion": "roman",
    "siteType": "church",
    "deity": null,
    "startYear": 400,
    "endYear": 400,
    "description": "An ancient place, cited: BAtlas 14 F1 *Novivicum",
    "source": "Pleiades"
  },
  {
    "id": "599853",
    "name": "*Panamara",
    "lat": 37.2505,
    "lng": 28.1061,
    "religion": "roman",
    "siteType": "sanctuary",
    "deity": null,
    "startYear": -200,
    "endYear": 50,
    "description": "*Panamara was as site in Caria that was a dependency of Stratonikeia and site of the sanctuary of Zeus Panamaros.",
    "source": "Pleiades"
  },
  {
    "id": "246557",
    "name": "*Pauliacum, Mon.",
    "lat": 43.2408,
    "lng": 1.7979,
    "religion": "roman",
    "siteType": "church",
    "deity": null,
    "startYear": 400,
    "endYear": 400,
    "description": "An ancient place, cited: BAtlas 25 G2 *Pauliacum, Mon.",
    "source": "Pleiades"
  },
  {
    "id": "501574",
    "name": "*Porsulae/Maximianopolis",
    "lat": 41.1284,
    "lng": 25.3254,
    "religion": "roman",
    "siteType": "church",
    "deity": null,
    "startYear": 50,
    "endYear": 400,
    "description": "*Porsulae/Maximianopolis, also known as Mosynopolis, was a Byzantine town along the Via Egnatia in Thrace; its position is close to the modern Greek city of Komotini.",
    "source": "Pleiades"
  },
  {
    "id": "746800",
    "name": "*Qubba",
    "lat": 28.847,
    "lng": 32.5509,
    "religion": "roman",
    "siteType": "church",
    "deity": null,
    "startYear": 400,
    "endYear": 400,
    "description": "A monastery constructed in the fifth century CE on the site of a cave previously inhabited by St. Paul the Anchorite.",
    "source": "Pleiades"
  },
  {
    "id": "138532",
    "name": "*Randanum",
    "lat": 46.017,
    "lng": 3.353,
    "religion": "roman",
    "siteType": "church",
    "deity": null,
    "startYear": 400,
    "endYear": 400,
    "description": "An ancient place, cited: BAtlas 14 I3 *Randanum",
    "source": "Pleiades"
  },
  {
    "id": "776223",
    "name": "*Sioua",
    "lat": 25.6648,
    "lng": 28.8133,
    "religion": "roman",
    "siteType": "temple",
    "deity": null,
    "startYear": 50,
    "endYear": 50,
    "description": "\"Sioua\" is the Greek reconstruction of an ancient toponym (found in Egyptian sources: S·t-wȝḥ) that encompassed some part of the western end of the Dakhla Oasis in Egypt (certainly the site now known as Deir al-Haggar was included, and possibly also Amheida).",
    "source": "Pleiades"
  },
  {
    "id": "138594",
    "name": "*Siroialum?",
    "lat": 45.6147,
    "lng": 0.0108,
    "religion": "roman",
    "siteType": "church",
    "deity": null,
    "startYear": 400,
    "endYear": 400,
    "description": "An ancient place, cited: BAtlas 14 F3 *Siroialum?",
    "source": "Pleiades"
  },
  {
    "id": "50300",
    "name": "*Templum Augusti",
    "lat": 10.1576,
    "lng": 76.2072,
    "religion": "roman",
    "siteType": "temple",
    "deity": null,
    "startYear": 400,
    "endYear": 400,
    "description": "An ancient place, cited: BAtlas 5 D4 *Templum Augusti",
    "source": "Pleiades"
  },
  {
    "id": "305181",
    "name": "*Vanisnesi",
    "lat": 36.1978,
    "lng": 4.7918,
    "religion": "roman",
    "siteType": "church",
    "deity": null,
    "startYear": 50,
    "endYear": 400,
    "description": "Extensive Roman ruins identified by Gsell (AAA, whence BAtlas) at a site he called Oum Sekak in the Hassenaoua district of modern Algeria. He estimates the site extent at 13 hectares and reports the remains of a church. An inscription that seems to provide the name of the \"genius loci\" (Genius Vanisnesi) was found in the vicinity. The site is not clearly visible in twenty-first century aerial/satellite imagery and most of the modern toponymy Gsell provides does not appear in the open-source, digital gazetteers and map tools. The site may now lie under modern development in the area.",
    "source": "Pleiades"
  },
  {
    "id": "785957",
    "name": "Abaton",
    "lat": 24.0414,
    "lng": 32.8979,
    "religion": "roman",
    "siteType": "sanctuary",
    "deity": null,
    "startYear": -600,
    "endYear": 400,
    "description": "An ancient site designated as the burial place of Osiris-Serapis.",
    "source": "Pleiades"
  },
  {
    "id": "864901685",
    "name": "Abba Garima Monastery",
    "lat": 14.1606,
    "lng": 38.9528,
    "religion": "roman",
    "siteType": "monastery",
    "deity": null,
    "startYear": 50,
    "endYear": 250,
    "description": "The Abba Garima Monastery is an Ethiopian Orthodox church founded in the sixth century CE by Abba Garima, one of the so-called Nine Saints. It is located east of Adwa, in the Mehakelegnaw Zone of the northern Tigray Region of Ethiopia.",
    "source": "Pleiades"
  },
  {
    "id": "862761171",
    "name": "Abbaye Saint-Pierre de Moissac",
    "lat": 44.1054,
    "lng": 1.0849,
    "religion": "roman",
    "siteType": "monastery",
    "deity": null,
    "startYear": 50,
    "endYear": 250,
    "description": "An important monastery founded probably in the seventh century of the common era.",
    "source": "Pleiades"
  },
  {
    "id": "465384770",
    "name": "Abbazia di San Giovanni in Venere",
    "lat": 42.2548,
    "lng": 14.4986,
    "religion": "roman",
    "siteType": "church",
    "deity": null,
    "startYear": 50,
    "endYear": 250,
    "description": "A Christian monastic complex that is located in the municipality of Fossacesia, Italy. The site occupies a hilltop at 107 m above sea level on the Adriatic Sea coast. The basilica dates originally from the thirteenth century.",
    "source": "Pleiades"
  },
  {
    "id": "207801353",
    "name": "Abbazia di San Vincenzo al Volturno",
    "lat": 41.6484,
    "lng": 14.0828,
    "religion": "roman",
    "siteType": "church",
    "deity": null,
    "startYear": 50,
    "endYear": 250,
    "description": "An historic Benedictine monastery located in the Province of Isernia, near the source of the river Volturno.",
    "source": "Pleiades"
  },
  {
    "id": "618528566",
    "name": "Abbazia San Claudio al Chienti",
    "lat": 43.2841,
    "lng": 13.5168,
    "religion": "roman",
    "siteType": "church",
    "deity": null,
    "startYear": 50,
    "endYear": 250,
    "description": "The church of San Claudio al Chienti is a Romanesque church building located in the municipality of Corridonia in the Chienti valley. It was founded in the eleventh century.",
    "source": "Pleiades"
  },
  {
    "id": "65661952",
    "name": "Abbey of Monte Cassino",
    "lat": 41.4911,
    "lng": 13.8139,
    "religion": "roman",
    "siteType": "church",
    "deity": null,
    "startYear": 50,
    "endYear": 250,
    "description": "A multi-period hilltop settlement with evidence for ancient terrace construction that now supports an abbey of the Benedictine order.",
    "source": "Pleiades"
  },
  {
    "id": "475264756",
    "name": "Abbeyknockmoy abbey",
    "lat": 53.4406,
    "lng": -8.7423,
    "religion": "roman",
    "siteType": "church",
    "deity": null,
    "startYear": 50,
    "endYear": 250,
    "description": "A ruined Medieval Cistercian abbey founded in 1190.",
    "source": "Pleiades"
  },
  {
    "id": "795823945",
    "name": "Abini nuragic sanctuary",
    "lat": 40.1455,
    "lng": 9.0929,
    "religion": "roman",
    "siteType": "sanctuary",
    "deity": null,
    "startYear": 50,
    "endYear": 250,
    "description": "A nuragic sanctuary.",
    "source": "Pleiades"
  },
  {
    "id": "721417202",
    "name": "Abu Simbel",
    "lat": 22.3364,
    "lng": 31.6266,
    "religion": "roman",
    "siteType": "temple",
    "deity": null,
    "startYear": 50,
    "endYear": 250,
    "description": "The site of two temples constructed by Ramesses II, one dedicated to the triad of Amun, Ra-Horakhty, and Ptah, as well as the deified Ramesses, and another dedicated to Hathor and the pharaoh's wife Nefertari. The temple was relocated between 1964 and 1968 to prevent its submersion under Lake Nasser after the construction of the Aswan High Dam.",
    "source": "Pleiades"
  },
  {
    "id": "756512",
    "name": "Abydos/Ebot",
    "lat": 26.1851,
    "lng": 31.9176,
    "religion": "roman",
    "siteType": "sanctuary",
    "deity": null,
    "startYear": -200,
    "endYear": 400,
    "description": "An ancient Egyptian city and the burial place of its first kings. Primary cult place of the god Osiris.",
    "source": "Pleiades"
  },
  {
    "id": "707486",
    "name": "Achna",
    "lat": 35.0571,
    "lng": 33.7915,
    "religion": "roman",
    "siteType": "sanctuary",
    "deity": null,
    "startYear": -600,
    "endYear": -450,
    "description": "Achna is a modern village on Cyprus where evidence exists for an ancient sanctuary dedicated to a goddess perhaps associated with Artemis.",
    "source": "Pleiades"
  },
  {
    "id": "832104041",
    "name": "Acropolis of Cumae",
    "lat": 40.849,
    "lng": 14.054,
    "religion": "roman",
    "siteType": "sanctuary",
    "deity": null,
    "startYear": -600,
    "endYear": 400,
    "description": "The Acropolis of Cumae was used across multiple periods, beginning with the foundation of the Greek colony in the eighth century B.C.",
    "source": "Pleiades"
  },
  {
    "id": "530771",
    "name": "Actium",
    "lat": 38.9539,
    "lng": 20.7659,
    "religion": "roman",
    "siteType": "shrine",
    "deity": null,
    "startYear": -600,
    "endYear": 50,
    "description": "Site of an ancient temple of Apollo near which Octavian erected a monument to commemorate his naval victory over M. Antonius in 31 BCE.",
    "source": "Pleiades"
  },
  {
    "id": "255953",
    "name": "Ad Herculem",
    "lat": 36.3862,
    "lng": -6.205,
    "religion": "roman",
    "siteType": "church",
    "deity": null,
    "startYear": 50,
    "endYear": 250,
    "description": "An ancient station on the Roman road to Gades recorded in the Antonine Itinerary, ad Herculem must have been associated with the Herakleion on the southern end of the island of Cotinussa. Scholars differ on the precise location; their efforts are complicated by significant landscape change since antiquity.",
    "source": "Pleiades"
  },
  {
    "id": "305127728",
    "name": "Adad temple (Khorsabad)",
    "lat": 36.5089,
    "lng": 43.2279,
    "religion": "roman",
    "siteType": "temple",
    "deity": null,
    "startYear": 50,
    "endYear": 250,
    "description": "As part of the palatial complex of Dūr-Šarrukīn (modern Khorsabad), the eighth-century-BC Assyrian king Sargon II (r. 721–705 BC) constructed six temples, including one to the god Adad.",
    "source": "Pleiades"
  },
  {
    "id": "473423542",
    "name": "Adad-Šala temple (Kalhu)",
    "lat": 36.0985,
    "lng": 43.3288,
    "religion": "roman",
    "siteType": "temple",
    "deity": null,
    "startYear": 50,
    "endYear": 250,
    "description": "When Kalhu (biblical Calah, modern Nimrud) became the principal administrative center of the Assyrian Empire in the ninth century BC, king Ashurnasirpal II (r. 883–859 BC) built (or rebuilt) numerous temples. One of those was dedicated to the god Adad and the goddess Šala. Although its location is not known, the Adad-Šala temple at Kalhu is thought to have been situated within the Ninurta temple complex, in the northwest corner of the citadel.",
    "source": "Pleiades"
  },
  {
    "id": "257097394",
    "name": "Aedes Apollinis Palatini",
    "lat": 41.8888,
    "lng": 12.4857,
    "religion": "roman",
    "siteType": "sanctuary",
    "deity": null,
    "startYear": 50,
    "endYear": 50,
    "description": "The temple sacred to the god Apollo on the Palatine Hill in Rome.",
    "source": "Pleiades"
  },
  {
    "id": "581361483",
    "name": "Aedes Ceres Liber Liberaque",
    "lat": 41.8833,
    "lng": 12.4833,
    "religion": "roman",
    "siteType": "temple",
    "deity": null,
    "startYear": 50,
    "endYear": 250,
    "description": "The Temple of Ceres, located on the slope of the Aventine Hill in Rome, was originally dedicated by Sp. Cassius in 494/3 B.C.",
    "source": "Pleiades"
  },
  {
    "id": "455817200",
    "name": "Aedes Fauni",
    "lat": 41.8912,
    "lng": 12.4817,
    "religion": "roman",
    "siteType": "temple",
    "deity": null,
    "startYear": 50,
    "endYear": 250,
    "description": "A temple dedicated to Faunus located on Tiber Island, the Aedes Fauni was dedicated in 196 BCE by Gnaeus Domitius Ahenobarbus and Gaius Scribonius Libo.",
    "source": "Pleiades"
  },
  {
    "id": "355242955",
    "name": "Aedes Herculis Pompeiani",
    "lat": 41.8874,
    "lng": 12.4833,
    "religion": "roman",
    "siteType": "temple",
    "deity": null,
    "startYear": 50,
    "endYear": 250,
    "description": "A temple of Hercules located near the Circus Maximus.",
    "source": "Pleiades"
  },
  {
    "id": "377055053",
    "name": "Aedes Salus",
    "lat": 41.9,
    "lng": 12.4833,
    "religion": "roman",
    "siteType": "temple",
    "deity": null,
    "startYear": 50,
    "endYear": 250,
    "description": "While consul in 311 BCE, Caius Iunius Bubulcus Brutus vowed the temple of Salus; he would later dedicate it as dictator in 302 BCE. While no physical remains of the temple are known, textual and epigraphic testimony suggest that it would have been located near the present-day Piazza del Quirinale.",
    "source": "Pleiades"
  },
  {
    "id": "377055052",
    "name": "Aedes Serapis",
    "lat": 41.9,
    "lng": 12.4833,
    "religion": "roman",
    "siteType": "temple",
    "deity": null,
    "startYear": 50,
    "endYear": 250,
    "description": "Caracalla dedicated a temple to Serapis in Regio VI. Its dedication is confirmed via epigraphic elements and some of its architectural elements are also known. It was located on the Collis Latiaris, which is the southern most part of the Quirinal Hill.",
    "source": "Pleiades"
  },
  {
    "id": "562679826",
    "name": "Aedes Tensarum",
    "lat": 41.8926,
    "lng": 12.4822,
    "religion": "roman",
    "siteType": "temple",
    "deity": null,
    "startYear": 50,
    "endYear": 250,
    "description": "A temple on Rome's Capitoline Hill where the carts that carried the exuviae in festival parades were stored.",
    "source": "Pleiades"
  },
  {
    "id": "422821",
    "name": "Aefula",
    "lat": 41.9171,
    "lng": 12.8708,
    "religion": "roman",
    "siteType": "sanctuary",
    "deity": null,
    "startYear": 50,
    "endYear": 250,
    "description": "Aefula was an ancient settlement of Latium that had disappeared by the time of Pliny the Elder, although the cult of Bona Dea there continued to flourish.",
    "source": "Pleiades"
  },
  {
    "id": "589659",
    "name": "Ag. Andreas (Siphnos)",
    "lat": 36.9542,
    "lng": 24.7219,
    "religion": "roman",
    "siteType": "church",
    "deity": null,
    "startYear": 50,
    "endYear": 250,
    "description": "A Classical-Hellenistic period settlement on/around the site of an earlier Mycenaean citadel on the island of Siphnos, now partially occupied by the church of Agios Andreas.",
    "source": "Pleiades"
  },
  {
    "id": "540593",
    "name": "Ag. Demetrios",
    "lat": 38.7687,
    "lng": 22.3996,
    "religion": "roman",
    "siteType": "temple",
    "deity": null,
    "startYear": -450,
    "endYear": 400,
    "description": "An ancient place, cited: BAtlas 55 C3 Ag. Demetrios",
    "source": "Pleiades"
  },
  {
    "id": "530774",
    "name": "Ag. Dimitrios",
    "lat": 37.7648,
    "lng": 20.8153,
    "religion": "roman",
    "siteType": "church",
    "deity": null,
    "startYear": 400,
    "endYear": 400,
    "description": "An ancient place, cited: BAtlas 54 inset Ag. Dimitrios",
    "source": "Pleiades"
  },
  {
    "id": "570033",
    "name": "Ag. Eirene",
    "lat": 37.669,
    "lng": 24.3259,
    "religion": "roman",
    "siteType": "temple",
    "deity": null,
    "startYear": 50,
    "endYear": 250,
    "description": "Ayia Irini, located on Keos, was occupied from the Late Neolithic until the Mycenaean period. The site was extensively excavated under J.L. Caskey.",
    "source": "Pleiades"
  },
  {
    "id": "707438",
    "name": "Ag. Eirini",
    "lat": 35.3032,
    "lng": 32.9656,
    "religion": "roman",
    "siteType": "sanctuary",
    "deity": null,
    "startYear": -600,
    "endYear": -200,
    "description": "An ancient place, cited: BAtlas 72 B2 Ag. Eirini",
    "source": "Pleiades"
  },
  {
    "id": "530776",
    "name": "Ag. Ioannis Rodakis",
    "lat": 38.6466,
    "lng": 20.6508,
    "religion": "roman",
    "siteType": "temple",
    "deity": null,
    "startYear": -450,
    "endYear": -450,
    "description": "An ancient place, cited: BAtlas 54 C4 Ag. Ioannis Rodakis",
    "source": "Pleiades"
  },
  {
    "id": "550409",
    "name": "Ag. Isidoros",
    "lat": 39.1221,
    "lng": 26.2163,
    "religion": "roman",
    "siteType": "church",
    "deity": null,
    "startYear": 50,
    "endYear": 250,
    "description": "An ancient place, cited: BAtlas 56 C3 Ag. Isidoros",
    "source": "Pleiades"
  },
  {
    "id": "697626",
    "name": "Ag. Lot",
    "lat": 31.0469,
    "lng": 35.5028,
    "religion": "roman",
    "siteType": "church",
    "deity": null,
    "startYear": 400,
    "endYear": 400,
    "description": "The Sanctuary of Agios Lot is located at the southeastern end of the Dead Sea.",
    "source": "Pleiades"
  },
  {
    "id": "707445",
    "name": "Ag. Mavri",
    "lat": 34.7786,
    "lng": 32.9148,
    "religion": "roman",
    "siteType": "church",
    "deity": null,
    "startYear": 400,
    "endYear": 400,
    "description": "An ancient place, cited: BAtlas 72 B3 Ag. Mavri",
    "source": "Pleiades"
  },
  {
    "id": "589666",
    "name": "Ag. Nikitas",
    "lat": 37.0151,
    "lng": 24.6893,
    "religion": "roman",
    "siteType": "church",
    "deity": null,
    "startYear": 50,
    "endYear": 250,
    "description": "An ancient place, cited: BAtlas 60 C4 Ag. Nikitas",
    "source": "Pleiades"
  },
  {
    "id": "530779",
    "name": "Ag. Panagia",
    "lat": 39.4874,
    "lng": 21.3298,
    "religion": "roman",
    "siteType": "monastery",
    "deity": null,
    "startYear": -450,
    "endYear": -200,
    "description": "An ancient place, cited: BAtlas 54 D2 Ag. Panagia",
    "source": "Pleiades"
  },
  {
    "id": "530781",
    "name": "Ag. Sophia",
    "lat": 38.6747,
    "lng": 20.9714,
    "religion": "roman",
    "siteType": "church",
    "deity": null,
    "startYear": 400,
    "endYear": 400,
    "description": "An ancient place, cited: BAtlas 54 C4 Ag. Sophia",
    "source": "Pleiades"
  },
  {
    "id": "707448",
    "name": "Ag. Stephanos",
    "lat": 34.7658,
    "lng": 32.7867,
    "religion": "roman",
    "siteType": "church",
    "deity": null,
    "startYear": 400,
    "endYear": 400,
    "description": "An ancient place, cited: BAtlas 72 B3 Ag. Stephanos",
    "source": "Pleiades"
  },
  {
    "id": "530782",
    "name": "Ag. Thomas",
    "lat": 38.9755,
    "lng": 20.7993,
    "religion": "roman",
    "siteType": "church",
    "deity": null,
    "startYear": 400,
    "endYear": 400,
    "description": "An ancient place, cited: BAtlas 54 C4 Ag. Thomas",
    "source": "Pleiades"
  },
  {
    "id": "707450",
    "name": "Ag. Trias",
    "lat": 35.5431,
    "lng": 34.2274,
    "religion": "roman",
    "siteType": "church",
    "deity": null,
    "startYear": 400,
    "endYear": 400,
    "description": "An ancient place, cited: BAtlas 72 E1 Ag. Trias",
    "source": "Pleiades"
  },
  {
    "id": "707451",
    "name": "Ag. Tykhonas",
    "lat": 34.7319,
    "lng": 33.1398,
    "religion": "roman",
    "siteType": "sanctuary",
    "deity": null,
    "startYear": -600,
    "endYear": 50,
    "description": "An ancient place, cited: BAtlas 72 C3 Ag. Tykhonas",
    "source": "Pleiades"
  },
  {
    "id": "867848906",
    "name": "Agamemnoneion of Mycenae",
    "lat": 37.7214,
    "lng": 22.7535,
    "religion": "roman",
    "siteType": "shrine",
    "deity": null,
    "startYear": 50,
    "endYear": 250,
    "description": "An archaeological site near the Mycenaean causeway has been interpreted as a multi-period heroön dedicated to Agamemnon.",
    "source": "Pleiades"
  },
  {
    "id": "609290",
    "name": "Agdistis Sanctuary (Yazılıkaya)",
    "lat": 39.1976,
    "lng": 30.71,
    "religion": "roman",
    "siteType": "sanctuary",
    "deity": null,
    "startYear": -200,
    "endYear": 50,
    "description": "A plateau around a monumental Phrygian rock‐cut altar at the extensive fortified settlement and sanctuary complex of Yazılıkaya in Turkey. Associated with Agdistis in the 20th century because of Roman epigraphic finds there, more recent excavations have demonstrated that the sanctuary was in use from the 8th–7th century BCE to the Roman Period (1st-2nd century CE). Continuity of ritual practice in front of the rock-cut altar is demonstrated by rock-cut bows, a ritual preparation area with hearths, a rock-cut statue identifiable as the goddess Matar, and the Roman-era votive inscriptions.",
    "source": "Pleiades"
  },
  {
    "id": "857558608",
    "name": "Agia Dynamis",
    "lat": 37.9752,
    "lng": 23.732,
    "religion": "roman",
    "siteType": "church",
    "deity": null,
    "startYear": 50,
    "endYear": 250,
    "description": "A sixteenth-century chapel in Athens built atop an ancient shrine of Herakles.",
    "source": "Pleiades"
  },
  {
    "id": "177523747",
    "name": "Agios Elias Doric temple",
    "lat": 37.4217,
    "lng": 22.2503,
    "religion": "roman",
    "siteType": "temple",
    "deity": null,
    "startYear": -600,
    "endYear": 50,
    "description": "The Doric temple at Agios Elias, above Asea in Arcadia, dates to ca. 500 B.C.",
    "source": "Pleiades"
  },
  {
    "id": "432656",
    "name": "Agnone",
    "lat": 41.8107,
    "lng": 14.3832,
    "religion": "roman",
    "siteType": "sanctuary",
    "deity": null,
    "startYear": 50,
    "endYear": 250,
    "description": "Agnone is a comune in the Italian province of Isernia, in the Molise region. It lies about 53 km (33 miles) northwest of Campobasso. An ancient center of Oscan-Samnite culture, Agnone is known particularly as the namesake of the third-century BCE \"Agnone tablet\" that was discovered at Fonte di Romito.",
    "source": "Pleiades"
  },
  {
    "id": "157243532",
    "name": "Agora of Halaesa",
    "lat": 37.9978,
    "lng": 14.2627,
    "religion": "roman",
    "siteType": "temple",
    "deity": null,
    "startYear": -200,
    "endYear": -200,
    "description": "The agora of the ancient city of Halaesa (second century B.C.), now within the archaeological area of Alesa Arconidea, Sicily.",
    "source": "Pleiades"
  },
  {
    "id": "285395",
    "name": "Agueneb",
    "lat": 33.9079,
    "lng": 1.3691,
    "religion": "roman",
    "siteType": "temple",
    "deity": null,
    "startYear": 50,
    "endYear": 50,
    "description": "An ancient place, cited: BAtlas 29 G3 Agueneb",
    "source": "Pleiades"
  },
  {
    "id": "330217806",
    "name": "Ai Lia temples",
    "lat": 38.1642,
    "lng": 22.1561,
    "religion": "roman",
    "siteType": "sanctuary",
    "deity": null,
    "startYear": -600,
    "endYear": -200,
    "description": "An ancient Greek sanctuary located at ancient Keryneia in Achaia.",
    "source": "Pleiades"
  },
  {
    "id": "770861329",
    "name": "Aiakeion",
    "lat": 37.9743,
    "lng": 23.7225,
    "religion": "roman",
    "siteType": "shrine",
    "deity": null,
    "startYear": 50,
    "endYear": 250,
    "description": "The Aiakeion was a sanctuary of Aiakos built in Athens in the early fifth century BC, which is identified with the Rectangular Peribolos in the southwestern corner of the Agora. In 374/3 BC it was converted to a granary. It was damaged in the Sullan Sack in 86 BC and in the Imperial period it was a pottery workshop.",
    "source": "Pleiades"
  },
  {
    "id": "589675",
    "name": "Aigaion Antron",
    "lat": 35.1647,
    "lng": 25.45,
    "religion": "roman",
    "siteType": "sanctuary",
    "deity": null,
    "startYear": 50,
    "endYear": 250,
    "description": "A cave on Crete sacred to the Minoans that may be the Diktaean cave, the putative site of Zeus' birth in Greek mythology.",
    "source": "Pleiades"
  },
  {
    "id": "913287176",
    "name": "Ain Aata",
    "lat": 33.4349,
    "lng": 35.7838,
    "religion": "roman",
    "siteType": "sanctuary",
    "deity": null,
    "startYear": 50,
    "endYear": 50,
    "description": "Sanctuary of the Roman period",
    "source": "Pleiades"
  },
  {
    "id": "818918654",
    "name": "Ain Dara temple",
    "lat": 36.4596,
    "lng": 36.8526,
    "religion": "roman",
    "siteType": "temple",
    "deity": null,
    "startYear": 50,
    "endYear": 250,
    "description": "The Ain Dara temple, an archaeological site located near the village of Ain Dara, in Afrin, Syria, was the location of an Iron Age Syro-Hittite temple. The structure was noted for the similarities it bore to Solomon's Temple in Jerusalem. The site was in use from ca. 1300 until 740 BCE. It finds comparison with the temples at Emar, Mumbaqa, and Ebla's Temple D. In January 2018 the ruins of the temple were substantially damaged by air strikes carried out by the Turkish Air Force during the Afrin offensive. The site also subsequently suffered further damage, wanton destruction, and looting.",
    "source": "Pleiades"
  },
  {
    "id": "334483",
    "name": "Ain el Aouad",
    "lat": 35.3172,
    "lng": 6.3302,
    "religion": "roman",
    "siteType": "church",
    "deity": null,
    "startYear": 50,
    "endYear": 400,
    "description": "An ancient place, cited: BAtlas 34 E2 Ain el Aouad",
    "source": "Pleiades"
  },
  {
    "id": "678007",
    "name": "Ain Hersha Roman Temple",
    "lat": 33.4535,
    "lng": 35.7905,
    "religion": "roman",
    "siteType": "temple",
    "deity": null,
    "startYear": 50,
    "endYear": 50,
    "description": "Ain Hersha is the site of a Roman temple located in the environs of Mount Hermon.",
    "source": "Pleiades"
  },
  {
    "id": "746707",
    "name": "Ain Nagila",
    "lat": 28.6984,
    "lng": 33.8304,
    "religion": "roman",
    "siteType": "church",
    "deity": null,
    "startYear": 400,
    "endYear": 400,
    "description": "An ancient place, cited: BAtlas 76 D4 Ain Nagila",
    "source": "Pleiades"
  },
  {
    "id": "716517",
    "name": "Ain Zeitun",
    "lat": 29.2535,
    "lng": 25.8063,
    "religion": "roman",
    "siteType": "temple",
    "deity": null,
    "startYear": -200,
    "endYear": 50,
    "description": "An ancient place, cited: None",
    "source": "Pleiades"
  },
  {
    "id": "167626",
    "name": "Aix-en-Diois",
    "lat": 44.708,
    "lng": 5.4167,
    "religion": "roman",
    "siteType": "sanctuary",
    "deity": null,
    "startYear": 50,
    "endYear": 50,
    "description": "Among various features at Aix-en-Diois are the remains of baths that could either pertain to a sanctuary or a villa.",
    "source": "Pleiades"
  },
  {
    "id": "308085066",
    "name": "Ajanta Caves",
    "lat": 20.5526,
    "lng": 75.7007,
    "religion": "roman",
    "siteType": "sanctuary",
    "deity": null,
    "startYear": 50,
    "endYear": 250,
    "description": "The Ajanta Caves are among the earliest Buddhist cave monuments and date from the second and first centuries B.C. During the Gupta period (fifth and sixth centuries A.D.), additional decorated caves were added to the group.",
    "source": "Pleiades"
  },
  {
    "id": "138926703",
    "name": "Akītu of Šarrat-Nippuri",
    "lat": 32.5306,
    "lng": 44.4266,
    "religion": "roman",
    "siteType": "temple",
    "deity": null,
    "startYear": 50,
    "endYear": 250,
    "description": "Temple in Babylon, not located, but probably not far from Eḫursagtila, for it is mentioned together in the ritual texts of the \"Divine Love Lyrics\". Šarrat-Nippuri \"The Queen of Nippur\" was a hypostasis of Ištar. It is difficult to ascertain the precise reason for the existence of an Akītu temple dedicated to this deity in the city of Babylon.",
    "source": "Pleiades"
  },
  {
    "id": "310869662",
    "name": "Akītu-Temple of Ištar",
    "lat": 36.3604,
    "lng": 43.153,
    "religion": "roman",
    "siteType": "temple",
    "deity": null,
    "startYear": 50,
    "endYear": 250,
    "description": "The New Year’s House (or Akītu Temple) of Nineveh's tutelary deity Ištar appears to date back at least to the Middle Assyrian period (reign of Tukultī-Ninurta I). Its Sumerian ceremonial name is not preserved in extant cuneiform sources. This temple's exact location remains unknown and it is certain whether Ištar's Akītu Temple was located in the citadel or in the lower town.",
    "source": "Pleiades"
  },
  {
    "id": "520954",
    "name": "Akoimeton Mon.",
    "lat": 41.1068,
    "lng": 29.0828,
    "religion": "roman",
    "siteType": "church",
    "deity": null,
    "startYear": 400,
    "endYear": 400,
    "description": "An ancient place, cited: BAtlas 53 B2 Akoimeton Mon.",
    "source": "Pleiades"
  },
  {
    "id": "462086",
    "name": "Akragas/Agrigentum",
    "lat": 37.2906,
    "lng": 13.5855,
    "religion": "roman",
    "siteType": "temple",
    "deity": null,
    "startYear": -600,
    "endYear": 400,
    "description": "Akragas/Agrigentum was an ancient city of Sicily and is now known as Agrigento. The Archaeological Area of Agrigento was inscribed as a UNESCO World Heritage Site in 1997.",
    "source": "Pleiades"
  },
  {
    "id": "570059",
    "name": "Akrokorinthos",
    "lat": 37.8912,
    "lng": 22.8735,
    "religion": "roman",
    "siteType": "sanctuary",
    "deity": null,
    "startYear": -600,
    "endYear": 400,
    "description": "Akrokorinthos (Acrocorinth) was the acropolis of ancient Corinth.",
    "source": "Pleiades"
  },
  {
    "id": "638837",
    "name": "Aksu - Zindan Mağarası Sanctuary",
    "lat": 37.8119,
    "lng": 31.0846,
    "religion": "roman",
    "siteType": "sanctuary",
    "deity": null,
    "startYear": 50,
    "endYear": 250,
    "description": "An ancient sanctuary complex, incorporating a cave known today as Zindan Mağarası, which overlooks a bend in the river Aksu (locally Zindan Deresi; a tributary of the Eurymedon) in Turkey's Isparta province. Archaeological and epigraphic evidence demonstrate human activity from the Hellenistic to the Seljuk period, with the dedication of a temple to the Vigenon Mother of the Gods during the reign of Marcus Aurelius. A Roman-era bridge and road section has also been identified as part of the complex, which was probably associated with the nearby city of Timbriada. The sanctuary also honored the god Eurymedon. A Christian monastery succeeded the sanctuary, spoliating its buildings for construction material.",
    "source": "Pleiades"
  },
  {
    "id": "637058243",
    "name": "al-Husn Church",
    "lat": 35.6916,
    "lng": 36.5311,
    "religion": "roman",
    "siteType": "church",
    "deity": null,
    "startYear": 50,
    "endYear": 250,
    "description": "A ruined and now largely dispersed fifth-century CE church on the outskirts of al-Bara, Syria.",
    "source": "Pleiades"
  },
  {
    "id": "648553",
    "name": "Alahan",
    "lat": 36.7913,
    "lng": 33.3525,
    "religion": "roman",
    "siteType": "monastery",
    "deity": null,
    "startYear": 400,
    "endYear": 400,
    "description": "An ancient place, cited: BAtlas 66 C3 Alahan",
    "source": "Pleiades"
  },
  {
    "id": "847284570",
    "name": "Alahana Parivena",
    "lat": 7.962,
    "lng": 81.0036,
    "religion": "roman",
    "siteType": "monastery",
    "deity": null,
    "startYear": 50,
    "endYear": 250,
    "description": "A middle to late eleventh century CE monastic college located outside of Polonnaruwa in Sri Lanka that belonged to King Parakramabahu I.",
    "source": "Pleiades"
  },
  {
    "id": "442455",
    "name": "Albanella",
    "lat": 40.4801,
    "lng": 15.1171,
    "religion": "roman",
    "siteType": "sanctuary",
    "deity": null,
    "startYear": -450,
    "endYear": -200,
    "description": "A rural sanctuary in the territory of Poseidonia (Paestum) has been excavated at S. Nicola di Albanella.",
    "source": "Pleiades"
  },
  {
    "id": "255966",
    "name": "Alcántara",
    "lat": 39.7217,
    "lng": -6.8915,
    "religion": "roman",
    "siteType": "temple",
    "deity": null,
    "startYear": 50,
    "endYear": 50,
    "description": "The Roman temple of Alcántara is a well-preserved structure located at one side of the Alcántara Bridge in Extremadura (Spain). The building, dating to A.D. 103, is the work of Caius Iulius Lacer. The lintel inscription indicates the structure was dedicated to Trajan.",
    "source": "Pleiades"
  },
  {
    "id": "218039420",
    "name": "Aliphera sanctuary",
    "lat": 37.5289,
    "lng": 21.8669,
    "religion": "roman",
    "siteType": "sanctuary",
    "deity": null,
    "startYear": -450,
    "endYear": 50,
    "description": "Pausanias observed sanctuaries of both Asclepius and Athena at Aliphera, as well as an altar of Zeus Lecheates.",
    "source": "Pleiades"
  },
  {
    "id": "167631",
    "name": "Allan",
    "lat": 44.4991,
    "lng": 4.7864,
    "religion": "roman",
    "siteType": "temple",
    "deity": null,
    "startYear": 50,
    "endYear": 400,
    "description": "An ancient place, cited: BAtlas 17 D5 Allan",
    "source": "Pleiades"
  },
  {
    "id": "147989",
    "name": "Allègre",
    "lat": 44.1992,
    "lng": 4.2329,
    "religion": "roman",
    "siteType": "sanctuary",
    "deity": null,
    "startYear": 50,
    "endYear": 400,
    "description": "The site of sulphur springs that also revealed evidence for a sanctuary that included 24 altars, so of which carried dedications either to nymphs or mother goddesses. A number of Roman artifacts indicate activity at the site from the Flavian to the Antonine period.",
    "source": "Pleiades"
  },
  {
    "id": "167635",
    "name": "Allonzier-la-Caille",
    "lat": 46.0029,
    "lng": 6.1165,
    "religion": "roman",
    "siteType": "temple",
    "deity": null,
    "startYear": 50,
    "endYear": 50,
    "description": "An ancient place, cited: BAtlas 17 G2 Allonzier-la-Caille",
    "source": "Pleiades"
  },
  {
    "id": "304492393",
    "name": "Almendres Cromlech",
    "lat": 38.5575,
    "lng": -8.0612,
    "religion": "roman",
    "siteType": "sanctuary",
    "deity": null,
    "startYear": 50,
    "endYear": 250,
    "description": "A megalithic complex located near Guadalupe, Portgual, dating to the Early Neolithic period.",
    "source": "Pleiades"
  },
  {
    "id": "678014",
    "name": "Alsos Asklepiou",
    "lat": 33.5858,
    "lng": 35.3978,
    "religion": "roman",
    "siteType": "temple",
    "deity": null,
    "startYear": -600,
    "endYear": -600,
    "description": "A seventh- and eighth-century BC Punic sanctuary on the Awali river dedicated to Eshmun, the Phoenician god of healing.",
    "source": "Pleiades"
  },
  {
    "id": "215521453",
    "name": "Altar at the temple of Amphiaraos",
    "lat": 38.2907,
    "lng": 23.8453,
    "religion": "roman",
    "siteType": "temple",
    "deity": null,
    "startYear": -450,
    "endYear": -450,
    "description": "An altar located to the east of the temple of Amphiaraos.",
    "source": "Pleiades"
  },
  {
    "id": "219478548",
    "name": "Altar of Hieron II",
    "lat": 37.0744,
    "lng": 15.2772,
    "religion": "roman",
    "siteType": "sanctuary",
    "deity": null,
    "startYear": 50,
    "endYear": 50,
    "description": "A monumental altar built around the third century B.C. that was probably dedicated to Zeus Eleutherios. Remains of the altar are located in the archaeological area of Neapolis in Syracuse, Sicily.",
    "source": "Pleiades"
  },
  {
    "id": "676120270",
    "name": "Altar of the Twelve Gods",
    "lat": 37.9758,
    "lng": 23.7228,
    "religion": "roman",
    "siteType": "shrine",
    "deity": null,
    "startYear": 50,
    "endYear": 250,
    "description": "A rectangular peribolos with an altar in the centre, built in 522/1 BC, destroyed in the Persian Sack of 480/79 BC, and rebuilt in the late 5th century BC. It was the central milestone from which distances in Attica were measured. The remains are now mostly underneath the Athens-Piraeus Electric Railway.",
    "source": "Pleiades"
  },
  {
    "id": "415460393",
    "name": "Altar of Zeus Agoraios",
    "lat": 37.9733,
    "lng": 23.7208,
    "religion": "roman",
    "siteType": "shrine",
    "deity": null,
    "startYear": 50,
    "endYear": 250,
    "description": "An altar dedicated to Zeus Agoraios, originally erected on the Pnyx in the late fourth century BC, but relocated to the Athenian Agora in the Augustan period.",
    "source": "Pleiades"
  },
  {
    "id": "116485242",
    "name": "Altar of Zeus Polieus",
    "lat": 37.9719,
    "lng": 23.7272,
    "religion": "roman",
    "siteType": "shrine",
    "deity": null,
    "startYear": 50,
    "endYear": 250,
    "description": "An altar and sanctuary on the Acropolis of Athens, site of the bouphonia ritual during the Dipolieia festival. The shrine is to be identified with a set of cuttings at the highest point on the Acropolis, northeast of the Parthenon.",
    "source": "Pleiades"
  },
  {
    "id": "614803679",
    "name": "Alto da Vigia",
    "lat": 38.8242,
    "lng": -9.4729,
    "religion": "roman",
    "siteType": "sanctuary",
    "deity": null,
    "startYear": 50,
    "endYear": 400,
    "description": "A Roman sanctuary located at the mouth of the Colares river.",
    "source": "Pleiades"
  },
  {
    "id": "609300",
    "name": "Altuncebbar",
    "lat": 38.1256,
    "lng": 30.6828,
    "religion": "roman",
    "siteType": "shrine",
    "deity": null,
    "startYear": 50,
    "endYear": 50,
    "description": "An ancient place, cited: BAtlas 62 E5 Altuncebbar",
    "source": "Pleiades"
  },
  {
    "id": "884113",
    "name": "Amaras",
    "lat": 39.6837,
    "lng": 47.0574,
    "religion": "roman",
    "siteType": "church",
    "deity": null,
    "startYear": 50,
    "endYear": 250,
    "description": "An ancient settlement and early Christian site, now occupied partly by an Armenian Apostolic monastery and its 18th century church.",
    "source": "Pleiades"
  },
  {
    "id": "149576487",
    "name": "Amarna",
    "lat": 27.6441,
    "lng": 30.8982,
    "religion": "roman",
    "siteType": "sanctuary",
    "deity": null,
    "startYear": 50,
    "endYear": 250,
    "description": "A new capital for Egypt founded by Akhenaten during his reign as pharaoh during Egypt's Eighteenth Dynasty.",
    "source": "Pleiades"
  },
  {
    "id": "857022",
    "name": "Ameria (Pontos)",
    "lat": 40.6335,
    "lng": 36.9769,
    "religion": "roman",
    "siteType": "sanctuary",
    "deity": null,
    "startYear": -200,
    "endYear": 50,
    "description": "An ancient settlement, associated with the sanctuary of Men Pharnakou in Pontos. It was located near modern near Ardıçlı (formerly Agustu) in Turkey's Tokat province.",
    "source": "Pleiades"
  },
  {
    "id": "716520",
    "name": "Ammon",
    "lat": 29.2052,
    "lng": 25.5435,
    "religion": "roman",
    "siteType": "temple",
    "deity": null,
    "startYear": -600,
    "endYear": 400,
    "description": "The Siwa Oasis was, in antiquity, the site of the oracular temple of Amun (Zeus Ammon).",
    "source": "Pleiades"
  },
  {
    "id": "187282",
    "name": "Ampass early Christian Church",
    "lat": 47.2598,
    "lng": 11.4571,
    "religion": "roman",
    "siteType": "church",
    "deity": null,
    "startYear": 50,
    "endYear": 250,
    "description": "The high altar of the present, Gothic-era Pfarrkirche (parish church) of modern Ampass (near Insbruck in Austria) was built over a series of earlier Christian churches, the earliest of which appears to date to the fifth century CE, based on excavated remains of a reliquary vault dating back to that period.",
    "source": "Pleiades"
  },
  {
    "id": "540628",
    "name": "Amphiareion",
    "lat": 38.291,
    "lng": 23.8456,
    "religion": "roman",
    "siteType": "sanctuary",
    "deity": null,
    "startYear": -450,
    "endYear": -450,
    "description": "The Amphiareion of Oropos was an ancient sanctuary dedicated in the fifth century BCE to the hero Amphiaraos and located in the hills southeast of the port of Oropos.",
    "source": "Pleiades"
  },
  {
    "id": "266589967",
    "name": "Amphitheater of Durrës",
    "lat": 41.3123,
    "lng": 19.4451,
    "religion": "roman",
    "siteType": "church",
    "deity": null,
    "startYear": 50,
    "endYear": 400,
    "description": "The Roman amphitheater of Durrës dates to the reign of Trajan. A small chapel built inside the amphitheater has mosaics likely dating to the 6th-8th centuries CE.",
    "source": "Pleiades"
  },
  {
    "id": "127640903",
    "name": "Amphitheater of the Three Gauls",
    "lat": 45.7706,
    "lng": 4.8303,
    "religion": "roman",
    "siteType": "sanctuary",
    "deity": null,
    "startYear": 50,
    "endYear": 50,
    "description": "The Sanctuary of the Three Gauls (Tres Galliae) was a late first century B.C. sanctuary in Lugdunum; the amphitheater dates to 19 B.C.",
    "source": "Pleiades"
  },
  {
    "id": "252533527",
    "name": "Ampouria Parnassou",
    "lat": 38.5682,
    "lng": 22.7059,
    "religion": "roman",
    "siteType": "sanctuary",
    "deity": null,
    "startYear": 50,
    "endYear": 250,
    "description": "A cave sanctuary, dedicated to Pan and the Nymphs, located near modern Ag. Marina in Phocis and therefore also near the site of Psilo Kastro (possibly ancient Patronis).",
    "source": "Pleiades"
  },
  {
    "id": "668186",
    "name": "Amyun",
    "lat": 34.2997,
    "lng": 35.8159,
    "religion": "roman",
    "siteType": "sanctuary",
    "deity": null,
    "startYear": 50,
    "endYear": 50,
    "description": "An ancient place, cited: BAtlas 68 A5 Amyun",
    "source": "Pleiades"
  },
  {
    "id": "735757405",
    "name": "Anaktoron at Pantalika",
    "lat": 37.1342,
    "lng": 15.0257,
    "religion": "roman",
    "siteType": "temple",
    "deity": null,
    "startYear": 50,
    "endYear": 250,
    "description": "The Anaktoron is an enigmatic megalithic building associated with the prehistoric Sicilian settlement of Pantalica; its polygonal blocks may date to the 12-11th c. B.C., but the current form of the building seems to be the result of Byzantine reconstruction.",
    "source": "Pleiades"
  },
  {
    "id": "201100502",
    "name": "Ancient sanctuary at Marion",
    "lat": 35.0372,
    "lng": 32.4247,
    "religion": "roman",
    "siteType": "sanctuary",
    "deity": null,
    "startYear": 50,
    "endYear": 250,
    "description": "An Iron Age sanctuary located at Peristeries in Polis Chrysochous, Cyprus, dedicated to the female goddess of Cyprus that was in use for half a millennium, from ca. 950 to ca. 450 BCE.",
    "source": "Pleiades"
  },
  {
    "id": "736887",
    "name": "Andrianton",
    "lat": 29.3683,
    "lng": 30.8518,
    "religion": "roman",
    "siteType": "temple",
    "deity": null,
    "startYear": -200,
    "endYear": 50,
    "description": "An ancient place, cited: BAtlas 75 D2 Andrianton",
    "source": "Pleiades"
  },
  {
    "id": "412354926",
    "name": "Anemospilia",
    "lat": 35.2555,
    "lng": 25.1446,
    "religion": "roman",
    "siteType": "sanctuary",
    "deity": null,
    "startYear": 50,
    "endYear": 250,
    "description": "A Minoan temple (?) located on northern end of Mount Iuktas.",
    "source": "Pleiades"
  },
  {
    "id": "609304",
    "name": "Angdisseon, T.",
    "lat": 38.8601,
    "lng": 30.7771,
    "religion": "roman",
    "siteType": "temple",
    "deity": null,
    "startYear": 50,
    "endYear": 50,
    "description": "An ancient place, cited: BAtlas 62 E4 Angdisseon, T.",
    "source": "Pleiades"
  },
  {
    "id": "432676",
    "name": "Angitiae Lucus",
    "lat": 41.9644,
    "lng": 13.4676,
    "religion": "roman",
    "siteType": "sanctuary",
    "deity": null,
    "startYear": -200,
    "endYear": 400,
    "description": "Angitiae Lucus refers to the grove of Angitia, a divine figure of the Marsi tribe.",
    "source": "Pleiades"
  },
  {
    "id": "835369289",
    "name": "Angkor Wat",
    "lat": 13.4125,
    "lng": 103.8667,
    "religion": "roman",
    "siteType": "temple",
    "deity": null,
    "startYear": 50,
    "endYear": 250,
    "description": "The principal temple of Angkor, the capital city of the Khmer empire, Angkor Wat was constructed in the 12th century CE. Angkor was inscribed as a UNESCO World Heritage site in 1992.",
    "source": "Pleiades"
  },
  {
    "id": "540640",
    "name": "Anthela",
    "lat": 38.7979,
    "lng": 22.5104,
    "religion": "roman",
    "siteType": "shrine",
    "deity": null,
    "startYear": -450,
    "endYear": 50,
    "description": "The Amphictyonic council met at the Shrine of Demeter at Anthela.",
    "source": "Pleiades"
  },
  {
    "id": "987802100",
    "name": "Antikythera Apollo Sanctuary",
    "lat": 35.8862,
    "lng": 23.2959,
    "religion": "roman",
    "siteType": "sanctuary",
    "deity": null,
    "startYear": 50,
    "endYear": 250,
    "description": "The probable sanctuary of Apollo Aegileos on the modern Aegean island of Antikythera is attested by the presence of a squared marble platform and various artifacts, including sculptural remains.",
    "source": "Pleiades"
  },
  {
    "id": "652231746",
    "name": "Antinoeion at Hadrian's Villa",
    "lat": 41.9408,
    "lng": 12.7736,
    "religion": "roman",
    "siteType": "temple",
    "deity": null,
    "startYear": 50,
    "endYear": 50,
    "description": "A sacred precinct at the western end of Villa Hadriani, comprising two temples at opposite (north and south) ends of a plaza or garden, and (on the western edge of this complex) a small colonnaded hemicycle. Here, Hadrian may have planned to build a large, semi-circular temple-tomb for Antinous, in place of which his successors built the colonnaded hemicycle.",
    "source": "Pleiades"
  },
  {
    "id": "69910488",
    "name": "Antro delle Sorti",
    "lat": 41.8393,
    "lng": 12.8917,
    "religion": "roman",
    "siteType": "sanctuary",
    "deity": null,
    "startYear": -600,
    "endYear": 50,
    "description": "The \"Cave of the Fates\" at Praeneste is a sanctuary at the base of the city's terraced sanctuary of Fortuna. It was said to contain wooden oracular tablets.",
    "source": "Pleiades"
  },
  {
    "id": "550437",
    "name": "Antron Kybeles/Mithra",
    "lat": 39.1744,
    "lng": 27.1449,
    "religion": "roman",
    "siteType": "sanctuary",
    "deity": null,
    "startYear": 50,
    "endYear": 250,
    "description": "A sanctuary of the goddess Meter and her companion Attis, located at modern Kapıkaya in Turkey, 10km northwest of Pergamon. The earliest finds date to the third century BCE. Archaeological finds indicate that Mithras became the principal deity worshipped here in Roman times, down to at least the 4th century CE.",
    "source": "Pleiades"
  },
  {
    "id": "756519",
    "name": "Apa Abraham, Mon.",
    "lat": 26.076,
    "lng": 32.1338,
    "religion": "roman",
    "siteType": "church",
    "deity": null,
    "startYear": 400,
    "endYear": 400,
    "description": "An ancient place, cited: BAtlas 77 G4 Apa Abraham, Mon.",
    "source": "Pleiades"
  },
  {
    "id": "756521",
    "name": "Apa Apollo",
    "lat": 27.5443,
    "lng": 30.7013,
    "religion": "roman",
    "siteType": "monastery",
    "deity": null,
    "startYear": 400,
    "endYear": 400,
    "description": "A Coptic monastery founded ca. 385/390 located 80 km north of Asyut, near the village of Dashlout, Egypt.",
    "source": "Pleiades"
  },
  {
    "id": "756520",
    "name": "Apa Apollo, Mon.",
    "lat": 27.0201,
    "lng": 31.2472,
    "religion": "roman",
    "siteType": "church",
    "deity": null,
    "startYear": 400,
    "endYear": 400,
    "description": "An ancient place, cited: BAtlas 77 E2 Apa Apollo, Mon.",
    "source": "Pleiades"
  },
  {
    "id": "756522",
    "name": "Apa Apollo, Mon.",
    "lat": 26.8045,
    "lng": 31.3602,
    "religion": "roman",
    "siteType": "church",
    "deity": null,
    "startYear": 400,
    "endYear": 400,
    "description": "An ancient place, cited: BAtlas 77 E3 Apa Apollo, Mon.",
    "source": "Pleiades"
  },
  {
    "id": "756523",
    "name": "Apa Bane, Mon.",
    "lat": 27.8458,
    "lng": 30.6982,
    "religion": "roman",
    "siteType": "church",
    "deity": null,
    "startYear": 400,
    "endYear": 400,
    "description": "An ancient place, cited: BAtlas 77 D1 Apa Bane, Mon.",
    "source": "Pleiades"
  },
  {
    "id": "756524",
    "name": "Apa Djoore, Mon.",
    "lat": 26.6687,
    "lng": 31.6888,
    "religion": "roman",
    "siteType": "church",
    "deity": null,
    "startYear": 400,
    "endYear": 400,
    "description": "An ancient place, cited: BAtlas 77 F3 Apa Djoore, Mon.",
    "source": "Pleiades"
  },
  {
    "id": "785969",
    "name": "Apa Epiphanius, Mon.",
    "lat": 25.6577,
    "lng": 32.5657,
    "religion": "roman",
    "siteType": "church",
    "deity": null,
    "startYear": 400,
    "endYear": 400,
    "description": "An ancient place, cited: BAtlas 80 B2 Apa Epiphanius, Mon.",
    "source": "Pleiades"
  },
  {
    "id": "756525",
    "name": "Apa Ioannes, Mon.",
    "lat": 27.1351,
    "lng": 31.1541,
    "religion": "roman",
    "siteType": "church",
    "deity": null,
    "startYear": 400,
    "endYear": 400,
    "description": "An ancient place, cited: BAtlas 77 E2 Apa Ioannes, Mon.",
    "source": "Pleiades"
  },
  {
    "id": "756526",
    "name": "Apa Makrobios, Mon.",
    "lat": 26.9329,
    "lng": 31.2917,
    "religion": "roman",
    "siteType": "church",
    "deity": null,
    "startYear": 400,
    "endYear": 400,
    "description": "An ancient place, cited: BAtlas 77 E3 Apa Makrobios, Mon.",
    "source": "Pleiades"
  },
  {
    "id": "756527",
    "name": "Apa Palemon, Mon.",
    "lat": 26.0652,
    "lng": 32.2849,
    "religion": "roman",
    "siteType": "church",
    "deity": null,
    "startYear": 400,
    "endYear": 400,
    "description": "An ancient place, cited: BAtlas 77 G4 Apa Palemon, Mon.",
    "source": "Pleiades"
  },
  {
    "id": "785970",
    "name": "Apa Phoibammon (monastery)",
    "lat": 25.7384,
    "lng": 32.6065,
    "religion": "roman",
    "siteType": "sanctuary",
    "deity": null,
    "startYear": 400,
    "endYear": 400,
    "description": "The seventh-century monastery of St. Phoibammon was built on the upper terrace of the temple of Hatshepsut at Deir el-Bahri-",
    "source": "Pleiades"
  },
  {
    "id": "756528",
    "name": "Apa Psoi, Mon.",
    "lat": 26.5548,
    "lng": 31.6198,
    "religion": "roman",
    "siteType": "church",
    "deity": null,
    "startYear": 400,
    "endYear": 400,
    "description": "An ancient place, cited: BAtlas 77 F3 Apa Psoi, Mon.",
    "source": "Pleiades"
  },
  {
    "id": "756529",
    "name": "Apa Psote, Mon./Amba Bisada",
    "lat": 26.4602,
    "lng": 31.8544,
    "religion": "roman",
    "siteType": "church",
    "deity": null,
    "startYear": 400,
    "endYear": 400,
    "description": "An ancient place, cited: BAtlas 77 F4 Apa Psote, Mon./Amba Bisada",
    "source": "Pleiades"
  },
  {
    "id": "756530",
    "name": "Apa Senouthou (monastery)",
    "lat": 26.5347,
    "lng": 31.6458,
    "religion": "roman",
    "siteType": "church",
    "deity": null,
    "startYear": 400,
    "endYear": 400,
    "description": "The \"White Monastery\", located near modern Tahta and Sohag in Egypt.",
    "source": "Pleiades"
  },
  {
    "id": "756531",
    "name": "Apa Souroutos, Mon.",
    "lat": 26.8553,
    "lng": 31.4273,
    "religion": "roman",
    "siteType": "church",
    "deity": null,
    "startYear": 400,
    "endYear": 400,
    "description": "An ancient place, cited: BAtlas 77 E3 Apa Souroutos, Mon.",
    "source": "Pleiades"
  },
  {
    "id": "668195",
    "name": "Aphaka (Temple of Aphrodite Aphakitis)",
    "lat": 34.0662,
    "lng": 35.8885,
    "religion": "roman",
    "siteType": "sanctuary",
    "deity": null,
    "startYear": 50,
    "endYear": 400,
    "description": "An ancient place, cited: BAtlas 68 A5 Aphrodite Aphakitis, T.",
    "source": "Pleiades"
  },
  {
    "id": "30893806",
    "name": "Aphrodision",
    "lat": 39.1325,
    "lng": 27.1842,
    "religion": "roman",
    "siteType": "temple",
    "deity": null,
    "startYear": 50,
    "endYear": 250,
    "description": "Located outside the city walls of Pergamon, this temple, according to an inscription (OGIS 273-9), was supposedly the site of a victory of Attalos I over the Tolistogi, Galatians, and Antiochus Hierax. It was likely later destroyed by Philip V.",
    "source": "Pleiades"
  },
  {
    "id": "442417398",
    "name": "Aphrodision at Akrai",
    "lat": 37.0566,
    "lng": 14.8944,
    "religion": "roman",
    "siteType": "temple",
    "deity": null,
    "startYear": -450,
    "endYear": 50,
    "description": "Temple dedicated to Aphrodite constructed in the 6th century BCE at the Greek colony of Akrai.",
    "source": "Pleiades"
  },
  {
    "id": "707469",
    "name": "Aphrodite Akraia, T.",
    "lat": 35.6927,
    "lng": 34.5864,
    "religion": "roman",
    "siteType": "sanctuary",
    "deity": null,
    "startYear": -450,
    "endYear": 50,
    "description": "An ancient place, cited: BAtlas 72 F1 Aphrodite Akraia, T.",
    "source": "Pleiades"
  },
  {
    "id": "707470",
    "name": "Aphrodite Golgia",
    "lat": 35.0874,
    "lng": 33.6201,
    "religion": "roman",
    "siteType": "sanctuary",
    "deity": null,
    "startYear": -600,
    "endYear": 50,
    "description": "An important sanctuary of Aphrodite in the ancient city of Golgoi on the island of Cyprus.",
    "source": "Pleiades"
  },
  {
    "id": "707471",
    "name": "Aphrodite Paphia, T.",
    "lat": 35.2573,
    "lng": 33.4879,
    "religion": "roman",
    "siteType": "sanctuary",
    "deity": null,
    "startYear": -600,
    "endYear": 50,
    "description": "An ancient place, cited: BAtlas 72 C2 Aphrodite Paphia, T.",
    "source": "Pleiades"
  },
  {
    "id": "540646",
    "name": "Aphrodite Phystiou, T.",
    "lat": 38.6204,
    "lng": 21.5976,
    "religion": "roman",
    "siteType": "sanctuary",
    "deity": null,
    "startYear": -600,
    "endYear": -200,
    "description": "An ancient place, cited: BAtlas 55 B3 Aphrodite Phystiou, T.",
    "source": "Pleiades"
  },
  {
    "id": "579874",
    "name": "Aphrodite sanctuary at Dafni",
    "lat": 38.0128,
    "lng": 23.6159,
    "religion": "roman",
    "siteType": "sanctuary",
    "deity": null,
    "startYear": -450,
    "endYear": 50,
    "description": "An ancient sanctuary of the goddess Aphrodite, described by Pausanias and located at modern Dafni (Daphne) along the ancient sacred way from Athens to Eleusis.",
    "source": "Pleiades"
  },
  {
    "id": "629225363",
    "name": "Aphrodite sanctuary at Lokroi Epizephyrioi",
    "lat": 38.2111,
    "lng": 16.2377,
    "religion": "roman",
    "siteType": "sanctuary",
    "deity": null,
    "startYear": -600,
    "endYear": 400,
    "description": "The worship of Aphrodite is significant in the colonial city of Lokroi Epizephyrioi.",
    "source": "Pleiades"
  },
  {
    "id": "707472",
    "name": "Aphrodite, T.",
    "lat": 34.9878,
    "lng": 33.1911,
    "religion": "roman",
    "siteType": "sanctuary",
    "deity": null,
    "startYear": -600,
    "endYear": -450,
    "description": "An ancient place, cited: BAtlas 72 C3 Aphrodite, T.",
    "source": "Pleiades"
  },
  {
    "id": "707473",
    "name": "Aphrodites Lophos",
    "lat": 34.75,
    "lng": 34.25,
    "religion": "roman",
    "siteType": "sanctuary",
    "deity": null,
    "startYear": -200,
    "endYear": 50,
    "description": "An ancient place, cited: BAtlas 72 E3 Aphrodites Lophos",
    "source": "Pleiades"
  },
  {
    "id": "707474",
    "name": "Apollo Agyates, T.",
    "lat": 35.2336,
    "lng": 33.4892,
    "religion": "roman",
    "siteType": "sanctuary",
    "deity": null,
    "startYear": -600,
    "endYear": -200,
    "description": "An ancient place, cited: BAtlas 72 C2 Apollo Agyates, T.",
    "source": "Pleiades"
  },
  {
    "id": "452262",
    "name": "Apollo Alaeus (temple)",
    "lat": 39.3965,
    "lng": 17.1467,
    "religion": "roman",
    "siteType": "sanctuary",
    "deity": null,
    "startYear": -600,
    "endYear": -450,
    "description": "A sanctuary of Apollo near Punta Alice. Tradition ascribed its foundation to Philoctetes and it is said he dedicated his bow to Apollo.",
    "source": "Pleiades"
  },
  {
    "id": "707475",
    "name": "Apollo Alasiotas, T.",
    "lat": 35.0201,
    "lng": 33.2782,
    "religion": "roman",
    "siteType": "sanctuary",
    "deity": null,
    "startYear": -600,
    "endYear": -200,
    "description": "An ancient place, cited: BAtlas 72 C2 Apollo Alasiotas, T.",
    "source": "Pleiades"
  },
  {
    "id": "599504",
    "name": "Apollo Asgelatos (temple)",
    "lat": 36.3613,
    "lng": 25.8238,
    "religion": "roman",
    "siteType": "church",
    "deity": null,
    "startYear": -600,
    "endYear": 50,
    "description": "An ancient place, cited: BAtlas 61 B5 Apollo Asgelatos, T.",
    "source": "Pleiades"
  },
  {
    "id": "550440",
    "name": "Apollo Axyros, T.",
    "lat": 38.7439,
    "lng": 28.5583,
    "religion": "roman",
    "siteType": "temple",
    "deity": null,
    "startYear": 50,
    "endYear": 50,
    "description": "An ancient place, cited: BAtlas 56 H4 Apollo Axyros, T.",
    "source": "Pleiades"
  },
  {
    "id": "81528331",
    "name": "Apollo Cynneius",
    "lat": 38.6766,
    "lng": 27.1726,
    "religion": "roman",
    "siteType": "sanctuary",
    "deity": null,
    "startYear": 50,
    "endYear": 250,
    "description": "Sanctuary of Apollo Cynneius near or in Temnos, destroyed by Prusias II in 155 BCE. Its precise location is unknown today but certainly lies within Barrington Atlas Map 56 grid E4.",
    "source": "Pleiades"
  },
  {
    "id": "589700",
    "name": "Apollo Erethimios, T.",
    "lat": 36.375,
    "lng": 28.0307,
    "religion": "roman",
    "siteType": "sanctuary",
    "deity": null,
    "startYear": -600,
    "endYear": 50,
    "description": "An ancient place, cited: BAtlas 60 G3 Apollo Erethimios, T.",
    "source": "Pleiades"
  },
  {
    "id": "432682",
    "name": "Apollo et Nymphae Nitrodes (temple)",
    "lat": 40.7078,
    "lng": 13.9051,
    "religion": "roman",
    "siteType": "sanctuary",
    "deity": null,
    "startYear": -450,
    "endYear": 50,
    "description": "An ancient place, cited: BAtlas 44 E4 Apollo et Nymphae Nitrodes, T.",
    "source": "Pleiades"
  },
  {
    "id": "707476",
    "name": "Apollo Hylates, T.",
    "lat": 34.6727,
    "lng": 32.8636,
    "religion": "roman",
    "siteType": "sanctuary",
    "deity": null,
    "startYear": -600,
    "endYear": 50,
    "description": "The temple of Apollo Hylates, located northwest of Kourion, was one of the most important cult centers of ancient Cyprus. The site was active from the eighth century BCE and until the fourth century CE.",
    "source": "Pleiades"
  },
  {
    "id": "550441",
    "name": "Apollo Karios, T.",
    "lat": 38.2721,
    "lng": 27.9528,
    "religion": "roman",
    "siteType": "sanctuary",
    "deity": null,
    "startYear": -450,
    "endYear": -450,
    "description": "An ancient place, cited: BAtlas 56 F5 Apollo Karios, T.",
    "source": "Pleiades"
  },
  {
    "id": "570096",
    "name": "Apollo Korythos Sanctuary",
    "lat": 36.864,
    "lng": 21.9186,
    "religion": "roman",
    "siteType": "sanctuary",
    "deity": null,
    "startYear": -450,
    "endYear": -450,
    "description": "A multi-phase sanctuary of Apollo that begins in the archaic period. Pausanias visited the sanctuary and observed two cult statues of the god. One of these, sacred to Apollo Corynthus, was of wood. The other, sacred to Apollo Argeotas, was of bronze.",
    "source": "Pleiades"
  },
  {
    "id": "609312",
    "name": "Apollo Lairmenos, T.",
    "lat": 38.2246,
    "lng": 29.3146,
    "religion": "roman",
    "siteType": "sanctuary",
    "deity": null,
    "startYear": 50,
    "endYear": 50,
    "description": "An ancient place, cited: BAtlas 62 B5 Apollo Lairmenos, T.",
    "source": "Pleiades"
  },
  {
    "id": "530806",
    "name": "Apollo Leukatas, T.",
    "lat": 38.5688,
    "lng": 20.5486,
    "religion": "roman",
    "siteType": "sanctuary",
    "deity": null,
    "startYear": -200,
    "endYear": 50,
    "description": "An ancient place, cited: BAtlas 54 C4 Apollo Leukatas, T.",
    "source": "Pleiades"
  },
  {
    "id": "707477",
    "name": "Apollo Mageirios, T.",
    "lat": 35.0103,
    "lng": 33.6906,
    "religion": "roman",
    "siteType": "sanctuary",
    "deity": null,
    "startYear": -450,
    "endYear": -200,
    "description": "An ancient place, cited: BAtlas 72 D2 Apollo Mageirios, T.",
    "source": "Pleiades"
  },
  {
    "id": "570097",
    "name": "Apollo Maleatas, T.",
    "lat": 37.127,
    "lng": 22.711,
    "religion": "roman",
    "siteType": "sanctuary",
    "deity": null,
    "startYear": -600,
    "endYear": -450,
    "description": "A cult of Apollo Maleatas has been identified at Profitis Ilias, Kosmas thanks to epigraphic evidence.",
    "source": "Pleiades"
  },
  {
    "id": "707478",
    "name": "Apollo Melanthios, T.",
    "lat": 34.8298,
    "lng": 32.5778,
    "religion": "roman",
    "siteType": "sanctuary",
    "deity": null,
    "startYear": -600,
    "endYear": 50,
    "description": "An ancient place, cited: BAtlas 72 B3 Apollo Melanthios, T.",
    "source": "Pleiades"
  },
  {
    "id": "540653",
    "name": "Apollo Nasiotas, T.",
    "lat": 38.3769,
    "lng": 22.4044,
    "religion": "roman",
    "siteType": "temple",
    "deity": null,
    "startYear": -450,
    "endYear": -200,
    "description": "A sanctuary dedicated to Apollo Nasiotas located on the islet of Apsiphia.",
    "source": "Pleiades"
  },
  {
    "id": "540654",
    "name": "Apollo Tegyraios, T.",
    "lat": 38.5206,
    "lng": 23.0364,
    "religion": "roman",
    "siteType": "temple",
    "deity": null,
    "startYear": -600,
    "endYear": -200,
    "description": "An ancient place, cited: BAtlas 55 E3 Apollo Tegyraios, T.",
    "source": "Pleiades"
  },
  {
    "id": "540655",
    "name": "Apollo Thourios, T.",
    "lat": 38.4869,
    "lng": 22.8499,
    "religion": "roman",
    "siteType": "temple",
    "deity": null,
    "startYear": -200,
    "endYear": 50,
    "description": "An ancient place, cited: BAtlas 55 D4 Apollo Thourios, T.",
    "source": "Pleiades"
  },
  {
    "id": "551465182",
    "name": "Apollo-Grannus-Tempel",
    "lat": 48.5616,
    "lng": 10.409,
    "religion": "roman",
    "siteType": "temple",
    "deity": null,
    "startYear": 50,
    "endYear": 250,
    "description": "A Roman temple in Faimingen near Lauingen in Bavaria.",
    "source": "Pleiades"
  },
  {
    "id": "740034026",
    "name": "Apollo, Aedes",
    "lat": 41.8924,
    "lng": 12.4795,
    "religion": "roman",
    "siteType": "temple",
    "deity": null,
    "startYear": -450,
    "endYear": 50,
    "description": "The likely site of the original sanctuary to Apollo at Rome. The visible remains belong to the Augustan phase.",
    "source": "Pleiades"
  },
  {
    "id": "638754",
    "name": "Apollo, T.",
    "lat": 37.464,
    "lng": 30.9129,
    "religion": "roman",
    "siteType": "sanctuary",
    "deity": null,
    "startYear": 50,
    "endYear": 50,
    "description": "An ancient place, cited: BAtlas 65 E3 Apollo, T.",
    "source": "Pleiades"
  },
  {
    "id": "707480",
    "name": "Apollo, T.",
    "lat": 35.0456,
    "lng": 33.4534,
    "religion": "roman",
    "siteType": "sanctuary",
    "deity": null,
    "startYear": -600,
    "endYear": -200,
    "description": "An ancient place, cited: BAtlas 72 C2 Apollo, T.",
    "source": "Pleiades"
  },
  {
    "id": "707481",
    "name": "Apollo, T.",
    "lat": 34.9739,
    "lng": 33.5289,
    "religion": "roman",
    "siteType": "sanctuary",
    "deity": null,
    "startYear": -600,
    "endYear": -450,
    "description": "An ancient place, cited: BAtlas 72 D3 Apollo, T.",
    "source": "Pleiades"
  },
  {
    "id": "589701",
    "name": "Apollo, T.",
    "lat": 35.5912,
    "lng": 23.6004,
    "religion": "roman",
    "siteType": "sanctuary",
    "deity": null,
    "startYear": 50,
    "endYear": 50,
    "description": "An ancient place, cited: BAtlas 60 A1 Apollo, T.",
    "source": "Pleiades"
  },
  {
    "id": "599507",
    "name": "Apollo, T.",
    "lat": 36.9654,
    "lng": 26.9503,
    "religion": "roman",
    "siteType": "church",
    "deity": null,
    "startYear": 400,
    "endYear": 400,
    "description": "Two early Christian basilicae were superimposed over the ancient sanctuary of Apollo Dalios.",
    "source": "Pleiades"
  },
  {
    "id": "540649",
    "name": "Apollo, T.",
    "lat": 39.3035,
    "lng": 23.1221,
    "religion": "roman",
    "siteType": "temple",
    "deity": null,
    "startYear": -600,
    "endYear": 50,
    "description": "The oracular shrine of Apollo Koropaios.",
    "source": "Pleiades"
  },
  {
    "id": "540650",
    "name": "Apollo, T.",
    "lat": 38.454,
    "lng": 23.2526,
    "religion": "roman",
    "siteType": "temple",
    "deity": null,
    "startYear": -600,
    "endYear": 400,
    "description": "An ancient place, cited: BAtlas 55 E4 Apollo, T.",
    "source": "Pleiades"
  },
  {
    "id": "540651",
    "name": "Apollo, T.",
    "lat": 38.5851,
    "lng": 23.8051,
    "religion": "roman",
    "siteType": "temple",
    "deity": null,
    "startYear": -450,
    "endYear": -200,
    "description": "An ancient place, cited: BAtlas 55 F3 Apollo, T.",
    "source": "Pleiades"
  },
  {
    "id": "540652",
    "name": "Apollo, T.",
    "lat": 38.5013,
    "lng": 24.1233,
    "religion": "roman",
    "siteType": "temple",
    "deity": null,
    "startYear": -600,
    "endYear": 400,
    "description": "An ancient place, cited: BAtlas 55 G3 Apollo, T.",
    "source": "Pleiades"
  },
  {
    "id": "609310",
    "name": "Apollo, T.",
    "lat": 38.8102,
    "lng": 29.697,
    "religion": "roman",
    "siteType": "temple",
    "deity": null,
    "startYear": 50,
    "endYear": 50,
    "description": "An ancient place, cited: BAtlas 62 C4 Apollo, T.",
    "source": "Pleiades"
  },
  {
    "id": "609311",
    "name": "Apollo, T.",
    "lat": 38.7546,
    "lng": 30.6975,
    "religion": "roman",
    "siteType": "temple",
    "deity": null,
    "startYear": 50,
    "endYear": 50,
    "description": "An ancient place, cited: BAtlas 62 E4 Apollo, T.",
    "source": "Pleiades"
  },
  {
    "id": "678024",
    "name": "Apollo, T.",
    "lat": 34.0039,
    "lng": 36.0291,
    "religion": "roman",
    "siteType": "temple",
    "deity": null,
    "startYear": 50,
    "endYear": 50,
    "description": "An ancient place, cited: BAtlas 69 D1 Apollo, T.",
    "source": "Pleiades"
  },
  {
    "id": "874330",
    "name": "Apostoli, Mon.",
    "lat": 38.6955,
    "lng": 41.5217,
    "religion": "roman",
    "siteType": "church",
    "deity": null,
    "startYear": 400,
    "endYear": 400,
    "description": "An ancient place, cited: BAtlas 89 D2 Apostoli, Mon.",
    "source": "Pleiades"
  },
  {
    "id": "678026",
    "name": "Aqaba",
    "lat": 33.5105,
    "lng": 35.8091,
    "religion": "roman",
    "siteType": "sanctuary",
    "deity": null,
    "startYear": 50,
    "endYear": 50,
    "description": "Aqaba - now Aaqbe - is a place located in the Beqaa Governorate in Lebanon. It is the site of a Roman temple that has been classified as belonging to the \"Mount Hermon\" temple group.",
    "source": "Pleiades"
  },
  {
    "id": "897105326",
    "name": "Aqaba Church",
    "lat": 29.5337,
    "lng": 34.9991,
    "religion": "roman",
    "siteType": "church",
    "deity": null,
    "startYear": 400,
    "endYear": 400,
    "description": "A pre-Constantinian Christian church located at ancient Aila in Jordan.",
    "source": "Pleiades"
  },
  {
    "id": "109330",
    "name": "Aquae Segetae",
    "lat": 48.1154,
    "lng": 2.6228,
    "religion": "roman",
    "siteType": "sanctuary",
    "deity": null,
    "startYear": 50,
    "endYear": 50,
    "description": "An ancient settlement at modern Sceaux-du-Gâtinais in France (BAtlas 11 C4 Sceaux-du-Gâtinais)",
    "source": "Pleiades"
  },
  {
    "id": "43496934",
    "name": "Ara della Regina",
    "lat": 42.2588,
    "lng": 11.8015,
    "religion": "roman",
    "siteType": "sanctuary",
    "deity": null,
    "startYear": -200,
    "endYear": 50,
    "description": "A fourth to third century B.C. sanctuary at Tarquinia.",
    "source": "Pleiades"
  },
  {
    "id": "207271757",
    "name": "Ara Maxima Herculis",
    "lat": 41.8885,
    "lng": 12.4813,
    "religion": "roman",
    "siteType": "shrine",
    "deity": null,
    "startYear": 50,
    "endYear": 250,
    "description": "An early cult center connected with Herakles located in Rome's Forum Boarium.",
    "source": "Pleiades"
  },
  {
    "id": "816091000",
    "name": "Ara Pacis Augustae",
    "lat": 41.9028,
    "lng": 12.4791,
    "religion": "roman",
    "siteType": "temple",
    "deity": null,
    "startYear": 50,
    "endYear": 250,
    "description": "The \"Altar of Augustan Peace\" was located in the Campus Martius of Rome. It was originally situated to the west of the Via Lata, near the eastern end of Augustus' Horologium. The reconstructed fragments of the altar are now housed in a museum located on the Tiber's banks in the Piazza Augusto Imperatore, a square created during the Fascist era in order to spotlight the ruins of the Mausoleum of Augustus.",
    "source": "Pleiades"
  },
  {
    "id": "570098",
    "name": "Arachnaion (mountain)",
    "lat": 37.6689,
    "lng": 22.9838,
    "religion": "roman",
    "siteType": "church",
    "deity": null,
    "startYear": 50,
    "endYear": 250,
    "description": "A mountain of the Argolid with a higher western peak (Profitis Ilias, 1199 masl) and a lower eastern peak (Mavrovouni or Arna, 1139 masl). Material from the Mycenaean, Archaic, and Classical periods has been found on the western peak and identified with altars of Zeus and Hera described by Pausanias. Aeschylus mentions its use as a signal station.",
    "source": "Pleiades"
  },
  {
    "id": "499782907",
    "name": "Archaic Temple at Ai Lia",
    "lat": 38.1641,
    "lng": 22.1568,
    "religion": "roman",
    "siteType": "church",
    "deity": null,
    "startYear": 50,
    "endYear": 250,
    "description": "Badly damaged foundations of the peristyle of a large Doric temple of the 6th or early 5th c. BCE, the center of which is now occupied by the modern chapel of Profitis Ilias on a rise NE of ancient Kyreneia. This temple was probably destroyed during the earthquake of 373 BCE and replaced by a smaller temple to the west, built from its rubble. A monumental great altar has also been excavated immediately east of the temple.",
    "source": "Pleiades"
  },
  {
    "id": "51062012",
    "name": "Archbishop's Chapel, Ravenna",
    "lat": 44.416,
    "lng": 12.197,
    "religion": "roman",
    "siteType": "church",
    "deity": null,
    "startYear": 400,
    "endYear": 400,
    "description": "A private, early Christian oratory in Ravenna, Italy, erected by Peter II as archbishop in A.D. 495.",
    "source": "Pleiades"
  },
  {
    "id": "540657",
    "name": "Archegetes, T.",
    "lat": 38.4993,
    "lng": 22.7413,
    "religion": "roman",
    "siteType": "temple",
    "deity": null,
    "startYear": -600,
    "endYear": 50,
    "description": "An ancient place, cited: BAtlas 55 D4 Archegetes, T.",
    "source": "Pleiades"
  },
  {
    "id": "599512",
    "name": "Archilocheion",
    "lat": 37.0887,
    "lng": 25.1736,
    "religion": "roman",
    "siteType": "sanctuary",
    "deity": null,
    "startYear": 50,
    "endYear": 250,
    "description": "A sanctuary dedicated to the Greek lyric poet Archilochus, known as the Archilocheion, was established on Paros during the third century BCE. It is attested textually in both literature and inscriptions; however, the precise location of the sanctuary has not been identified. During the 19th and 20th centuries, some scholars argued for it to be placed at the site of the “Three Churches” (Tris Ekklisies) because inscriptions mentioning Archilochos were found reused in remains of the 6th century Christian basilica over which the later churches had been built. Other scholars (e.g., Kontoleon in PECS) have vigorously rejected this view. Foss (BAtlDir) cites Berranger in tentatively placing the Archilocheion further east at the modern village of Elitas.",
    "source": "Pleiades"
  },
  {
    "id": "462100",
    "name": "Arcia di Niscemi",
    "lat": 37.1082,
    "lng": 14.397,
    "religion": "roman",
    "siteType": "sanctuary",
    "deity": null,
    "startYear": -450,
    "endYear": -450,
    "description": "An ancient place, cited: BAtlas 47 E4 Arcia di Niscemi",
    "source": "Pleiades"
  },
  {
    "id": "582870",
    "name": "Ardettos",
    "lat": 37.9683,
    "lng": 23.7411,
    "religion": "roman",
    "siteType": "shrine",
    "deity": null,
    "startYear": 50,
    "endYear": 250,
    "description": "A site to the southeast of Athens, where jurors swore their oath, named for a hero Ardettes.",
    "source": "Pleiades"
  },
  {
    "id": "220380718",
    "name": "Area archeologica di Colle della Noce",
    "lat": 41.6083,
    "lng": 12.5485,
    "religion": "roman",
    "siteType": "sanctuary",
    "deity": null,
    "startYear": 50,
    "endYear": 250,
    "description": "The ancient temple in the sacred area of Colle della Noce dates to the fifth and fourth century BCE.",
    "source": "Pleiades"
  },
  {
    "id": "589707",
    "name": "Ares, Aphrodite, T.",
    "lat": 35.25,
    "lng": 25.75,
    "religion": "roman",
    "siteType": "sanctuary",
    "deity": null,
    "startYear": -600,
    "endYear": -200,
    "description": "An ancient place, cited: BAtlas 60 E2 Ares, Aphrodite, T.",
    "source": "Pleiades"
  },
  {
    "id": "344182764",
    "name": "Arian Baptistry",
    "lat": 44.4187,
    "lng": 12.2024,
    "religion": "roman",
    "siteType": "church",
    "deity": null,
    "startYear": 400,
    "endYear": 400,
    "description": "Baptistry built by Theodoric the Great in the late fifth or early sixth century AD",
    "source": "Pleiades"
  },
  {
    "id": "138193",
    "name": "Aron",
    "lat": 44.9264,
    "lng": 2.4418,
    "religion": "roman",
    "siteType": "temple",
    "deity": null,
    "startYear": 50,
    "endYear": 400,
    "description": "An ancient place, cited: BAtlas 14 H4 Aron",
    "source": "Pleiades"
  },
  {
    "id": "658391",
    "name": "Arsameia pros Nymphaio",
    "lat": 37.9461,
    "lng": 38.6536,
    "religion": "roman",
    "siteType": "sanctuary",
    "deity": null,
    "startYear": -200,
    "endYear": 50,
    "description": "An ancient fortified city on high ground on the south bank of the river Nymphaios (modern Kâhta Çayı) south of the modern village of Kocahisar (also known as Eski Kahta) in Turkey.",
    "source": "Pleiades"
  },
  {
    "id": "992779753",
    "name": "Arteda Civitate",
    "lat": 42.5989,
    "lng": -0.9942,
    "religion": "roman",
    "siteType": "church",
    "deity": null,
    "startYear": 50,
    "endYear": 250,
    "description": "An early medieval settlement in Spain (9th to 13th centuries CE) listed in contemporary Latin documents. This settlement is now identified with a second phase of occupation of an archaeological site known as El Forau de la Tuta near modern Arieda in Zaragosa province where a previously unknown Roman settlement has also been discovered. In addition to archaeological finds in situ, spolia from both the Roman and medieval phases have been identified in the more recent Ermita de San Pedro.",
    "source": "Pleiades"
  },
  {
    "id": "540664",
    "name": "Artemis Diktynnaia, T.",
    "lat": 38.4156,
    "lng": 22.6555,
    "religion": "roman",
    "siteType": "temple",
    "deity": null,
    "startYear": -450,
    "endYear": 50,
    "description": "An ancient place, cited: BAtlas 55 D4 Artemis Diktynnaia, T.",
    "source": "Pleiades"
  },
  {
    "id": "540665",
    "name": "Artemis Elaphebolia, T.",
    "lat": 38.6367,
    "lng": 22.8955,
    "religion": "roman",
    "siteType": "sanctuary",
    "deity": null,
    "startYear": -600,
    "endYear": 50,
    "description": "An ancient place, cited: BAtlas 55 D3 Artemis Elaphebolia, T.",
    "source": "Pleiades"
  },
  {
    "id": "540666",
    "name": "Artemis Hegemone, T.",
    "lat": 38.5884,
    "lng": 21.6531,
    "religion": "roman",
    "siteType": "sanctuary",
    "deity": null,
    "startYear": -600,
    "endYear": -200,
    "description": "An ancient place, cited: BAtlas 55 B3 Artemis Hegemone, T.",
    "source": "Pleiades"
  },
  {
    "id": "244463746",
    "name": "Artemis Laphria Sanctuary (Kalydon)",
    "lat": 38.3721,
    "lng": 21.5299,
    "religion": "roman",
    "siteType": "sanctuary",
    "deity": null,
    "startYear": -600,
    "endYear": 50,
    "description": "This sanctuary is believed to have been active since at least the Geometric period, possibly on the site of a Mycenaean settlement. Ceramic evidence indicates continuous activity at least through the Roman period.",
    "source": "Pleiades"
  },
  {
    "id": "599523",
    "name": "Artemis Parthenos, T.",
    "lat": 37.1895,
    "lng": 26.8033,
    "religion": "roman",
    "siteType": "temple",
    "deity": null,
    "startYear": -600,
    "endYear": 50,
    "description": "An ancient place, cited: BAtlas 61 D3 Artemis Parthenos, T.",
    "source": "Pleiades"
  },
  {
    "id": "579878",
    "name": "Artemis Tauropolos temple",
    "lat": 37.9798,
    "lng": 24.0089,
    "religion": "roman",
    "siteType": "sanctuary",
    "deity": null,
    "startYear": -600,
    "endYear": 50,
    "description": "Near Artemida/Loutsa in modern Attiki, the archaeological remains of a temple in the Doric order were first identified in 1956. Excavators identified the sanctuary as belonging to Artemis Tauropolos. The compilers of the Barrington Atlas, in keeping with the discussion offered in PECS by C.W.J. Eliot, associate the temple site with the deme of Halai Araphenides.",
    "source": "Pleiades"
  },
  {
    "id": "599524",
    "name": "Artemis Tauropolos, T.",
    "lat": 37.622,
    "lng": 26.0597,
    "religion": "roman",
    "siteType": "temple",
    "deity": null,
    "startYear": -450,
    "endYear": -200,
    "description": "An ancient place, cited: BAtlas 61 C2 Artemis Tauropolos, T.",
    "source": "Pleiades"
  },
  {
    "id": "550457",
    "name": "Artemis Thermia, T.",
    "lat": 39.1818,
    "lng": 26.4981,
    "religion": "roman",
    "siteType": "sanctuary",
    "deity": null,
    "startYear": 50,
    "endYear": 250,
    "description": "An ancient place, cited: BAtlas 56 C3 Artemis Thermia, T.",
    "source": "Pleiades"
  },
  {
    "id": "599525",
    "name": "Artemision",
    "lat": 37.3885,
    "lng": 25.2501,
    "religion": "roman",
    "siteType": "sanctuary",
    "deity": null,
    "startYear": -450,
    "endYear": -200,
    "description": "An ancient place, cited: BAtlas 61 A3 Artemision",
    "source": "Pleiades"
  },
  {
    "id": "540667",
    "name": "Artemision",
    "lat": 39.014,
    "lng": 23.2214,
    "religion": "roman",
    "siteType": "sanctuary",
    "deity": null,
    "startYear": -600,
    "endYear": 400,
    "description": "The possible site of the temple of Artemis Proseoa beneath the Ag. Georgios chapel, Artemision (Kourbatsi) Euboea.",
    "source": "Pleiades"
  },
  {
    "id": "260256455",
    "name": "Arthur's O'On",
    "lat": 56.0245,
    "lng": -3.7992,
    "religion": "roman",
    "siteType": "temple",
    "deity": null,
    "startYear": 50,
    "endYear": 50,
    "description": "A circular Roman temple that stood on the river Carron until it was destroyed in 1743.",
    "source": "Pleiades"
  },
  {
    "id": "103018178",
    "name": "Arx of Cosa",
    "lat": 42.4108,
    "lng": 11.2861,
    "religion": "roman",
    "siteType": "sanctuary",
    "deity": null,
    "startYear": -200,
    "endYear": 50,
    "description": "The citadel of the ancient city and location of its Capitolium.",
    "source": "Pleiades"
  },
  {
    "id": "344298",
    "name": "Asabaa",
    "lat": 32.0333,
    "lng": 12.8666,
    "religion": "roman",
    "siteType": "church",
    "deity": null,
    "startYear": 400,
    "endYear": 400,
    "description": "An ancient place, cited: BAtlas 35 E2 Asabaa",
    "source": "Pleiades"
  },
  {
    "id": "648573",
    "name": "Asbamaion",
    "lat": 37.8,
    "lng": 34.6316,
    "religion": "roman",
    "siteType": "sanctuary",
    "deity": null,
    "startYear": 50,
    "endYear": 400,
    "description": "A sanctuary sacred to Zeus (Jupiter) Asbamaeus that was located in Cappadocia. According to Ammianus Marcellinus, a sacred spring could be seen at the sanctuary. Apollonius of Tyana was said to have been born here.",
    "source": "Pleiades"
  },
  {
    "id": "673950517",
    "name": "Asea Vigla",
    "lat": 37.4339,
    "lng": 22.3249,
    "religion": "roman",
    "siteType": "temple",
    "deity": null,
    "startYear": -450,
    "endYear": -450,
    "description": "A Doric temple dated to the sixth century BCE.",
    "source": "Pleiades"
  },
  {
    "id": "535233377",
    "name": "Ash Altar of Zeus Lykaios",
    "lat": 37.4466,
    "lng": 21.9889,
    "religion": "roman",
    "siteType": "shrine",
    "deity": null,
    "startYear": -600,
    "endYear": 50,
    "description": "The ash altar of Zeus Lykaios on the southern peak of Mt. Lykaion. ",
    "source": "Pleiades"
  },
  {
    "id": "505237964",
    "name": "Asklepeion of Ancient Trichoneion",
    "lat": 38.5287,
    "lng": 21.5286,
    "religion": "roman",
    "siteType": "sanctuary",
    "deity": null,
    "startYear": 50,
    "endYear": 50,
    "description": "An excavated sanctuary sacred to Asklepios located at Gavalou in Aitoloakarnania West Greece.",
    "source": "Pleiades"
  },
  {
    "id": "550459",
    "name": "Asklepieion",
    "lat": 39.1189,
    "lng": 27.1656,
    "religion": "roman",
    "siteType": "sanctuary",
    "deity": null,
    "startYear": -200,
    "endYear": 50,
    "description": "The Asklepieion at Pergamon is located 3 km south of the Acropolis.",
    "source": "Pleiades"
  },
  {
    "id": "599528",
    "name": "Asklepieion (Kos)",
    "lat": 36.8757,
    "lng": 27.2572,
    "religion": "roman",
    "siteType": "sanctuary",
    "deity": null,
    "startYear": -450,
    "endYear": 50,
    "description": "A major, ancient sanctuary of Asklepios located on the Aegean island of Kos.",
    "source": "Pleiades"
  },
  {
    "id": "322517289",
    "name": "Asklepieion and Lerna",
    "lat": 37.9106,
    "lng": 22.8773,
    "religion": "roman",
    "siteType": "sanctuary",
    "deity": null,
    "startYear": -600,
    "endYear": 50,
    "description": "A sanctuary complex on the northern margins of ancient Corinth near the theater.",
    "source": "Pleiades"
  },
  {
    "id": "91539310",
    "name": "Asklepieion at Eleusis",
    "lat": 38.0413,
    "lng": 23.5375,
    "religion": "roman",
    "siteType": "sanctuary",
    "deity": null,
    "startYear": 50,
    "endYear": 250,
    "description": "A sanctuary of Asklepios at Eleusis, established in the late 5th century BC and active through the Imperial era. It is known from finds of inscriptions and sculpture to have been located somewhere north of the sanctuary of Demeter and Kore, but the exact site is lost.",
    "source": "Pleiades"
  },
  {
    "id": "346004679",
    "name": "Asklepieion at Zea",
    "lat": 37.937,
    "lng": 23.6531,
    "religion": "roman",
    "siteType": "sanctuary",
    "deity": null,
    "startYear": 50,
    "endYear": 250,
    "description": "A sanctuary of Asklepios above Zea harbour in Piraeus, founded in the late 5th century BC and active through the Imperial period. Sections of the sanctuary were explored archaeologically in the 1880s and 2000s.",
    "source": "Pleiades"
  },
  {
    "id": "52154983",
    "name": "Asklepieion of Messene",
    "lat": 37.1754,
    "lng": 21.9204,
    "religion": "roman",
    "siteType": "sanctuary",
    "deity": null,
    "startYear": -200,
    "endYear": 50,
    "description": "The Asklepieion in Ancient Messene is a sanctuary of Asklepios, the Greek god of healing, constructed in 214 BC. The complex includes civic as well as sacred buildings",
    "source": "Pleiades"
  },
  {
    "id": "627870063",
    "name": "Asklepieion of Pheneos",
    "lat": 37.909,
    "lng": 22.3075,
    "religion": "roman",
    "siteType": "sanctuary",
    "deity": null,
    "startYear": 50,
    "endYear": 250,
    "description": "The Asklepieion of Pheneos dates to the later second century BCE. It was identified via excavation in the late 1950s.",
    "source": "Pleiades"
  },
  {
    "id": "837465042",
    "name": "Asklepieion of Trikka",
    "lat": 39.5566,
    "lng": 21.7648,
    "religion": "roman",
    "siteType": "sanctuary",
    "deity": null,
    "startYear": 50,
    "endYear": 250,
    "description": "The Asklepieion of Trikka was said to be the oldest such sanctuary in Greece.",
    "source": "Pleiades"
  },
  {
    "id": "599529",
    "name": "Asklepieion, Thesmophorion?, Apollo, T.",
    "lat": 37.0781,
    "lng": 25.1408,
    "religion": "roman",
    "siteType": "sanctuary",
    "deity": null,
    "startYear": -600,
    "endYear": 50,
    "description": "An ancient place, cited: BAtlas 61 A3 Asklepieion, Thesmophorion?, Apollo, T.",
    "source": "Pleiades"
  },
  {
    "id": "540669",
    "name": "Asklepios, T.",
    "lat": 38.3945,
    "lng": 21.8385,
    "religion": "roman",
    "siteType": "sanctuary",
    "deity": null,
    "startYear": -450,
    "endYear": 50,
    "description": "An ancient place, cited: BAtlas 55 B4 Asklepios, T.",
    "source": "Pleiades"
  },
  {
    "id": "599533",
    "name": "Aspripetra",
    "lat": 36.7189,
    "lng": 26.9741,
    "religion": "roman",
    "siteType": "sanctuary",
    "deity": null,
    "startYear": -600,
    "endYear": -600,
    "description": "A cavernous grotto on the island of Kos that seems to have served as a place of worship in ancient times. Pan and the Nymphs were venerated there in Archaic Greek times. The grotto's ancient name is unknown.",
    "source": "Pleiades"
  },
  {
    "id": "432707",
    "name": "Atessa/Porcari Sanctuary",
    "lat": 42.1339,
    "lng": 14.4293,
    "religion": "roman",
    "siteType": "sanctuary",
    "deity": null,
    "startYear": 50,
    "endYear": 250,
    "description": "A small Italic sanctuary, possibly of Vejovis, in a modern area known then as Passo Porcari (between Monte Marcone and Saletti) near Atessa in Italy's Chieti province. It was excavated in the 1970s and is memorialized by the modern street name \"Via Veiove\". Rescue excavations of purportedly medieval finds were carried out in the immediate vicinity between 2017 and 2020 ahead of a road modification.",
    "source": "Pleiades"
  },
  {
    "id": "540678",
    "name": "Athena Itonia?, T.",
    "lat": 38.4,
    "lng": 22.9988,
    "religion": "roman",
    "siteType": "sanctuary",
    "deity": null,
    "startYear": -450,
    "endYear": 50,
    "description": "An ancient place, cited: BAtlas 55 D4 Athena Itonia?, T.",
    "source": "Pleiades"
  },
  {
    "id": "540679",
    "name": "Athena Kranaia, T.",
    "lat": 38.6578,
    "lng": 22.8107,
    "religion": "roman",
    "siteType": "sanctuary",
    "deity": null,
    "startYear": -450,
    "endYear": -200,
    "description": "An ancient place, cited: BAtlas 55 D3 Athena Kranaia, T.",
    "source": "Pleiades"
  },
  {
    "id": "599540",
    "name": "Athena Poliouchos, T.",
    "lat": 37.1208,
    "lng": 25.4401,
    "religion": "roman",
    "siteType": "sanctuary",
    "deity": null,
    "startYear": -450,
    "endYear": -450,
    "description": "An ancient place, cited: BAtlas 61 A3 Athena Poliouchos, T.",
    "source": "Pleiades"
  },
  {
    "id": "707488",
    "name": "Athena, T.",
    "lat": 34.9836,
    "lng": 32.8989,
    "religion": "roman",
    "siteType": "sanctuary",
    "deity": null,
    "startYear": -450,
    "endYear": -450,
    "description": "An ancient place, cited: BAtlas 72 B3 Athena, T.",
    "source": "Pleiades"
  },
  {
    "id": "589718",
    "name": "Athena, T.",
    "lat": 35.307,
    "lng": 26.3122,
    "religion": "roman",
    "siteType": "sanctuary",
    "deity": null,
    "startYear": -200,
    "endYear": 50,
    "description": "An ancient place, cited: BAtlas 60 F2 Athena, T.",
    "source": "Pleiades"
  },
  {
    "id": "540680",
    "name": "Athena, T.",
    "lat": 38.7873,
    "lng": 22.3719,
    "religion": "roman",
    "siteType": "sanctuary",
    "deity": null,
    "startYear": -600,
    "endYear": 50,
    "description": "An ancient place, cited: BAtlas 55 C3 Athena, T.",
    "source": "Pleiades"
  },
  {
    "id": "599541",
    "name": "Athena, Zeus?, T.",
    "lat": 36.432,
    "lng": 25.418,
    "religion": "roman",
    "siteType": "sanctuary",
    "deity": null,
    "startYear": -450,
    "endYear": 50,
    "description": "An ancient place, cited: BAtlas 61 A5 Athena, Zeus?, T.",
    "source": "Pleiades"
  },
  {
    "id": "756538",
    "name": "Athribis/Triph(i)eion",
    "lat": 26.5114,
    "lng": 31.6654,
    "religion": "roman",
    "siteType": "temple",
    "deity": null,
    "startYear": -200,
    "endYear": 400,
    "description": "Athribis/Triph(i)eion in Upper Egypt, located outside modern Sohag, was the site of a temple built for the goddess Repyt (Triphis) in the Ptolemaic period.",
    "source": "Pleiades"
  },
  {
    "id": "39300",
    "name": "Athroula/Laththa",
    "lat": 16.0187,
    "lng": 44.8046,
    "religion": "roman",
    "siteType": "temple",
    "deity": null,
    "startYear": 50,
    "endYear": 400,
    "description": "An ancient place, cited: BAtlas 4 B2 Athroula/Laththa",
    "source": "Pleiades"
  },