[{"id":"vici-78210","name":"'ab-dollāh Mausoleum","lat":36.4383,"lng":48.7832,"siteType":"other","description":"'ab-dollāh Mausoleum (Emāmzādehʿab-dollāh).","startYear":1300,"endYear":1599},{"id":"vici-86129","name":"\"Bergantino\" Nymphaeum","lat":41.7475,"lng":12.654,"siteType":"other","description":"Bergantino Nymphaeum","startYear":100,"endYear":0},{"id":"vici-11710","name":"\"Fontana Rotta\" - Via Appia","lat":40.9385,"lng":15.9872,"siteType":"other","description":"\"Fontana Rotta\" - Via Appia","startYear":0,"endYear":0,"territoryYear":-290,"declineYear":null},{"id":"vici-24701","name":"\"Library\" of Kremna","lat":37.4975,"lng":30.6882,"siteType":"other","description":"So called \"Library\" of Cremna","startYear":0,"endYear":0,"territoryYear":47,"declineYear":null},{"id":"vici-67913","name":"2 Ruin Stones","lat":36.6683,"lng":31.762,"siteType":"other","description":"Ancient ruin.","startYear":-199,"endYear":0},{"id":"vici-88777","name":"40.430756,34.173573","lat":40.4299,"lng":34.1753,"siteType":"other","description":"40.430756,34.173573","startYear":0,"endYear":9999,"territoryYear":-27,"declineYear":null},{"id":"vici-68490","name":"A ditch carved in the rock","lat":37.2466,"lng":35.9002,"siteType":"other","description":"A ditch carved in the rock","startYear":50,"endYear":0},{"id":"vici-81971","name":"A ditch carved in the rock","lat":36.3677,"lng":33.9287,"siteType":"other","description":"A ditch carved in the rock","startYear":0,"endYear":9999,"territoryYear":-60,"declineYear":null},{"id":"vici-87179","name":"A group of barrows","lat":41.1838,"lng":28.5637,"siteType":"other","description":"A group of barrows","startYear":0,"endYear":9999,"territoryYear":47,"declineYear":null},{"id":"vici-62167","name":"A Hurrian attack at the city Kanesh","lat":38.8524,"lng":35.6311,"siteType":"other","description":"A Hurrian attack at the city Kanesh","startYear":-1710,"endYear":0},{"id":"vici-60885","name":"A meeting of three emperors","lat":48.1178,"lng":16.8876,"siteType":"other","description":"A meeting of three emperors - Diocletian, Maximian and Galerius, during which the future model of government in the empire was discussed.","startYear":308,"endYear":0},{"id":"vici-82356","name":"A passage carved in the rock.","lat":37.8881,"lng":31.9972,"siteType":"other","description":"A passage carved in the rock.","startYear":0,"endYear":9999,"territoryYear":-1,"declineYear":null},{"id":"vici-20638","name":"A Roman in Petrinjska street","lat":45.8119,"lng":15.9794,"siteType":"other","description":"The marble head of bearded male.","startYear":0,"endYear":0,"territoryYear":14,"declineYear":null},{"id":"vici-66159","name":"A trench carved into the rock","lat":43.7631,"lng":4.0821,"siteType":"other","description":"A trench carved into the rock","startYear":10,"endYear":0},{"id":"vici-46573","name":"Aadloun II, Bezez Cave","lat":33.4059,"lng":35.2661,"siteType":"other","description":"Aadloun, Adloun or Adlun.","startYear":-70000,"endYear":0},{"id":"vici-47019","name":"Aardewerk","lat":51.7893,"lng":4.7096,"siteType":"other","description":"Aardewerk","startYear":0,"endYear":0,"territoryYear":-27,"declineYear":476},{"id":"vici-47021","name":"Aardewerk","lat":51.8272,"lng":4.5884,"siteType":"other","description":"Aardewerk","startYear":0,"endYear":0,"territoryYear":-27,"declineYear":476},{"id":"vici-47022","name":"Aardewerk","lat":51.8309,"lng":4.5826,"siteType":"other","description":"Gedraaid en handgevormd aardewerk.","startYear":0,"endYear":0,"territoryYear":-27,"declineYear":476},{"id":"vici-38984","name":"Aardewerk bij Domburgse molen","lat":51.561,"lng":3.4999,"siteType":"other","description":"Vindplaats Romeins aardewerk","startYear":0,"endYear":0,"territoryYear":84,"declineYear":476},{"id":"vici-20211","name":"Aardewerk en munt Antoninus Pius","lat":51.8535,"lng":5.8723,"siteType":"other","description":"Romeins aardewerk en een munt van Antoninus Pius.","startYear":0,"endYear":0,"territoryYear":-27,"declineYear":476},{"id":"vici-27691","name":"Aasia, Roman temple remains","lat":34.2184,"lng":35.7864,"siteType":"other","description":"Aasia, Roman temple remains","startYear":0,"endYear":0,"territoryYear":-60,"declineYear":null},{"id":"vici-65521","name":"Ab-i Gargar","lat":32.0473,"lng":48.8593,"siteType":"other","description":"A canal built by Roman prisoners of war to redirected the Kanun River towards Ab-i Gargar.","startYear":-199,"endYear":0},{"id":"vici-17779","name":"Abaton, Epidaurus","lat":37.5987,"lng":23.0738,"siteType":"other","description":"Abaton, Epidaurus","startYear":0,"endYear":0,"territoryYear":-133,"declineYear":null},{"id":"vici-25074","name":"Abdera, Acropolis","lat":40.9308,"lng":24.9744,"siteType":"other","description":"Acropolis of Abdera","startYear":0,"endYear":0,"territoryYear":47,"declineYear":null},{"id":"vici-69114","name":"Abdullach Tepe","lat":38.5481,"lng":26.8496,"siteType":"other","description":"Part of Leukai city","startYear":-299,"endYear":0},{"id":"vici-23986","name":"Abila of Decapolis","lat":32.6812,"lng":35.8689,"siteType":"other","description":"http://www.jbu.edu/abila/","startYear":0,"endYear":0,"territoryYear":117,"declineYear":null},{"id":"vici-55764","name":"Aborepi (Musawarat), Complex 200","lat":16.4136,"lng":33.3241,"siteType":"other","description":"Aborepi (Musawarat), Complex 200","startYear":-200,"endYear":0},{"id":"vici-55769","name":"Aborepi (Musawarat), Complex 400","lat":16.4123,"lng":33.3234,"siteType":"other","description":"Aborepi (Musawarat), Complex 400","startYear":-200,"endYear":0},{"id":"vici-55754","name":"Aborepi (Musawarat), Domestic building","lat":16.411,"lng":33.322,"siteType":"other","description":"Aborepi (Musawarat), Domestic building","startYear":-230,"endYear":0},{"id":"vici-55772","name":"Aborepi (Musawarat), Entrance","lat":16.4125,"lng":33.3246,"siteType":"other","description":"Aborepi (Musawarat), Entrance","startYear":-200,"endYear":0},{"id":"vici-48917","name":"Abri Castanet","lat":44.9992,"lng":1.1014,"siteType":"other","description":"Paleolithic engravings ca Abri 35,000 BC.","startYear":0,"endYear":0,"territoryYear":-27,"declineYear":476},{"id":"vici-4921","name":"Absetzbecken Köln Klettenberg","lat":50.9048,"lng":6.9095,"siteType":"other","description":"Eifelwasserleitung, Absetzbecken Köln Klettenberg","startYear":0,"endYear":0,"territoryYear":84,"declineYear":476},{"id":"vici-86632","name":"Abu Nujaym","lat":30.576,"lng":15.4037,"siteType":"other","description":"Abu Nujaym","startYear":0,"endYear":9999,"territoryYear":-133,"declineYear":476},{"id":"vici-10312","name":"Abu Sha'ar - hydraulische installatie","lat":27.3693,"lng":33.6333,"siteType":"other","description":"Abu Sha'ar - hydreuma- hydraulische installatie","startYear":0,"endYear":0,"territoryYear":-27,"declineYear":null},{"id":"vici-10310","name":"Abu Sha'ar - hydreuma - gebouwencomplex","lat":27.3693,"lng":33.6336,"siteType":"other","description":"Abu Sha'ar - hydreuma - gebouwencomplex naast de hydreuma","startYear":0,"endYear":0,"territoryYear":-27,"declineYear":null},{"id":"vici-86787","name":"Abubaba","lat":31.9944,"lng":13.5105,"siteType":"other","description":"Abubaba","startYear":0,"endYear":9999,"territoryYear":-133,"declineYear":476},{"id":"vici-41800","name":"Abwasserkanal","lat":47.4824,"lng":8.2172,"siteType":"other","description":"Abwasserkanal – Vindonissa – Windisch – AG – Schweiz","startYear":0,"endYear":0,"territoryYear":84,"declineYear":476},{"id":"vici-42890","name":"Abwasserkanal","lat":47.483,"lng":8.2199,"siteType":"other","description":"Abwasserkanal – Vindonissa – Windisch – AG – Schweiz","startYear":0,"endYear":0,"territoryYear":84,"declineYear":476},{"id":"vici-42980","name":"Abwasserkanal","lat":47.5414,"lng":7.7243,"siteType":"other","description":"Abwasserkanal – Castrum Rauracense – Augst/Kaiseraugst – BL – Schweiz","startYear":0,"endYear":0,"territoryYear":84,"declineYear":476},{"id":"vici-81709","name":"Abydos","lat":40.1695,"lng":26.4096,"siteType":"other","description":"Herodotus mentions that in 480 BC Xerxes passed by his way up the coast before crossing to Europe at Abydos.","startYear":-480,"endYear":0},{"id":"vici-49874","name":"Acces Ramp","lat":41.2842,"lng":-0.5069,"siteType":"other","description":"Acces Ramp","startYear":0,"endYear":9999,"territoryYear":-133,"declineYear":476},{"id":"vici-66281","name":"Acces road and gate","lat":42.099,"lng":-5.899,"siteType":"other","description":"Acces road and gate","startYear":-199,"endYear":0},{"id":"vici-65295","name":"Access ramp","lat":35.2002,"lng":-6.1119,"siteType":"other","description":"Access ramp","startYear":50,"endYear":0},{"id":"vici-21398","name":"Acco (Tell el-Fukhkhar,  Acre, Akka) - Crusader harbor","lat":32.919,"lng":35.0688,"siteType":"other","description":"Crusader harbor","startYear":0,"endYear":0,"territoryYear":-60,"declineYear":null},{"id":"vici-21399","name":"Acco (Tell el-Fukhkhar, Acre, Akka) - Templar`s Tunnel","lat":32.9199,"lng":35.069,"siteType":"other","description":"350 m long","startYear":0,"endYear":0,"territoryYear":-60,"declineYear":null},{"id":"vici-73794","name":"Acemhöyük, Hatipler Tepesi","lat":38.4125,"lng":33.8339,"siteType":"other","description":"Hatipler Tepesi.","startYear":-1799,"endYear":0},{"id":"vici-31867","name":"Achaemenid palace","lat":29.2575,"lng":51.1889,"siteType":"other","description":"Achaemenid palace","startYear":-599,"endYear":-300},{"id":"vici-43066","name":"Achteckige Latrine","lat":37.3648,"lng":14.3353,"siteType":"other","description":"Latrine – Piazza Armerina – Sizilien – Italien","startYear":0,"endYear":0,"territoryYear":-218,"declineYear":null},{"id":"vici-31803","name":"Acient Sanctuary","lat":37.0292,"lng":66.5909,"siteType":"other","description":"Acient Sanctuary","startYear":0,"endYear":9999,"territoryYear":null,"declineYear":null},{"id":"vici-26517","name":"Acıbaşı Tumulus","lat":39.3925,"lng":31.1787,"siteType":"other","description":"Archeological site","startYear":0,"endYear":0,"territoryYear":-133,"declineYear":null},{"id":"vici-86994","name":"Acıkuyu Höyük","lat":38.8733,"lng":33.0339,"siteType":"other","description":"Acıkuyu Höyük","startYear":0,"endYear":9999,"territoryYear":-27,"declineYear":null},{"id":"vici-20641","name":"Aconia Salvia on Kaptol","lat":45.815,"lng":15.9791,"siteType":"other","description":"Copy of Roman tombstone Aconia Salvia.","startYear":0,"endYear":0,"territoryYear":14,"declineYear":null},{"id":"vici-63784","name":"Acquedotto Randaccio","lat":45.7928,"lng":13.5865,"siteType":"other","description":"Acquedotto Randaccio","startYear":100,"endYear":0},{"id":"vici-58756","name":"Acropol","lat":40.8883,"lng":17.3918,"siteType":"other","description":"Acropol","startYear":-499,"endYear":0},{"id":"vici-71260","name":"Acropol of Othoca","lat":39.8826,"lng":8.6058,"siteType":"other","description":"Acropol of Othoca","startYear":-699,"endYear":0},{"id":"vici-44041","name":"Acropolis - Ferentino","lat":41.6935,"lng":13.2561,"siteType":"other","description":"Acropolis - Ferentino","startYear":0,"endYear":0,"territoryYear":-298,"declineYear":null},{"id":"vici-22455","name":"Acropolis of Amathous [Amathus]","lat":34.7141,"lng":33.1403,"siteType":"other","description":"Acropolis of ancient Amathos.","startYear":0,"endYear":0,"territoryYear":-27,"declineYear":null},{"id":"vici-24483","name":"Acropolis of Apollonia","lat":32.9025,"lng":21.9746,"siteType":"other","description":"Apolonia in Cyrenaica","startYear":0,"endYear":0,"territoryYear":-60,"declineYear":null},{"id":"vici-26320","name":"Acropolis of Athens, Arrephorion","lat":37.9722,"lng":23.7258,"siteType":"other","description":"Building for the Arrephoros.","startYear":0,"endYear":0,"territoryYear":-133,"declineYear":null},{"id":"vici-25515","name":"Acropolis of Mortantina","lat":37.4304,"lng":14.4789,"siteType":"other","description":"Morgantia, Murgantia and Morgantium","startYear":0,"endYear":0,"territoryYear":-218,"declineYear":null},{"id":"vici-24384","name":"Acropolis of Myra","lat":36.2615,"lng":29.9852,"siteType":"other","description":"Ancient acropolis","startYear":0,"endYear":0,"territoryYear":47,"declineYear":null},{"id":"vici-24362","name":"Acropolis of Perge","lat":36.9691,"lng":30.8527,"siteType":"other","description":"The higest part of the Perge","startYear":0,"endYear":0,"territoryYear":47,"declineYear":null},{"id":"vici-25543","name":"Acropolis of Porphyris","lat":36.6061,"lng":27.1305,"siteType":"other","description":"Ancient acropolis of Nisyros.","startYear":0,"endYear":0,"territoryYear":null,"declineYear":null},{"id":"vici-26036","name":"Acropolis of Rhamnous","lat":38.2236,"lng":24.0266,"siteType":"other","description":"rhamus - acropolis","startYear":0,"endYear":0,"territoryYear":-133,"declineYear":-27},{"id":"vici-30635","name":"Acropolis of Velathri","lat":43.4008,"lng":10.8608,"siteType":"other","description":"Volterra. Etruscan Vlathri","startYear":-799,"endYear":0},{"id":"vici-18170","name":"Acropolis, Xanthos","lat":36.359,"lng":29.3207,"siteType":"other","description":"Acropolis","startYear":0,"endYear":0,"territoryYear":47,"declineYear":null},{"id":"vici-17241","name":"ACTIUM","lat":38.9321,"lng":20.7207,"siteType":"other","description":"Schlacht, Battle","startYear":-31,"endYear":0},{"id":"vici-42893","name":"Actiumbogen","lat":41.8921,"lng":12.4859,"siteType":"other","description":"Triumphbogen – Roma – Rom – Latium – Italien","startYear":0,"endYear":0,"territoryYear":-500,"declineYear":null},{"id":"vici-65799","name":"Acueduct Tempul-Cadiz","lat":36.562,"lng":-5.9109,"siteType":"other","description":"Acueduct Tempul-Cadiz","startYear":-19,"endYear":0},{"id":"vici-65800","name":"Acueduct Tempul-Cadiz","lat":36.5608,"lng":-5.9134,"siteType":"other","description":"Acueduct Tempul-Cadiz","startYear":10,"endYear":0},{"id":"vici-65801","name":"Acueduct Tempul-Cadiz","lat":36.5593,"lng":-5.9163,"siteType":"other","description":"Acueduct Tempul-Cadiz","startYear":10,"endYear":0},{"id":"vici-65802","name":"Acueduct Tempul-Cadiz","lat":36.5575,"lng":-5.9201,"siteType":"other","description":"Acueduct Tempul-Cadiz","startYear":10,"endYear":0},{"id":"vici-65803","name":"Acueduct Tempul-Cadiz","lat":36.6423,"lng":-5.691,"siteType":"other","description":"Acueduct Tempul-Cadiz","startYear":10,"endYear":0},{"id":"vici-68207","name":"Ad Octavum","lat":43.3666,"lng":11.9,"siteType":"other","description":"Roman structure","startYear":-399,"endYear":0},{"id":"vici-26669","name":"Adada in Pisidia, Basilica","lat":37.5726,"lng":30.9836,"siteType":"other","description":"Basilica by the Roman forum,","startYear":0,"endYear":0,"territoryYear":47,"declineYear":null},{"id":"vici-26655","name":"Adada in Pisidia, Bouleuterion","lat":37.5738,"lng":30.9844,"siteType":"other","description":"Bouleuterion","startYear":0,"endYear":0,"territoryYear":47,"declineYear":null},{"id":"vici-26657","name":"Adada, Roman Forum","lat":37.5727,"lng":30.9847,"siteType":"other","description":"Roman city of Adada - forum.","startYear":0,"endYear":0,"territoryYear":47,"declineYear":null},{"id":"vici-22056","name":"Adam of Govrlevo - Adam of Macedonia","lat":41.991,"lng":21.4289,"siteType":"other","description":"Neolithic sculpture -now in Skopje Museum","startYear":-8800,"endYear":-2000},{"id":"vici-46572","name":"Adloun Cave I - Abri Zumoffen","lat":33.409,"lng":35.2674,"siteType":"other","description":"Aadloun, Adloun or Adlun.","startYear":-99999,"endYear":0},{"id":"vici-29161","name":"Adpendos, Gate S","lat":36.9377,"lng":31.1699,"siteType":"other","description":"South gate of Aspendos","startYear":0,"endYear":0,"territoryYear":47,"declineYear":null},{"id":"vici-25930","name":"Adramyttium","lat":39.5008,"lng":26.9325,"siteType":"other","description":"Excavation at Adramytteion","startYear":0,"endYear":9999,"territoryYear":-133,"declineYear":null},{"id":"vici-25933","name":"Adramyttium","lat":39.5004,"lng":26.9355,"siteType":"other","description":"mmaryrnrnExcavation at Adramytteion","startYear":0,"endYear":0,"territoryYear":-133,"declineYear":null},{"id":"vici-25934","name":"Adramyttium","lat":39.499,"lng":26.936,"siteType":"other","description":"mmaryrnrnExcavation at Adramytteion","startYear":0,"endYear":9999,"territoryYear":-133,"declineYear":null},{"id":"vici-1801","name":"Aeclanum","lat":14.9942,"lng":41.0425,"siteType":"other","description":"OmnesViae import TPPlace1359","startYear":0,"endYear":0,"territoryYear":null,"declineYear":null},{"id":"vici-19356","name":"Aegae, Royal Palace","lat":40.4779,"lng":22.3222,"siteType":"other","description":"Aegae, Royal Palace","startYear":0,"endYear":0,"territoryYear":-133,"declineYear":null},{"id":"vici-24871","name":"Aeolian Aigai","lat":38.831,"lng":27.1895,"siteType":"other","description":"Bouleuterion","startYear":0,"endYear":0,"territoryYear":-133,"declineYear":null},{"id":"vici-34336","name":"Aeolian Aigai, Gymnasium","lat":38.8294,"lng":27.1871,"siteType":"other","description":"Gymnasion of aigai","startYear":0,"endYear":0,"territoryYear":-133,"declineYear":null},{"id":"vici-34339","name":"Aeolian Aigai, Iron Gate","lat":38.8322,"lng":27.1901,"siteType":"other","description":"Demirkapi","startYear":0,"endYear":0,"territoryYear":-133,"declineYear":null},{"id":"vici-34344","name":"Aeolian Aigai, Tiberius` Gate","lat":38.8324,"lng":27.1896,"siteType":"other","description":"Yeni Kapi","startYear":0,"endYear":0,"territoryYear":-133,"declineYear":null},{"id":"vici-33044","name":"Aetokremnos","lat":34.5706,"lng":32.9906,"siteType":"other","description":"Cliff of the eagles","startYear":0,"endYear":0,"territoryYear":-27,"declineYear":14},{"id":"vici-67928","name":"Af church","lat":36.5793,"lng":29.0368,"siteType":"other","description":"Bizantine church","startYear":1000,"endYear":0},{"id":"vici-22779","name":"Afrosiab, Sogdian palace","lat":39.6698,"lng":66.9919,"siteType":"other","description":"Afrosiab, Sogdian palace","startYear":0,"endYear":0,"territoryYear":null,"declineYear":null},{"id":"vici-40181","name":"Afvalkuilen","lat":51.9316,"lng":5.4422,"siteType":"other","description":"Afvalkuilen met diverse vondsten","startYear":70,"endYear":120},{"id":"vici-34597","name":"Agia Triada","lat":35.0592,"lng":24.7927,"siteType":"other","description":"Necropolis","startYear":-1450,"endYear":0},{"id":"vici-34600","name":"Agia Triada, Royal Villa","lat":35.0592,"lng":24.7927,"siteType":"other","description":"The Royal Villa of Agia Triada","startYear":-1550,"endYear":-1450},{"id":"vici-61280","name":"Agighiol","lat":45.0317,"lng":28.8803,"siteType":"other","description":"Roman villa in Moesia Inferior.","startYear":-499,"endYear":0},{"id":"vici-17379","name":"Aglasun,Bouleterion,TR - SAGALASSOS","lat":37.6771,"lng":30.5175,"siteType":"other","description":"Bouleterion","startYear":0,"endYear":0,"territoryYear":47,"declineYear":null},{"id":"vici-60255","name":"Agora","lat":33.5118,"lng":36.3136,"siteType":"other","description":"Agora","startYear":-30,"endYear":0},{"id":"vici-69910","name":"Agora","lat":40.8509,"lng":14.2575,"siteType":"other","description":"Agora","startYear":-499,"endYear":0},{"id":"vici-24876","name":"Agora  of Pella. MK","lat":40.756,"lng":22.519,"siteType":"other","description":"Agora - forum of ancient Pella.","startYear":0,"endYear":0,"territoryYear":-133,"declineYear":null},{"id":"vici-26654","name":"Agora of Adada","lat":37.5759,"lng":30.9863,"siteType":"other","description":"Ancient city near Sağrak village","startYear":0,"endYear":0,"territoryYear":47,"declineYear":null},{"id":"vici-24442","name":"Agora of Alabanda","lat":37.5965,"lng":27.9833,"siteType":"other","description":"The agora at Alabanda.","startYear":0,"endYear":0,"territoryYear":-133,"declineYear":null},{"id":"vici-22458","name":"Agora of Amathous [Amathus]","lat":34.7161,"lng":33.1399,"siteType":"other","description":"Agora at Amathus.","startYear":0,"endYear":0,"territoryYear":-27,"declineYear":null},{"id":"vici-24430","name":"Agora of Aspendos","lat":36.9398,"lng":31.1694,"siteType":"other","description":"Ruins of Aspendos State Agora.","startYear":0,"endYear":0,"territoryYear":47,"declineYear":null},{"id":"vici-24215","name":"Agora of Assos","lat":39.4889,"lng":26.3372,"siteType":"other","description":"Assos - agora","startYear":0,"endYear":0,"territoryYear":-133,"declineYear":null},{"id":"vici-24502","name":"Agora of Bosra","lat":32.5202,"lng":36.4826,"siteType":"other","description":"Commercial place of ancient Bosra","startYear":100,"endYear":0},{"id":"vici-27977","name":"Agora of Cnidus [Knidos]","lat":36.6871,"lng":27.3713,"siteType":"other","description":"Agora, Knidos","startYear":0,"endYear":0,"territoryYear":-133,"declineYear":-60},{"id":"vici-24465","name":"Agora of Heloros","lat":36.8419,"lng":15.1081,"siteType":"other","description":"Eloros, Heloro, Helorus","startYear":0,"endYear":0,"territoryYear":-218,"declineYear":null},{"id":"vici-22237","name":"Agora of Metropolis near Yeniköy (Turkey)","lat":38.1243,"lng":27.3255,"siteType":"other","description":"Ancient agora in Metropolis","startYear":0,"endYear":0,"territoryYear":-133,"declineYear":null},{"id":"vici-24100","name":"Agora of Notion","lat":37.9928,"lng":27.1973,"siteType":"other","description":"Notium.","startYear":0,"endYear":0,"territoryYear":-133,"declineYear":null},{"id":"vici-28813","name":"Agora of Nysa ad Meandrum","lat":37.9011,"lng":28.1485,"siteType":"other","description":"Agora of Nysa","startYear":0,"endYear":0,"territoryYear":-133,"declineYear":null},{"id":"vici-29256","name":"Agora of Pamphylian Seleucia - Lybre","lat":36.874,"lng":31.4752,"siteType":"other","description":"Agora - Seleukeia in Pamphylia","startYear":-299,"endYear":0},{"id":"vici-29144","name":"Agora of Perge","lat":36.9618,"lng":30.8548,"siteType":"other","description":"Square agora - market place,","startYear":0,"endYear":0,"territoryYear":47,"declineYear":null},{"id":"vici-26677","name":"Agora of Philippi","lat":41.0127,"lng":24.2834,"siteType":"other","description":"Philippi - forum.","startYear":0,"endYear":0,"territoryYear":-133,"declineYear":null},{"id":"vici-24199","name":"Agora of Priene","lat":37.6583,"lng":27.2975,"siteType":"other","description":"Agora of Priene - open place for public meeting.","startYear":0,"endYear":0,"territoryYear":-133,"declineYear":null},{"id":"vici-24410","name":"Agora of Side","lat":36.7671,"lng":31.3928,"siteType":"other","description":"State agora - Side","startYear":0,"endYear":0,"territoryYear":null,"declineYear":null},{"id":"vici-24423","name":"Agora of Side","lat":36.7686,"lng":31.3915,"siteType":"other","description":"Stae Agora of Side with Tycheum.","startYear":0,"endYear":0,"territoryYear":null,"declineYear":null},{"id":"vici-24341","name":"Agora of Termessos","lat":36.9824,"lng":30.4636,"siteType":"other","description":"Thermessos","startYear":0,"endYear":0,"territoryYear":47,"declineYear":null},{"id":"vici-17756","name":"Agora, Athens","lat":37.9747,"lng":23.7228,"siteType":"other","description":"Agora, Athens","startYear":0,"endYear":0,"territoryYear":-133,"declineYear":null},{"id":"vici-27546","name":"Agora, Eleusis","lat":38.0397,"lng":23.5385,"siteType":"other","description":"Agora of Eleusis","startYear":0,"endYear":0,"territoryYear":-133,"declineYear":null},{"id":"vici-17786","name":"Agora, Messene","lat":37.1775,"lng":21.9198,"siteType":"other","description":"Agora, Messene","startYear":0,"endYear":0,"territoryYear":-133,"declineYear":null},{"id":"vici-18087","name":"Agora, Palmyra","lat":34.5505,"lng":38.2672,"siteType":"other","description":"Agora","startYear":0,"endYear":0,"territoryYear":117,"declineYear":400},{"id":"vici-18052","name":"Agora, Ptolemais","lat":32.7059,"lng":20.9541,"siteType":"other","description":"Agora","startYear":0,"endYear":0,"territoryYear":-60,"declineYear":null},{"id":"vici-87910","name":"Agroal","lat":39.6802,"lng":-8.4366,"siteType":"other","description":"Agroal Roman Farm","startYear":0,"endYear":9999,"territoryYear":-60,"declineYear":476},{"id":"vici-19320","name":"Ai Khanum, gymnasium","lat":37.1719,"lng":69.41,"siteType":"other","description":"Ai Khanum, gymnasium","startYear":-299,"endYear":0},{"id":"vici-19322","name":"Ai Khanum, palace","lat":37.1677,"lng":69.4081,"siteType":"other","description":"Ai Khanum, palace","startYear":-299,"endYear":0},{"id":"vici-29330","name":"Aigai, Poseidon mosaic","lat":36.77,"lng":35.7888,"siteType":"other","description":"Mosaic depicting Poseidon","startYear":0,"endYear":0,"territoryYear":null,"declineYear":null},{"id":"vici-23313","name":"Aigaiai [Aeolis]","lat":38.8302,"lng":27.1895,"siteType":"other","description":"Theatre of  Aigaiai.","startYear":0,"endYear":0,"territoryYear":-133,"declineYear":null},{"id":"vici-18303","name":"Aigospotamoi","lat":40.3638,"lng":26.6403,"siteType":"other","description":"Slag bij Aigospotamoi (http://www.livius.org/battle/aigospotamoi/)","startYear":-405,"endYear":0},{"id":"vici-31174","name":"Ain Doura Latrines","lat":36.4203,"lng":9.2167,"siteType":"other","description":"Ain Doura Latrines","startYear":0,"endYear":0,"territoryYear":-133,"declineYear":null},{"id":"vici-80675","name":"Aïn el Beïdha","lat":36.7159,"lng":8.7409,"siteType":"other","description":"Aïn el Beïdha","startYear":0,"endYear":9999,"territoryYear":-27,"declineYear":null},{"id":"vici-80661","name":"Aïn el Hilwa","lat":36.5691,"lng":8.6366,"siteType":"other","description":"Aïn el Hilwa","startYear":0,"endYear":9999,"territoryYear":-27,"declineYear":null},{"id":"vici-28216","name":"Ain el Jouj and Haret Beit Solah, Spring, Roman canals, Temple","lat":34.0193,"lng":36.279,"siteType":"other","description":"Ain el Jouj and Haret Beit Solah, Spring, Roman canals, extensive votive offerings and Temple","startYear":0,"endYear":0,"territoryYear":-60,"declineYear":null},{"id":"vici-33113","name":"Ain Ghazal, Cache  of Statues II","lat":31.9876,"lng":35.9767,"siteType":"other","description":"Cache of plaster statue","startYear":-6750,"endYear":0},{"id":"vici-33112","name":"Ain Ghazal, Cache I","lat":31.988,"lng":35.9766,"siteType":"other","description":"cache of statue.","startYear":-6750,"endYear":0},{"id":"vici-90083","name":"AIN HACHENA","lat":34.5476,"lng":8.2112,"siteType":"other","description":"AIN HACHENA","startYear":0,"endYear":9999,"territoryYear":-27,"declineYear":476},{"id":"vici-65067","name":"Aïn Hammara","lat":36.5094,"lng":9.3301,"siteType":"other","description":"Roman Farm","startYear":50,"endYear":0},{"id":"vici-28207","name":"Ain Harbata","lat":34.1743,"lng":36.2815,"siteType":"other","description":"Ain Harbata, excavation produced statuary, Palmyrian funerary carvings, and Aramaic inscription, etc.","startYear":1,"endYear":0},{"id":"vici-81026","name":"Aïn Jloula","lat":35.7947,"lng":9.8038,"siteType":"other","description":"Farm ?","startYear":0,"endYear":9999,"territoryYear":-133,"declineYear":476},{"id":"vici-31178","name":"Ain Mizreb Cisterns","lat":36.4249,"lng":9.2174,"siteType":"other","description":"Ain Mizreb Cisterns","startYear":0,"endYear":0,"territoryYear":-133,"declineYear":null},{"id":"vici-65324","name":"Ain Rchine","lat":36.1522,"lng":9.6369,"siteType":"other","description":"Roman struvtures( inscriptions, base of columns, etcetera )","startYear":-59,"endYear":0},{"id":"vici-80836","name":"Aïn Sallem","lat":36.7982,"lng":9.1029,"siteType":"other","description":"Aïn Sallem","startYear":0,"endYear":9999,"territoryYear":-133,"declineYear":null},{"id":"vici-80670","name":"Aïn Semmach","lat":36.6886,"lng":9.0494,"siteType":"other","description":"Aïn Semmach","startYear":0,"endYear":9999,"territoryYear":-27,"declineYear":null},{"id":"vici-85541","name":"Ain-el-Hamera","lat":36.1656,"lng":10.1769,"siteType":"other","description":"Roman structure","startYear":0,"endYear":9999,"territoryYear":-133,"declineYear":null},{"id":"vici-65095","name":"Aïn-Henchir ez-Zaouia-Dzaouia","lat":36.4082,"lng":9.2107,"siteType":"other","description":"Roman farm","startYear":50,"endYear":0},{"id":"vici-81029","name":"Ain-Matoui","lat":36.9311,"lng":9.7694,"siteType":"other","description":"Ain-Matoui","startYear":0,"endYear":9999,"territoryYear":-133,"declineYear":null},{"id":"vici-69814","name":"Aizanoi Hoard","lat":39.1997,"lng":29.606,"siteType":"other","description":"Roman hoard in Aizanoi.","startYear":15,"endYear":0},{"id":"vici-17748","name":"Akademeia","lat":37.9925,"lng":23.7081,"siteType":"other","description":"Gymnasium, opgericht door Plato","startYear":0,"endYear":0,"territoryYear":-133,"declineYear":null},{"id":"vici-73732","name":"Akadimia Platonos","lat":37.9916,"lng":23.7075,"siteType":"other","description":"Akadimia Platonos","startYear":1,"endYear":0},{"id":"vici-57634","name":"Akınyolu","lat":36.971,"lng":36.7378,"siteType":"other","description":"Akınyolu Köyü. Roman period coins.","startYear":-199,"endYear":0},{"id":"vici-70424","name":"Akkale, Lighthouse","lat":36.5291,"lng":34.2223,"siteType":"other","description":"Roman period lighthouse.","startYear":300,"endYear":0},{"id":"vici-88814","name":"Akpinar","lat":36.4333,"lng":36.5289,"siteType":"other","description":"Ancient settlement","startYear":0,"endYear":9999,"territoryYear":-60,"declineYear":null},{"id":"vici-25684","name":"Akrai","lat":37.0577,"lng":14.8899,"siteType":"other","description":"Porta Selinuntina- Selinunt Gate","startYear":0,"endYear":0,"territoryYear":-218,"declineYear":null},{"id":"vici-11649","name":"Akropolis Populonia","lat":42.9882,"lng":10.4897,"siteType":"other","description":"Akropolis Populonia","startYear":0,"endYear":0,"territoryYear":-264,"declineYear":-133},{"id":"vici-34808","name":"Akrotiri on Thera [Santorini]","lat":36.3514,"lng":25.4036,"siteType":"other","description":"Image of a town Akrotiri?","startYear":0,"endYear":0,"territoryYear":-133,"declineYear":200},{"id":"vici-34811","name":"Akrotiri, House of the Anchor","lat":36.3516,"lng":25.4029,"siteType":"other","description":"House of the Anchor of archaeological site of Akrotiri","startYear":0,"endYear":0,"territoryYear":-133,"declineYear":200},{"id":"vici-34810","name":"Akrotiri, House of the ladies","lat":36.3523,"lng":25.4032,"siteType":"other","description":"House of the Ladies in Akrotiri on the Aegean island of Thera (Santorini), c. XVII century BC.","startYear":0,"endYear":0,"territoryYear":-133,"declineYear":200},{"id":"vici-34812","name":"Akrotiri, West House","lat":36.3521,"lng":25.4032,"siteType":"other","description":"The West House in Ancient Akrotiri, Santorini.","startYear":0,"endYear":0,"territoryYear":-133,"declineYear":200},{"id":"vici-20494","name":"Aksaray Stele","lat":38.3666,"lng":34.0147,"siteType":"other","description":"Lower part of the Stele with Storm God relief. Luvian inscripion  dated to the end of 8th cent BCE -movedto Aksaray Museum","startYear":0,"endYear":0,"territoryYear":-27,"declineYear":null},{"id":"vici-88638","name":"Akyurt Höyük","lat":39.6224,"lng":30.8939,"siteType":"other","description":"Akyurt Höyük","startYear":0,"endYear":9999,"territoryYear":-133,"declineYear":null},{"id":"vici-89185","name":"Al Dulab","lat":35.4067,"lng":8.9017,"siteType":"other","description":"Al Dulab","startYear":0,"endYear":9999,"territoryYear":-133,"declineYear":476},{"id":"vici-31906","name":"Al Istabulat Complex (Abbasid era)","lat":34.0838,"lng":43.9165,"siteType":"other","description":"Al Istabulat Complex (Abbasid era)","startYear":0,"endYear":0,"territoryYear":117,"declineYear":200},{"id":"vici-31915","name":"al Ja'fari Palace","lat":34.3933,"lng":43.78,"siteType":"other","description":"al Ja'fari Palace","startYear":0,"endYear":0,"territoryYear":117,"declineYear":200},{"id":"vici-81012","name":"Al Karib","lat":36.3904,"lng":9.1349,"siteType":"other","description":"Aqueduct Inspection Chamber.","startYear":0,"endYear":9999,"territoryYear":-133,"declineYear":null},{"id":"vici-81013","name":"Al Karib","lat":36.3921,"lng":9.1414,"siteType":"other","description":"Aqueduct Inspection Shaft.","startYear":0,"endYear":9999,"territoryYear":-133,"declineYear":null},{"id":"vici-74829","name":"Al Khutm [Chtum]","lat":23.2717,"lng":56.7458,"siteType":"other","description":"Bronze Age beehive structures.","startYear":-3000,"endYear":0},{"id":"vici-89864","name":"Al Minshar","lat":36.733,"lng":9.3286,"siteType":"other","description":"Undefined ruins","startYear":0,"endYear":9999,"territoryYear":-133,"declineYear":null},{"id":"vici-89865","name":"Al Minshar","lat":36.7363,"lng":9.3268,"siteType":"other","description":"Roman structure","startYear":0,"endYear":9999,"territoryYear":-133,"declineYear":null},{"id":"vici-89186","name":"Al Waslatijah","lat":35.8027,"lng":9.705,"siteType":"other","description":"Al Waslatijah","startYear":0,"endYear":9999,"territoryYear":-133,"declineYear":476},{"id":"vici-89667","name":"Al-Fazdakia","lat":34.653,"lng":8.5235,"siteType":"other","description":"Al-Fazdakia","startYear":0,"endYear":9999,"territoryYear":-133,"declineYear":476},{"id":"vici-31912","name":"Al-Huwaysilat Palace (Qasr al-Juss)","lat":34.2995,"lng":43.7904,"siteType":"other","description":"Al-Huwaysilat Palace (Qasr al-Juss)","startYear":0,"endYear":0,"territoryYear":117,"declineYear":200},{"id":"vici-80901","name":"Al-Marzouqa","lat":35.0289,"lng":8.3901,"siteType":"other","description":"Al-Marzouqa","startYear":0,"endYear":9999,"territoryYear":-133,"declineYear":476},{"id":"vici-21367","name":"Alabanda, north gate","lat":37.5988,"lng":27.9836,"siteType":"other","description":"Alabanda, north gate","startYear":0,"endYear":0,"territoryYear":-133,"declineYear":null},{"id":"vici-25540","name":"Alacahöyük - Alacahüyük","lat":40.2345,"lng":34.695,"siteType":"other","description":"Tunnel","startYear":-1599,"endYear":0},{"id":"vici-25538","name":"Alacahöyük - Alacahüyük, Sfinx Gate","lat":40.2337,"lng":34.6962,"siteType":"other","description":"Sphinx Gate at the Ancient Hittite Town of Alaca Huyuk.","startYear":-1399,"endYear":0},{"id":"vici-60176","name":"Alba Pompeia Wall","lat":44.7028,"lng":8.038,"siteType":"other","description":"Wall of the ancient city","startYear":100,"endYear":0},{"id":"vici-4371","name":"Albanianae","lat":52.1294,"lng":4.6587,"siteType":"other","description":"neonletters en limeslijn in entree parkeergarage","startYear":0,"endYear":0,"territoryYear":-27,"declineYear":476},{"id":"vici-4035","name":"Albert Pistoriusweg","lat":52.0234,"lng":5.1767,"siteType":"other","description":"Onbepaalde nederzetting","startYear":-199,"endYear":399},{"id":"vici-15665","name":"Alcantarilla","lat":39.66,"lng":-4.0578,"siteType":"other","description":"Alcantarilla","startYear":0,"endYear":0,"territoryYear":-133,"declineYear":476},{"id":"vici-12047","name":"Alcantarilla-Staudamm","lat":39.6602,"lng":-4.0587,"siteType":"other","description":"Alcantarilla-Staudamm","startYear":0,"endYear":0,"territoryYear":-133,"declineYear":476},{"id":"vici-68299","name":"Alcazar de la Puerta de Sevilla","lat":37.4715,"lng":-5.6412,"siteType":"other","description":"Carthaginian moat.","startYear":-299,"endYear":0},{"id":"vici-9735","name":"Alenkastell Unterkirchberg","lat":48.3442,"lng":10.0011,"siteType":"other","description":"Alenkastell Unterkirchberg","startYear":45,"endYear":100},{"id":"vici-81556","name":"Alexander the Great visit Magarsus","lat":36.5485,"lng":35.3423,"siteType":"other","description":"Alexander the Great visit Magarsus.","startYear":-333,"endYear":0},{"id":"vici-24865","name":"Alexandria Troas, Nymphaeum","lat":39.7513,"lng":26.1574,"siteType":"other","description":"Nymphaion of Alexandria in Troas","startYear":0,"endYear":0,"territoryYear":-133,"declineYear":null},{"id":"vici-21601","name":"Alexandria, gate","lat":31.2026,"lng":29.9139,"siteType":"other","description":"Hellenistic gate","startYear":0,"endYear":0,"territoryYear":-27,"declineYear":null},{"id":"vici-21603","name":"Alexandria, Villa of the Birds","lat":31.1955,"lng":29.9053,"siteType":"other","description":"Alexandria, Villa of the Birds","startYear":0,"endYear":0,"territoryYear":-27,"declineYear":null},{"id":"vici-17582","name":"Alexandria,Pompey's Column,ET","lat":31.1825,"lng":29.8964,"siteType":"other","description":"Column","startYear":0,"endYear":0,"territoryYear":-27,"declineYear":null},{"id":"vici-88254","name":"Aliabad 2 (BS42&43)","lat":29.8317,"lng":56.6598,"siteType":"other","description":"Chalcolithic (Iblis III) settlement.","startYear":0,"endYear":9999,"territoryYear":null,"declineYear":null},{"id":"vici-87973","name":"Alibeyhüyüğü","lat":37.5353,"lng":32.6654,"siteType":"other","description":"Alibeyhüyüğü","startYear":0,"endYear":9999,"territoryYear":-1,"declineYear":null},{"id":"vici-25620","name":"Alinda, Agora","lat":37.5584,"lng":27.8293,"siteType":"other","description":"Agora of Alinda","startYear":-399,"endYear":0},{"id":"vici-31853","name":"Alinda, Stoa","lat":37.5581,"lng":27.8291,"siteType":"other","description":"Stoa at agora of Alinda.","startYear":-399,"endYear":0},{"id":"vici-18305","name":"Allia","lat":42.0252,"lng":12.5274,"siteType":"other","description":"Slag aan de Allia (http://www.livius.org/battle/allia/)","startYear":-387,"endYear":0},{"id":"vici-88339","name":"Almarjão dam","lat":39.2007,"lng":-7.5106,"siteType":"other","description":"Almarjão dam, with 5 meters high, one of the biggest wall in southern Portugal","startYear":300,"endYear":0},{"id":"vici-37842","name":"Alsórákos, Wagon Model","lat":46.0198,"lng":25.4695,"siteType":"other","description":"Alsórákos - clay wago model.  Piatra  DОtunКtă","startYear":0,"endYear":0,"territoryYear":117,"declineYear":300},{"id":"vici-51046","name":"Alte Residenz","lat":47.7987,"lng":13.0448,"siteType":"other","description":"Fundschwerpunkt","startYear":0,"endYear":0,"territoryYear":-1,"declineYear":476},{"id":"vici-51045","name":"Alte Universität Salzburg","lat":47.7995,"lng":13.0422,"siteType":"other","description":"Fundschwerpunkt","startYear":0,"endYear":0,"territoryYear":-1,"declineYear":476},{"id":"vici-84313","name":"Alterium","lat":41.7235,"lng":13.3415,"siteType":"other","description":"The Cyclopean walls","startYear":0,"endYear":9999,"territoryYear":-298,"declineYear":null},{"id":"vici-15860","name":"Alto do Castelo, Alpiarça","lat":39.2412,"lng":-8.5893,"siteType":"other","description":"Alto do Castelo, Alpiarça","startYear":-99,"endYear":0},{"id":"vici-79493","name":"Altruppersdor","lat":48.695,"lng":16.5507,"siteType":"other","description":"Neolithic circular enclosure.","startYear":-4999,"endYear":0},{"id":"vici-87775","name":"Alyamak Höyük","lat":39.8187,"lng":30.5933,"siteType":"other","description":"Alyamak Höyük","startYear":0,"endYear":9999,"territoryYear":-133,"declineYear":null},{"id":"vici-25679","name":"Amarna","lat":27.6456,"lng":30.8945,"siteType":"other","description":"Coronation Hall","startYear":0,"endYear":0,"territoryYear":-27,"declineYear":null},{"id":"vici-25680","name":"Amarna","lat":27.6473,"lng":30.8954,"siteType":"other","description":"Great Palace of Amarna","startYear":-1399,"endYear":0},{"id":"vici-25681","name":"Amarna","lat":27.6465,"lng":30.8965,"siteType":"other","description":"King`s House","startYear":-1340,"endYear":0},{"id":"vici-23484","name":"Amarna  North Palace","lat":27.6699,"lng":30.903,"siteType":"other","description":"Palace of  Pharaoh Akhenaten of the XVIIIth dynasty.","startYear":0,"endYear":0,"territoryYear":-27,"declineYear":null},{"id":"vici-56228","name":"Amathous, Fountain","lat":34.7102,"lng":33.1422,"siteType":"other","description":"Fountain","startYear":-400,"endYear":0},{"id":"vici-11608","name":"Amida city walls","lat":37.9139,"lng":40.2291,"siteType":"other","description":"Amida city walls, built by Justian","startYear":0,"endYear":0,"territoryYear":117,"declineYear":400},{"id":"vici-57424","name":"Amman - Triumphal arch","lat":31.9535,"lng":35.9342,"siteType":"other","description":"Propylaeon of Temple of Hercules. Philadelphia","startYear":160,"endYear":0},{"id":"vici-55156","name":"Amman, Forum","lat":31.9527,"lng":35.9392,"siteType":"other","description":"Amman, Forum","startYear":-280,"endYear":0},{"id":"vici-55155","name":"Amman, Umayyad \"Mosque\"","lat":31.9548,"lng":35.9343,"siteType":"other","description":"Southern gate to the Umayyad palace","startYear":640,"endYear":0},{"id":"vici-22368","name":"Amnissos - Eileithyia - House of the Lilies","lat":35.3313,"lng":25.2072,"siteType":"other","description":"Amnisus- Amnisos. Minoan building with paintings. Nowdays in Heraklion Museum.","startYear":0,"endYear":0,"territoryYear":-60,"declineYear":null},{"id":"vici-82117","name":"Ampfitheater ?","lat":36.1487,"lng":8.9338,"siteType":"other","description":"Possible Ampfitheater.","startYear":0,"endYear":9999,"territoryYear":-27,"declineYear":null},{"id":"vici-26038","name":"Amphiaraion, Women Baths","lat":38.2921,"lng":23.8463,"siteType":"other","description":"Northeast stoa","startYear":-399,"endYear":0},{"id":"vici-26632","name":"Amphipolis, Gymnasium","lat":40.8177,"lng":23.8489,"siteType":"other","description":"Hellenistic gymnasion.","startYear":0,"endYear":0,"territoryYear":-133,"declineYear":null},{"id":"vici-68300","name":"Amsaya","lat":40.652,"lng":35.8283,"siteType":"other","description":"Birthplace of the historian Strabo (63/64 BC)","startYear":-69,"endYear":0},{"id":"vici-7926","name":"Amulet Mercurius met Ram","lat":52.0597,"lng":5.1641,"siteType":"other","description":"Amulet Mercurius met Ram","startYear":0,"endYear":0,"territoryYear":-27,"declineYear":476},{"id":"vici-55989","name":"An de Stecker","lat":49.5387,"lng":6.259,"siteType":"other","description":"Roman pottery found near Vicus Ricciacus (Dalheim)","startYear":-20,"endYear":0},{"id":"vici-25693","name":"Anaktoron of Pantalica","lat":37.1348,"lng":15.0258,"siteType":"other","description":"Palazzo dell'Anaktoron -  Mycenaean princely palace.","startYear":0,"endYear":0,"territoryYear":-218,"declineYear":null},{"id":"vici-27537","name":"Anaktoron, Eleusis","lat":38.0407,"lng":23.5383,"siteType":"other","description":"Anaktoron - king`s place","startYear":0,"endYear":0,"territoryYear":-133,"declineYear":null},{"id":"vici-29482","name":"Anastasian Wall","lat":41.4485,"lng":28.3793,"siteType":"other","description":"Anastasian Wall","startYear":400,"endYear":0},{"id":"vici-25171","name":"Anazarbus","lat":37.2492,"lng":35.897,"siteType":"other","description":"The triumphal arch of  Anavarza","startYear":0,"endYear":0,"territoryYear":-60,"declineYear":null},{"id":"vici-81713","name":"Ancient bulding","lat":33.9068,"lng":35.9474,"siteType":"other","description":"Ancient bulding.","startYear":-499,"endYear":0},{"id":"vici-82600","name":"Ancient bulding","lat":43.3602,"lng":26.1522,"siteType":"other","description":"Ancient bulding","startYear":0,"endYear":9999,"territoryYear":-1,"declineYear":null},{"id":"vici-84341","name":"Ancient bulding","lat":41.3026,"lng":13.2796,"siteType":"other","description":"Possible Roman structure.","startYear":0,"endYear":9999,"territoryYear":-338,"declineYear":null},{"id":"vici-68644","name":"Ancient buldings","lat":37.1872,"lng":34.9102,"siteType":"other","description":"Ancient buldings","startYear":300,"endYear":0},{"id":"vici-32410","name":"Ancient Buldings","lat":37.4966,"lng":22.4963,"siteType":"other","description":"Buldings","startYear":0,"endYear":0,"territoryYear":-133,"declineYear":null},{"id":"vici-32954","name":"Ancient Buldings","lat":40.7851,"lng":22.8285,"siteType":"other","description":"Ancient Buldings","startYear":0,"endYear":0,"territoryYear":-133,"declineYear":null},{"id":"vici-63303","name":"Ancient Buldings","lat":42.1804,"lng":12.5107,"siteType":"other","description":"Ancient Buldings","startYear":500,"endYear":0},{"id":"vici-67205","name":"Ancient Buldings","lat":36.473,"lng":34.1682,"siteType":"other","description":"Ancient Buldings","startYear":300,"endYear":0},{"id":"vici-80606","name":"Ancient caves","lat":36.3177,"lng":9.2748,"siteType":"other","description":"Ancient caves","startYear":0,"endYear":9999,"territoryYear":-133,"declineYear":null},{"id":"vici-68914","name":"Ancient city","lat":36.2342,"lng":38.0993,"siteType":"other","description":"Ancient city","startYear":-599,"endYear":0},{"id":"vici-80903","name":"Ancient city walls","lat":41.232,"lng":13.0898,"siteType":"other","description":"Ancient city walls","startYear":-699,"endYear":0},{"id":"vici-63547","name":"Ancient City Walls","lat":38.0381,"lng":14.022,"siteType":"other","description":"Ancient City Walls","startYear":-499,"endYear":0},{"id":"vici-63549","name":"Ancient City Walls","lat":38.0409,"lng":14.0237,"siteType":"other","description":"Ancient City Walls","startYear":-399,"endYear":0},{"id":"vici-70103","name":"Ancient City Walls","lat":40.7375,"lng":14.6654,"siteType":"other","description":"Roman City Walls","startYear":-399,"endYear":0},{"id":"vici-80995","name":"Ancient Fountain","lat":38.2551,"lng":20.6532,"siteType":"other","description":"Ancient Fountain","startYear":-123,"endYear":0},{"id":"vici-24884","name":"Ancient Fountain of Pella","lat":40.761,"lng":22.5245,"siteType":"other","description":"Nymphaion of Pella","startYear":0,"endYear":0,"territoryYear":-133,"declineYear":null},{"id":"vici-80485","name":"Ancient Greek 2nd city walls","lat":38.4669,"lng":14.9542,"siteType":"other","description":"Ancient Greek 2nd city walls","startYear":-499,"endYear":0},{"id":"vici-80488","name":"Ancient Greek 2nd city walls","lat":38.4657,"lng":14.9539,"siteType":"other","description":"Ancient Greek 2nd city walls","startYear":-499,"endYear":0},{"id":"vici-78241","name":"Ancient Greek city walls","lat":40.8543,"lng":14.2544,"siteType":"other","description":"Ancient Greek city walls","startYear":-599,"endYear":0},{"id":"vici-78240","name":"Ancient Greek city walls in Sant'Aniello a Caponapoli","lat":40.8533,"lng":14.2525,"siteType":"other","description":"Ancient Greek city walls in Sant'Aniello a Caponapoli","startYear":-499,"endYear":0},{"id":"vici-80487","name":"Ancient Greek wall tower","lat":38.468,"lng":14.9569,"siteType":"other","description":"Ancient Greek wall tower","startYear":-499,"endYear":0},{"id":"vici-32935","name":"Ancient house","lat":40.8802,"lng":25.513,"siteType":"other","description":"Ancient house","startYear":0,"endYear":0,"territoryYear":47,"declineYear":null},{"id":"vici-32496","name":"Ancient House","lat":39.9755,"lng":22.6387,"siteType":"other","description":"Ancient House","startYear":0,"endYear":0,"territoryYear":-133,"declineYear":null},{"id":"vici-81329","name":"Ancient Iconium","lat":37.8686,"lng":32.4952,"siteType":"other","description":"Ancient Iconium","startYear":0,"endYear":9999,"territoryYear":-1,"declineYear":null},{"id":"vici-32938","name":"Ancient pier","lat":40.8744,"lng":25.5074,"siteType":"other","description":"Ancient pier","startYear":0,"endYear":0,"territoryYear":47,"declineYear":null},{"id":"vici-80437","name":"Ancient Punic city walls","lat":38.1134,"lng":13.3525,"siteType":"other","description":"Ancient Punic city walls","startYear":-699,"endYear":0},{"id":"vici-57401","name":"Ancient Rampart","lat":44.473,"lng":24.7073,"siteType":"other","description":"Ancient Rampart","startYear":10,"endYear":0},{"id":"vici-83545","name":"Ancient Rd","lat":43.0624,"lng":-3.375,"siteType":"other","description":"Ancient Rd","startYear":0,"endYear":9999,"territoryYear":-133,"declineYear":476},{"id":"vici-71292","name":"Ancient Road","lat":39.505,"lng":9.0603,"siteType":"other","description":"Ancient Road","startYear":-1999,"endYear":0},{"id":"vici-57273","name":"Ancient Roman Well","lat":48.5225,"lng":8.7986,"siteType":"other","description":"Ancient Roman Well","startYear":300,"endYear":0},{"id":"vici-65378","name":"Ancient ruins","lat":35.3835,"lng":10.4523,"siteType":"other","description":"Ancient ruins","startYear":50,"endYear":9999},{"id":"vici-66749","name":"Ancient ruins","lat":39.5403,"lng":30.5648,"siteType":"other","description":"Ancient ruins","startYear":-399,"endYear":0},{"id":"vici-68322","name":"Ancient ruins","lat":36.8408,"lng":39.7683,"siteType":"other","description":"Ancient ruins","startYear":-299,"endYear":0},{"id":"vici-89211","name":"Ancient ruins","lat":33.548,"lng":10.1729,"siteType":"other","description":"Ancient ruins","startYear":0,"endYear":9999,"territoryYear":-133,"declineYear":476},{"id":"vici-67849","name":"Ancient setlement","lat":38.9969,"lng":34.425,"siteType":"other","description":"Ancient settlement","startYear":-2999,"endYear":0},{"id":"vici-34232","name":"Ancient Setlement","lat":35.7919,"lng":50.6639,"siteType":"other","description":"Ancient Setlement","startYear":200,"endYear":9999},{"id":"vici-34233","name":"Ancient Setlement","lat":35.7905,"lng":50.6541,"siteType":"other","description":"Ancient Setlement","startYear":0,"endYear":9999,"territoryYear":null,"declineYear":null},{"id":"vici-34281","name":"Ancient Setlement","lat":36.9375,"lng":66.6752,"siteType":"other","description":"Ancient Setlement","startYear":0,"endYear":9999,"territoryYear":null,"declineYear":null},{"id":"vici-34283","name":"Ancient Setlement","lat":36.8604,"lng":66.6469,"siteType":"other","description":"Ancient Setlement","startYear":0,"endYear":9999,"territoryYear":null,"declineYear":null},{"id":"vici-34284","name":"Ancient Setlement","lat":37.0613,"lng":66.8039,"siteType":"other","description":"Ancient Setlement","startYear":0,"endYear":9999,"territoryYear":null,"declineYear":null},{"id":"vici-34285","name":"Ancient Setlement","lat":36.9024,"lng":66.7114,"siteType":"other","description":"Ancient Setlement","startYear":0,"endYear":9999,"territoryYear":null,"declineYear":null},{"id":"vici-67562","name":"Ancient settlement","lat":37.8648,"lng":32.071,"siteType":"other","description":"Ancient settlement","startYear":-2999,"endYear":0},{"id":"vici-67643","name":"Ancient settlement","lat":39.2732,"lng":36.6826,"siteType":"other","description":"Ancient settlement","startYear":-2999,"endYear":0},{"id":"vici-67853","name":"Ancient settlement","lat":39.3815,"lng":35.3961,"siteType":"other","description":"Ancient settlement","startYear":-2999,"endYear":0},{"id":"vici-67854","name":"Ancient settlement","lat":39.416,"lng":35.3153,"siteType":"other","description":"Ancient settlement","startYear":-2999,"endYear":0},{"id":"vici-67858","name":"Ancient settlement","lat":39.2277,"lng":35.3077,"siteType":"other","description":"Ancient settlement","startYear":-2999,"endYear":0},{"id":"vici-67861","name":"Ancient settlement","lat":39.345,"lng":35.0984,"siteType":"other","description":"Ancient settlement","startYear":-2999,"endYear":0},{"id":"vici-68617","name":"Ancient settlement","lat":37.3573,"lng":32.0765,"siteType":"other","description":"Ancient settlement","startYear":-2999,"endYear":0},{"id":"vici-68703","name":"Ancient settlement","lat":40.9097,"lng":42.567,"siteType":"other","description":"Ancient settlement","startYear":-2999,"endYear":0},{"id":"vici-68925","name":"Ancient settlement","lat":37.003,"lng":34.9135,"siteType":"other","description":"Ancient settlement","startYear":-599,"endYear":0},{"id":"vici-68944","name":"Ancient settlement","lat":38.2317,"lng":37.0756,"siteType":"other","description":"Ancient settlement","startYear":-199,"endYear":0},{"id":"vici-68949","name":"Ancient settlement","lat":38.7894,"lng":34.1081,"siteType":"other","description":"Ancient settlement","startYear":-1999,"endYear":0},{"id":"vici-69164","name":"Ancient settlement","lat":38.1844,"lng":30.7446,"siteType":"other","description":"Ancient settlement","startYear":-3999,"endYear":0},{"id":"vici-69219","name":"Ancient settlement","lat":37.8651,"lng":32.0375,"siteType":"other","description":"Ancient settlement","startYear":-1999,"endYear":0},{"id":"vici-69281","name":"Ancient settlement","lat":37.9334,"lng":31.3278,"siteType":"other","description":"Ancient settlement","startYear":-599,"endYear":0},{"id":"vici-69283","name":"Ancient settlement","lat":37.9571,"lng":31.522,"siteType":"other","description":"Ancient settlement","startYear":-2999,"endYear":0},{"id":"vici-69321","name":"Ancient settlement","lat":39.4679,"lng":34.6022,"siteType":"other","description":"Ancient settlement","startYear":-1999,"endYear":0},{"id":"vici-69613","name":"Ancient settlement","lat":38.6427,"lng":28.0576,"siteType":"other","description":"Ancient settlement","startYear":-1599,"endYear":0},{"id":"vici-81363","name":"Ancient settlement","lat":39.3365,"lng":33.2043,"siteType":"other","description":"Ancient settlement","startYear":0,"endYear":9999,"territoryYear":-27,"declineYear":null},{"id":"vici-81364","name":"Ancient settlement","lat":39.7728,"lng":32.5298,"siteType":"other","description":"Ancient settlement","startYear":0,"endYear":9999,"territoryYear":-27,"declineYear":null},{"id":"vici-81605","name":"Ancient settlement","lat":38.1652,"lng":32.2299,"siteType":"other","description":"Ancient settlement","startYear":0,"endYear":9999,"territoryYear":-60,"declineYear":null},{"id":"vici-83466","name":"Ancient settlement","lat":42.7178,"lng":-3.6707,"siteType":"other","description":"Ancient settlement","startYear":0,"endYear":9999,"territoryYear":-133,"declineYear":476},{"id":"vici-85183","name":"Ancient settlement","lat":31.7546,"lng":13.9765,"siteType":"other","description":"Ancient settlement","startYear":0,"endYear":9999,"territoryYear":-133,"declineYear":476},{"id":"vici-85184","name":"Ancient settlement","lat":31.6992,"lng":14.2124,"siteType":"other","description":"Ancient settlement","startYear":0,"endYear":9999,"territoryYear":-133,"declineYear":476},{"id":"vici-87643","name":"Ancient settlement","lat":39.2645,"lng":33.839,"siteType":"other","description":"Ancient settlement.","startYear":0,"endYear":9999,"territoryYear":-27,"declineYear":null},{"id":"vici-87696","name":"Ancient settlement","lat":37.1197,"lng":36.1099,"siteType":"other","description":"Ancient settlement","startYear":0,"endYear":9999,"territoryYear":-60,"declineYear":null},{"id":"vici-88763","name":"Ancient settlement","lat":39.2382,"lng":34.347,"siteType":"other","description":"Ancient settlement","startYear":0,"endYear":9999,"territoryYear":-27,"declineYear":null},{"id":"vici-88767","name":"Ancient settlement","lat":39.1021,"lng":35.4235,"siteType":"other","description":"Ancient settlement","startYear":0,"endYear":9999,"territoryYear":-27,"declineYear":null},{"id":"vici-88775","name":"Ancient settlement","lat":39.6501,"lng":33.9245,"siteType":"other","description":"Ancient settlement","startYear":0,"endYear":9999,"territoryYear":-27,"declineYear":null},{"id":"vici-88776","name":"Ancient settlement","lat":40.4308,"lng":34.1736,"siteType":"other","description":"Ancient settlement","startYear":0,"endYear":9999,"territoryYear":-27,"declineYear":null},{"id":"vici-88810","name":"Ancient settlement","lat":36.179,"lng":37.4517,"siteType":"other","description":"Ancient settlement","startYear":0,"endYear":9999,"territoryYear":-60,"declineYear":null},{"id":"vici-88811","name":"Ancient settlement","lat":36.2408,"lng":36.4654,"siteType":"other","description":"Ancient settlement","startYear":0,"endYear":9999,"territoryYear":-60,"declineYear":null},{"id":"vici-88812","name":"Ancient settlement","lat":36.3373,"lng":36.3922,"siteType":"other","description":"Ancient settlement","startYear":0,"endYear":9999,"territoryYear":-60,"declineYear":null},{"id":"vici-88813","name":"Ancient settlement","lat":36.3719,"lng":36.5904,"siteType":"other","description":"Ancient settlement","startYear":0,"endYear":9999,"territoryYear":-60,"declineYear":null},{"id":"vici-88815","name":"Ancient settlement","lat":36.5897,"lng":36.4173,"siteType":"other","description":"Ancient settlement","startYear":0,"endYear":9999,"territoryYear":-60,"declineYear":null},{"id":"vici-88816","name":"Ancient settlement","lat":36.815,"lng":36.5419,"siteType":"other","description":"Ancient settlement","startYear":0,"endYear":9999,"territoryYear":-60,"declineYear":null},{"id":"vici-88817","name":"Ancient settlement","lat":36.9564,"lng":36.7058,"siteType":"other","description":"Ancient settlement","startYear":0,"endYear":9999,"territoryYear":-60,"declineYear":null},{"id":"vici-88818","name":"Ancient settlement","lat":37.0783,"lng":36.7459,"siteType":"other","description":"Ancient settlement","startYear":0,"endYear":9999,"territoryYear":-60,"declineYear":null},{"id":"vici-88819","name":"Ancient settlement","lat":36.6261,"lng":36.8344,"siteType":"other","description":"Ancient settlement","startYear":0,"endYear":9999,"territoryYear":-60,"declineYear":null},{"id":"vici-88820","name":"Ancient settlement","lat":36.5813,"lng":36.8511,"siteType":"other","description":"Ancient settlement","startYear":0,"endYear":9999,"territoryYear":-60,"declineYear":null},{"id":"vici-88821","name":"Ancient settlement","lat":36.7915,"lng":37.5886,"siteType":"other","description":"Ancient settlement","startYear":0,"endYear":9999,"territoryYear":-60,"declineYear":null},{"id":"vici-88822","name":"Ancient settlement","lat":36.8087,"lng":37.5768,"siteType":"other","description":"Ancient settlement","startYear":0,"endYear":9999,"territoryYear":-60,"declineYear":null},{"id":"vici-88824","name":"Ancient settlement","lat":40.1423,"lng":34.5179,"siteType":"other","description":"Ancient settlement","startYear":0,"endYear":9999,"territoryYear":-27,"declineYear":null},{"id":"vici-34286","name":"Ancient Settlement","lat":36.9172,"lng":66.6293,"siteType":"other","description":"Ancient Settlement","startYear":0,"endYear":9999,"territoryYear":null,"declineYear":null},{"id":"vici-34287","name":"Ancient Settlement","lat":36.9002,"lng":66.5948,"siteType":"other","description":"Ancient Settlement","startYear":0,"endYear":9999,"territoryYear":null,"declineYear":null},{"id":"vici-34288","name":"Ancient Settlement","lat":36.9094,"lng":66.5833,"siteType":"other","description":"Ancient Settlement","startYear":0,"endYear":9999,"territoryYear":null,"declineYear":null},{"id":"vici-34289","name":"Ancient Settlement","lat":36.9347,"lng":66.5802,"siteType":"other","description":"Ancient Settlement","startYear":0,"endYear":9999,"territoryYear":null,"declineYear":null},{"id":"vici-34290","name":"Ancient Settlement","lat":37.045,"lng":66.6784,"siteType":"other","description":"Ancient Settlement","startYear":0,"endYear":9999,"territoryYear":null,"declineYear":null},{"id":"vici-34291","name":"Ancient Settlement","lat":37.0608,"lng":66.6246,"siteType":"other","description":"Ancient Settlement","startYear":0,"endYear":9999,"territoryYear":null,"declineYear":null},{"id":"vici-34293","name":"Ancient Settlement","lat":37.0461,"lng":66.9447,"siteType":"other","description":"Ancient Settlement","startYear":0,"endYear":9999,"territoryYear":null,"declineYear":null},{"id":"vici-34294","name":"Ancient Settlement","lat":36.926,"lng":66.5899,"siteType":"other","description":"Ancient Settlement","startYear":0,"endYear":9999,"territoryYear":null,"declineYear":null},{"id":"vici-69107","name":"Ancient settlement ?","lat":37.5651,"lng":29.9818,"siteType":"other","description":"The settlement is connected to the mainland by a causeway.","startYear":-2999,"endYear":0},{"id":"vici-51283","name":"Ancient Shaft","lat":44.4937,"lng":24.7994,"siteType":"other","description":"Ancient Shaft","startYear":0,"endYear":0,"territoryYear":117,"declineYear":300},{"id":"vici-51314","name":"Ancient Shaft","lat":44.057,"lng":24.6485,"siteType":"other","description":"Ancient Shaft","startYear":0,"endYear":0,"territoryYear":117,"declineYear":300},{"id":"vici-68931","name":"Ancient stronghold","lat":38.237,"lng":35.0344,"siteType":"other","description":"Hittite stronghold ?","startYear":-1599,"endYear":0},{"id":"vici-65501","name":"Ancient structure","lat":37.562,"lng":32.3926,"siteType":"other","description":"Ancient structure","startYear":50,"endYear":0},{"id":"vici-67151","name":"Ancient structure","lat":39.7336,"lng":31.0403,"siteType":"other","description":"Ancient structure","startYear":-199,"endYear":0},{"id":"vici-67917","name":"Ancient structure","lat":36.6425,"lng":31.7437,"siteType":"other","description":"Ancient structure","startYear":-299,"endYear":0},{"id":"vici-67918","name":"Ancient structure","lat":36.6492,"lng":31.7464,"siteType":"other","description":"Ancient structure","startYear":-299,"endYear":0},{"id":"vici-67919","name":"Ancient structure","lat":36.6519,"lng":31.746,"siteType":"other","description":"Ancient structure","startYear":-299,"endYear":0},{"id":"vici-67931","name":"Ancient structure","lat":36.7493,"lng":28.2879,"siteType":"other","description":"Ancient structure","startYear":-199,"endYear":0},{"id":"vici-69358","name":"Ancient structure","lat":36.7045,"lng":66.3524,"siteType":"other","description":"Ancient structure","startYear":-2999,"endYear":0},{"id":"vici-69359","name":"Ancient structure","lat":36.7936,"lng":66.5756,"siteType":"other","description":"Ancient structure","startYear":-2999,"endYear":9999},{"id":"vici-69361","name":"Ancient structure","lat":36.7996,"lng":66.604,"siteType":"other","description":"Ancient structure","startYear":-2999,"endYear":0},{"id":"vici-69362","name":"Ancient structure","lat":36.8038,"lng":66.6137,"siteType":"other","description":"Ancient structure","startYear":-2999,"endYear":0},{"id":"vici-69363","name":"Ancient structure","lat":36.772,"lng":66.6565,"siteType":"other","description":"Ancient structure","startYear":-2999,"endYear":0},{"id":"vici-69364","name":"Ancient structure","lat":36.7652,"lng":66.6663,"siteType":"other","description":"Ancient structure","startYear":-2999,"endYear":0},{"id":"vici-69366","name":"Ancient structure","lat":36.7538,"lng":66.6939,"siteType":"other","description":"Ancient structure","startYear":-2999,"endYear":0},{"id":"vici-69367","name":"Ancient structure","lat":36.7957,"lng":66.8064,"siteType":"other","description":"Ancient structure","startYear":-2999,"endYear":0},{"id":"vici-69368","name":"Ancient structure","lat":36.8285,"lng":66.8661,"siteType":"other","description":"Ancient structure","startYear":-2999,"endYear":0},{"id":"vici-69369","name":"Ancient structure","lat":36.8517,"lng":66.8322,"siteType":"other","description":"Ancient structure","startYear":-2999,"endYear":0},{"id":"vici-69370","name":"Ancient structure","lat":36.8317,"lng":66.8018,"siteType":"other","description":"Ancient structure","startYear":-2999,"endYear":0},{"id":"vici-69371","name":"Ancient structure","lat":36.8355,"lng":66.7982,"siteType":"other","description":"Ancient structure","startYear":-2999,"endYear":0},{"id":"vici-69372","name":"Ancient structure","lat":36.8363,"lng":66.7597,"siteType":"other","description":"Ancient structure","startYear":-2999,"endYear":0},{"id":"vici-69373","name":"Ancient structure","lat":36.8448,"lng":66.733,"siteType":"other","description":"Ancient structure","startYear":-2999,"endYear":0},{"id":"vici-69379","name":"Ancient structure","lat":36.8459,"lng":66.7085,"siteType":"other","description":"Ancient structure","startYear":-2999,"endYear":0},{"id":"vici-69380","name":"Ancient structure","lat":36.8695,"lng":66.6744,"siteType":"other","description":"Ancient structure","startYear":-2999,"endYear":0},{"id":"vici-69381","name":"Ancient structure","lat":36.8777,"lng":66.7059,"siteType":"other","description":"Ancient structure","startYear":-2999,"endYear":0},{"id":"vici-69382","name":"Ancient structure","lat":36.9005,"lng":66.6719,"siteType":"other","description":"Ancient structure","startYear":-2999,"endYear":0},{"id":"vici-69384","name":"Ancient structure","lat":36.9107,"lng":66.7394,"siteType":"other","description":"Ancient structure","startYear":-2999,"endYear":0},{"id":"vici-69385","name":"Ancient structure","lat":36.9488,"lng":66.7161,"siteType":"other","description":"Ancient structure","startYear":-2999,"endYear":0},{"id":"vici-69386","name":"Ancient structure","lat":36.9683,"lng":66.6899,"siteType":"other","description":"Ancient structure","startYear":-2999,"endYear":0},{"id":"vici-69387","name":"Ancient structure","lat":36.9797,"lng":66.6708,"siteType":"other","description":"Ancient structure","startYear":-2999,"endYear":0},{"id":"vici-69388","name":"Ancient structure","lat":36.9908,"lng":66.6402,"siteType":"other","description":"Ancient structure","startYear":-2999,"endYear":0},{"id":"vici-69389","name":"Ancient structure","lat":36.999,"lng":66.5747,"siteType":"other","description":"Ancient structure","startYear":-2999,"endYear":0},{"id":"vici-69391","name":"Ancient structure","lat":36.9745,"lng":66.7282,"siteType":"other","description":"Ancient structure","startYear":-2999,"endYear":0},{"id":"vici-69392","name":"Ancient structure","lat":36.9987,"lng":66.7699,"siteType":"other","description":"Ancient structure","startYear":-1999,"endYear":0},{"id":"vici-69393","name":"Ancient structure","lat":37,"lng":66.7925,"siteType":"other","description":"Ancient structure","startYear":-2999,"endYear":0},{"id":"vici-69395","name":"Ancient structure","lat":37.0128,"lng":66.812,"siteType":"other","description":"Ancient structure","startYear":-2999,"endYear":0},{"id":"vici-69396","name":"Ancient structure","lat":37.0274,"lng":66.8178,"siteType":"other","description":"Ancient structure","startYear":-2999,"endYear":0},{"id":"vici-69463","name":"Ancient structure","lat":39.1013,"lng":30.9935,"siteType":"other","description":"Ancient structure","startYear":-299,"endYear":0},{"id":"vici-72852","name":"Ancient structure","lat":48.3369,"lng":0.0565,"siteType":"other","description":"Ancient structure","startYear":-199,"endYear":0},{"id":"vici-72853","name":"Ancient structure","lat":48.3496,"lng":0.1499,"siteType":"other","description":"Ancient structure","startYear":-199,"endYear":0},{"id":"vici-81661","name":"Ancient structure","lat":37.2112,"lng":35.8812,"siteType":"other","description":"Ancient structure","startYear":0,"endYear":9999,"territoryYear":-60,"declineYear":null},{"id":"vici-82836","name":"Ancient structure","lat":44.973,"lng":28.6477,"siteType":"other","description":"Ancient structure","startYear":0,"endYear":9999,"territoryYear":102,"declineYear":null},{"id":"vici-83055","name":"Ancient structure","lat":37.087,"lng":-8.812,"siteType":"other","description":"Ancient structure","startYear":0,"endYear":9999,"territoryYear":-60,"declineYear":476},{"id":"vici-84954","name":"Ancient structure","lat":36.0006,"lng":9.1604,"siteType":"other","description":"According to Michael Collins, remains of a Roman post or signal station used by the Romans during the Battle of Zama.","startYear":0,"endYear":9999,"territoryYear":-133,"declineYear":null},{"id":"vici-88091","name":"Ancient structure","lat":36.4293,"lng":42.5197,"siteType":"other","description":"Ancient structure","startYear":0,"endYear":9999,"territoryYear":117,"declineYear":200},{"id":"vici-69375","name":"Ancient structures","lat":36.8248,"lng":66.6757,"siteType":"other","description":"Ancient structures","startYear":-2999,"endYear":0},{"id":"vici-69376","name":"Ancient structures","lat":36.8313,"lng":66.6443,"siteType":"other","description":"Ancient structures","startYear":-2999,"endYear":0},{"id":"vici-69377","name":"Ancient structures","lat":36.8262,"lng":66.6574,"siteType":"other","description":"Ancient structures","startYear":-2999,"endYear":0},{"id":"vici-69378","name":"Ancient structures","lat":36.824,"lng":66.7091,"siteType":"other","description":"Ancient structures","startYear":-2999,"endYear":0},{"id":"vici-69383","name":"Ancient structures","lat":36.9034,"lng":66.7332,"siteType":"other","description":"Ancient structures","startYear":-2999,"endYear":9999},{"id":"vici-69394","name":"Ancient structures","lat":37.0032,"lng":66.8106,"siteType":"other","description":"Ancient structures","startYear":-2999,"endYear":0},{"id":"vici-31802","name":"Ancient Town","lat":36.9356,"lng":66.4635,"siteType":"other","description":"Ancient Town","startYear":0,"endYear":9999,"territoryYear":null,"declineYear":null},{"id":"vici-31949","name":"Ancient Town","lat":39.4524,"lng":48.4185,"siteType":"other","description":"Ancient Town","startYear":0,"endYear":9999,"territoryYear":null,"declineYear":null},{"id":"vici-31950","name":"Ancient Town","lat":39.4477,"lng":48.4467,"siteType":"other","description":"Ancient Town","startYear":0,"endYear":9999,"territoryYear":null,"declineYear":null},{"id":"vici-89949","name":"Ancient tumulus, Hadda","lat":34.357,"lng":70.4791,"siteType":"other","description":"Probable ancient structures. Located with satellite imagery.","startYear":10,"endYear":699},{"id":"vici-63630","name":"Ancient Wall","lat":42.005,"lng":12.4925,"siteType":"other","description":"Ancient Wall","startYear":-199,"endYear":0},{"id":"vici-58757","name":"Ancient Walls","lat":40.8877,"lng":17.3873,"siteType":"other","description":"Ancient Walls","startYear":-599,"endYear":0},{"id":"vici-65492","name":"Ancient water tank","lat":37.324,"lng":37.6672,"siteType":"other","description":"Ancient water tank","startYear":-499,"endYear":0},{"id":"vici-17448","name":"Ancona,Werft,I - ANCONE","lat":43.6236,"lng":13.5097,"siteType":"other","description":"Werft","startYear":0,"endYear":0,"territoryYear":-264,"declineYear":-133},{"id":"vici-21918","name":"Andautonia","lat":45.7742,"lng":16.1159,"siteType":"other","description":"Andautonia","startYear":0,"endYear":0,"territoryYear":14,"declineYear":null},{"id":"vici-22095","name":"Andautonia - Kutelo","lat":45.7681,"lng":16.1173,"siteType":"other","description":"Andautonia - Kutelo","startYear":0,"endYear":0,"territoryYear":14,"declineYear":null},{"id":"vici-22097","name":"Andautonia - school","lat":45.7726,"lng":16.1182,"siteType":"other","description":"Andautonia - school","startYear":0,"endYear":0,"territoryYear":14,"declineYear":null},{"id":"vici-87101","name":"Andriake","lat":36.2226,"lng":29.9459,"siteType":"other","description":"Hellenistic fortress.","startYear":0,"endYear":9999,"territoryYear":47,"declineYear":null},{"id":"vici-28051","name":"Andron","lat":37.4189,"lng":27.8195,"siteType":"other","description":"Andron","startYear":-377,"endYear":-352},{"id":"vici-28052","name":"Andron, The 1st.","lat":37.4191,"lng":27.8191,"siteType":"other","description":"Andron","startYear":-344,"endYear":0},{"id":"vici-28053","name":"Andron, The 3rd.","lat":37.4188,"lng":27.8195,"siteType":"other","description":"Andron","startYear":-399,"endYear":0},{"id":"vici-77276","name":"Anglian Tower","lat":53.9618,"lng":-1.0863,"siteType":"other","description":"Wehrturm – Eburacum – York – England – Grossbritannien","startYear":400,"endYear":0},{"id":"vici-84472","name":"Anonymous settlement (BH47)","lat":29.3613,"lng":51.1387,"siteType":"other","description":"Sassanian and early medieval islamic settlement.","startYear":200,"endYear":999},{"id":"vici-86846","name":"Anonymous settlement (DL-247)","lat":32.665,"lng":47.2017,"siteType":"other","description":"Middle Susiana (- 5500) large sherd and lithic scatter site (0,67 ha).","startYear":0,"endYear":9999,"territoryYear":null,"declineYear":null},{"id":"vici-81622","name":"Anonymous settlement (K103)","lat":32.0148,"lng":65.0301,"siteType":"other","description":"No dating information. 0,29 ha.","startYear":200,"endYear":0},{"id":"vici-81643","name":"Anonymous settlement (K221)","lat":31.9083,"lng":65.9004,"siteType":"other","description":"No dating information. 0,42 ha.","startYear":200,"endYear":0},{"id":"vici-81726","name":"Anonymous settlement (K540)","lat":31.5572,"lng":65.0586,"siteType":"other","description":"No dating information. 0,09 ha.","startYear":200,"endYear":0},{"id":"vici-81745","name":"Anonymous settlement (K556)","lat":31.5416,"lng":64.9885,"siteType":"other","description":"No dating information. 0,05 ha.","startYear":200,"endYear":0},{"id":"vici-86411","name":"Anonymous settlement (KS-036?)","lat":32.2524,"lng":48.3464,"siteType":"other","description":"Late Susiana I settlement. Cluster of 4-5 small mounds, destroyed by modern agriculture. But visible on CORONA imagery.","startYear":-4799,"endYear":9999},{"id":"vici-86558","name":"Anonymous settlement (KS-1010)","lat":32.3581,"lng":48.2583,"siteType":"other","description":"Terminal Parthian and early Sasanian site. Destroyed by modern agriculture. But visible on CORONA imagery.","startYear":125,"endYear":499},{"id":"vici-86434","name":"Anonymous settlement (KS-102)","lat":32.2529,"lng":48.6134,"siteType":"other","description":"Late Susiana I settlement. Destroyed by agriculture, but visible on CORONA imagery.","startYear":-4799,"endYear":9999},{"id":"vici-86568","name":"Anonymous settlement (KS-1029)","lat":32.3609,"lng":48.2019,"siteType":"other","description":"Seleuco-Parthian and Middle Parthian site.","startYear":-399,"endYear":125},{"id":"vici-86560","name":"Anonymous settlement (KS-1058)","lat":32.3697,"lng":48.23,"siteType":"other","description":"Middle Parthian and early Sasanian site. Destroyed by modern agriculture. But visible on CORONA imagery.","startYear":25,"endYear":499},{"id":"vici-86586","name":"Anonymous settlement (KS-1090)","lat":32.2901,"lng":48.217,"siteType":"other","description":"Terminal Parthian and early Sasanian site.","startYear":125,"endYear":499},{"id":"vici-86552","name":"Anonymous settlement (KS-373)","lat":32.3835,"lng":48.2142,"siteType":"other","description":"Early Sasanian site.","startYear":250,"endYear":499},{"id":"vici-86570","name":"Anonymous settlement (KS-374)","lat":32.3799,"lng":48.2146,"siteType":"other","description":"Terminal Parthian site.","startYear":125,"endYear":250},{"id":"vici-86566","name":"Anonymous settlement (KS-377)","lat":32.3657,"lng":48.2073,"siteType":"other","description":"Middle and Terminal Parthian site. Destroyed by modern agriculture, but visible on CORONA imagery.","startYear":25,"endYear":250},{"id":"vici-86567","name":"Anonymous settlement (KS-378)","lat":32.3618,"lng":48.2038,"siteType":"other","description":"Seleuco-Parthian and Middle Parthian site.","startYear":-399,"endYear":125},{"id":"vici-86562","name":"Anonymous settlement (KS-429)","lat":32.3669,"lng":48.2329,"siteType":"other","description":"Seleuco-Parthian and Middle Parthian site. Destroyed by modern agriculture. But visible on CORONA imagery.","startYear":-325,"endYear":125},{"id":"vici-86572","name":"Anonymous settlement (KS-435)","lat":32.3622,"lng":48.2513,"siteType":"other","description":"Terminal Parthian site.","startYear":125,"endYear":250},{"id":"vici-86545","name":"Anonymous settlement (KS-437)","lat":32.364,"lng":48.2466,"siteType":"other","description":"Early Medieval Islamic site. Destroyed by modern agriculture. But visible on CORONA imagery.","startYear":400,"endYear":1099},{"id":"vici-86546","name":"Anonymous settlement (KS-437)","lat":32.3664,"lng":48.2459,"siteType":"other","description":"xxxxxxxxxx","startYear":400,"endYear":1099},{"id":"vici-86561","name":"Anonymous settlement (KS-441)","lat":32.3695,"lng":48.2313,"siteType":"other","description":"Middle Parthian site.","startYear":25,"endYear":125},{"id":"vici-86611","name":"Anonymous settlement (KS-476)","lat":32.1363,"lng":48.5262,"siteType":"other","description":"Middle & Terminal  Parthian, and earyly Sasanian site. Single-mound, destroyed by modern agriculture, but visible on CORONA imagery.","startYear":25,"endYear":499},{"id":"vici-86612","name":"Anonymous settlement (KS-477)","lat":32.1348,"lng":48.5284,"siteType":"other","description":"Early Sasanian site. Single-mound, destroyed by modern agriculture, but visible on CORONA imagery.","startYear":250,"endYear":499},{"id":"vici-86613","name":"Anonymous settlement (KS-478)","lat":32.1334,"lng":48.5302,"siteType":"other","description":"Early Sasanian site. Single-mound, destroyed by modern agriculture, but visible on CORONA imagery.","startYear":250,"endYear":499},{"id":"vici-86620","name":"Anonymous settlement (KS-485)","lat":32.1227,"lng":48.5249,"siteType":"other","description":"Middle Parthian site. Single-mound, destroyed by modern agriculture. But visible on CORONA imagery.","startYear":25,"endYear":125},{"id":"vici-86621","name":"Anonymous settlement (KS-497)","lat":32.1298,"lng":48.5078,"siteType":"other","description":"Terminal Parthian site. Single-mound, destroyed by modern agriculture, but visible on CORONA imagery.","startYear":125,"endYear":250},{"id":"vici-86614","name":"Anonymous settlement (KS-510)","lat":32.1119,"lng":48.5193,"siteType":"other","description":"Seleuco-Parthian and Middle Parthian site. Single-mound, destroyed by modern agriculture. But visible on CORONA imagery.","startYear":-399,"endYear":125},{"id":"vici-86627","name":"Anonymous settlement (KS-603)","lat":32.0712,"lng":48.529,"siteType":"other","description":"Achaemenid site. Small mound, destroyed by modern agriculture, but visible on CORONA imagery.","startYear":-599,"endYear":-300},{"id":"vici-86660","name":"Anonymous settlement (KS-671)","lat":32.0436,"lng":48.569,"siteType":"other","description":"Seleuco-Parthian site. Destroyed by modern agriculture, but visible on CORONA imagery.","startYear":-399,"endYear":25},{"id":"vici-86656","name":"Anonymous settlement (KS-723)","lat":32.0537,"lng":48.5715,"siteType":"other","description":"Terminal Parthian site. Single-mound, destroyed by modern agriculture, but visible on CORONA imagery.","startYear":125,"endYear":250},{"id":"vici-86584","name":"Anonymous settlement (KS-762)","lat":32.3274,"lng":48.2133,"siteType":"other","description":"Seleuco-Parthian and Terminal Parthian settlement.","startYear":-399,"endYear":250},{"id":"vici-86002","name":"Anonymous settlement (RH-050)","lat":31.261,"lng":49.4861,"siteType":"other","description":"No dating information.","startYear":0,"endYear":9999,"territoryYear":null,"declineYear":null},{"id":"vici-86003","name":"Anonymous settlement (RH-051)","lat":31.2689,"lng":49.4896,"siteType":"other","description":"No dating information (0,33 ha).","startYear":0,"endYear":9999,"territoryYear":null,"declineYear":null},{"id":"vici-86013","name":"Anonymous settlement (RH-059)","lat":31.2407,"lng":49.6603,"siteType":"other","description":"Seljuk; Ilkhanid and post-Safavid/Qajar probable farmstead (0,10 ha).","startYear":1000,"endYear":1799},{"id":"vici-86507","name":"Anonymous site","lat":32.3319,"lng":48.0978,"siteType":"other","description":"Sasanian circular building, destroyed by modern irrigation, but visible on CORONA imagery. Probable religious and ritual function.","startYear":300,"endYear":699},{"id":"vici-86934","name":"Anonymous site (DL-193)","lat":32.7365,"lng":47.2249,"siteType":"other","description":"Sasanian / early medieval dry-farming homestead.","startYear":200,"endYear":899},{"id":"vici-78965","name":"Anonymous site (HB-16)","lat":35.0741,"lng":48.6303,"siteType":"other","description":"Medieval islamic settlement","startYear":600,"endYear":9999},{"id":"vici-86583","name":"Anonymous site (KS-1105)","lat":32.2133,"lng":48.2446,"siteType":"other","description":"Terminal Parthian site. Destroyed by modern human activities.","startYear":125,"endYear":250},{"id":"vici-86579","name":"Anonymous site (KS-1167)","lat":32.1723,"lng":48.2929,"siteType":"other","description":"Seleuco-Parthian and TYerminal Parthian site. Destroyed by modern agriculture, but visible on CORONA imagery.","startYear":-399,"endYear":250},{"id":"vici-85833","name":"Anonymous site (KS-1567E)","lat":31.7465,"lng":48.9624,"siteType":"other","description":"Achaemenid, Parthian, Sasanian, early and middle Islamic site. Cluster of mounds.","startYear":0,"endYear":9999,"territoryYear":null,"declineYear":null},{"id":"vici-85845","name":"Anonymous site (KS-1569)","lat":31.7774,"lng":48.8934,"siteType":"other","description":"Early and middle Islamic site (0,44 ha).","startYear":0,"endYear":9999,"territoryYear":null,"declineYear":null},{"id":"vici-85889","name":"Anonymous site (KS-1612)","lat":31.865,"lng":48.9966,"siteType":"other","description":"Parthian, Sasanian and early medieval settlement (0,66 ha).","startYear":-199,"endYear":9999},{"id":"vici-85890","name":"Anonymous site (KS-1613)","lat":31.8563,"lng":48.9807,"siteType":"other","description":"Early and middle Islamic site (2,24 ha).","startYear":0,"endYear":9999,"territoryYear":null,"declineYear":null},{"id":"vici-85900","name":"Anonymous site (KS-1623)","lat":31.8237,"lng":48.8902,"siteType":"other","description":"Old and Middle Elamite, Achaemenid, Parthian, early and middle Islamic site (1,52 ha).","startYear":0,"endYear":9999,"territoryYear":null,"declineYear":null},{"id":"vici-86564","name":"Anonymous site (KS-358)","lat":32.3651,"lng":48.1973,"siteType":"other","description":"Terminal Parthian site.","startYear":125,"endYear":250},{"id":"vici-86549","name":"Anonymous site (KS-360)","lat":32.3871,"lng":48.1792,"siteType":"other","description":"Late Sasanian settlement.","startYear":400,"endYear":699},{"id":"vici-86550","name":"Anonymous site (KS-361)","lat":32.3898,"lng":48.1828,"siteType":"other","description":"Middle Parthian to early Sasanian settlement. Destroyed by agriculture, but visible on CORONA imagery.","startYear":25,"endYear":250},{"id":"vici-86565","name":"Anonymous site (KS-378)","lat":32.3623,"lng":48.1993,"siteType":"other","description":"Seleucid and Parthian settlement.","startYear":-399,"endYear":250},{"id":"vici-86557","name":"Anonymous site (KS-388)","lat":32.3773,"lng":48.2395,"siteType":"other","description":"Terminal Parthian site.","startYear":125,"endYear":250},{"id":"vici-86543","name":"Anonymous site (KS-392)","lat":32.3693,"lng":48.2588,"siteType":"other","description":"Early Medieval Islamic settlement.","startYear":600,"endYear":1099},{"id":"vici-86601","name":"Anonymous site (KS-406)","lat":32.198,"lng":48.5214,"siteType":"other","description":"Early Sasanian site. Destroyed by modern agriculture, but visible on CORONA imagery.","startYear":250,"endYear":499},{"id":"vici-86618","name":"Anonymous site (KS-432)","lat":32.2015,"lng":48.5051,"siteType":"other","description":"Terminal Parthian and early Sasanian site. Destroyed by modern agriculture, but visible on CORONA imagery.","startYear":125,"endYear":499},{"id":"vici-86547","name":"Anonymous site (KS-438)","lat":32.3659,"lng":48.2403,"siteType":"other","description":"Early Sasanian site.","startYear":250,"endYear":499},{"id":"vici-86602","name":"Anonymous site (KS-494)","lat":32.1509,"lng":48.4915,"siteType":"other","description":"Seleuco-Parthian site. Single-mound, destroyed by modern agriculture, but visible on CORONA imagery.","startYear":-399,"endYear":25},{"id":"vici-86605","name":"Anonymous site (KS-495)","lat":32.1343,"lng":48.5041,"siteType":"other","description":"Seleuco-Parthian, Middle Parthian and Early Sasanian site.","startYear":-399,"endYear":499},{"id":"vici-86626","name":"Anonymous site (KS-509)","lat":32.1136,"lng":48.5168,"siteType":"other","description":"Early Sasanian site, destroyed by modern agriculture, but visible on CORONA imagery.","startYear":250,"endYear":499},{"id":"vici-86610","name":"Anonymous site (KS-519)","lat":32.1214,"lng":48.5428,"siteType":"other","description":"Terminal Parthian and early Sasanian site.","startYear":125,"endYear":499},{"id":"vici-86608","name":"Anonymous site (KS-522)","lat":32.1499,"lng":48.5386,"siteType":"other","description":"Seleuco-Parthian site. Small single-mound, destroyed by modern agriculture, but visible on CORONA imagery.","startYear":-399,"endYear":25},{"id":"vici-86636","name":"Anonymous site (KS-567)","lat":32.0824,"lng":48.5149,"siteType":"other","description":"Terminal Parthian site. Destroyed by modern agriculture, but visible on CORONA imagery.","startYear":125,"endYear":250},{"id":"vici-86637","name":"Anonymous site (KS-568)","lat":32.085,"lng":48.513,"siteType":"other","description":"Early Sasanian site. Destroyed by modern agriculture, but visible on CORONA imagery.","startYear":400,"endYear":0},{"id":"vici-86640","name":"Anonymous site (KS-571)","lat":32.0775,"lng":48.5175,"siteType":"other","description":"Achaemenid site.","startYear":-599,"endYear":-300},{"id":"vici-86641","name":"Anonymous site (KS-572)","lat":32.0796,"lng":48.518,"siteType":"other","description":"Terminal Parthian site.","startYear":125,"endYear":250},{"id":"vici-86643","name":"Anonymous site (KS-580)","lat":32.0715,"lng":48.5199,"siteType":"other","description":"Terminal Parthian site. Single-mound, badly damaged by modern agriculture.","startYear":125,"endYear":250},{"id":"vici-86644","name":"Anonymous site (KS-581)","lat":32.0712,"lng":48.5212,"siteType":"other","description":"Middle Parthian site. Single-mound, badly damaged by modern agriculture.","startYear":25,"endYear":125},{"id":"vici-86647","name":"Anonymous site (KS-585)","lat":32.0761,"lng":48.5215,"siteType":"other","description":"Achaemenid and Terminal Parthian site. Destroyed by modern agriculture, but visible on CORONA imagery.","startYear":-599,"endYear":250},{"id":"vici-86657","name":"Anonymous site (KS-724)","lat":32.053,"lng":48.5713,"siteType":"other","description":"Terminal Parthian site. Single-mound, destroyed by modern agriculture, but visible on CORONA imagery.","startYear":125,"endYear":250},{"id":"vici-86663","name":"Anonymous site (KS-741)","lat":32.046,"lng":48.5663,"siteType":"other","description":"Terminal Parthian site. Single-mound, destroyed by modern agriculture, but visible on CORONA imagery.","startYear":125,"endYear":250},{"id":"vici-86589","name":"Anonymous site (KS-874)","lat":32.2722,"lng":48.2502,"siteType":"other","description":"Middle and Terminal Parthian site.","startYear":25,"endYear":250},{"id":"vici-85708","name":"Anonymous site (KS1666)","lat":31.6565,"lng":49.1573,"siteType":"other","description":"Sasanian and meideval islamic site (50,9 ha)","startYear":0,"endYear":9999,"territoryYear":null,"declineYear":null},{"id":"vici-85989","name":"Anonymous site (RH-033)","lat":31.3042,"lng":49.5698,"siteType":"other","description":"1st millennium site (19,5 ha). Large area of very low mounds.","startYear":0,"endYear":9999,"territoryYear":null,"declineYear":null},{"id":"vici-86051","name":"Anonymous site (RH-073)","lat":31.1375,"lng":49.5896,"siteType":"other","description":"Leveled area with some un-identifiable sherds. No dating information.","startYear":0,"endYear":9999,"territoryYear":null,"declineYear":null},{"id":"vici-87881","name":"Anonymous site (SOJAS-A32) ?","lat":28.244,"lng":57.5254,"siteType":"other","description":"Middle Chalcolithic settlement (5200-4500 BCE).","startYear":0,"endYear":9999,"territoryYear":null,"declineYear":null},{"id":"vici-87882","name":"Anonymous site (SOJAS-H03) ?","lat":27.9553,"lng":57.2539,"siteType":"other","description":"Middle Chalcolithic settlement (4500-4000 BCE).","startYear":0,"endYear":9999,"territoryYear":null,"declineYear":null},{"id":"vici-84437","name":"Anonymous structure (BH14)","lat":29.2349,"lng":50.7115,"siteType":"other","description":"No dating information. Destroyed by human activities.","startYear":200,"endYear":0},{"id":"vici-84450","name":"Anonymous structure (BH38)","lat":29.3125,"lng":51.2034,"siteType":"other","description":"Sassanid and early medieval islamic structure.","startYear":200,"endYear":999},{"id":"vici-84425","name":"Anonymous structure (BH6)","lat":29.182,"lng":51.0421,"siteType":"other","description":"No dating information.","startYear":200,"endYear":0},{"id":"vici-86933","name":"Anonymous structure (DL-194)","lat":32.7323,"lng":47.2224,"siteType":"other","description":"Sasanian / early medieval dry-farming homestead.","startYear":200,"endYear":899},{"id":"vici-81629","name":"Anonymous structure (K015)","lat":32.0069,"lng":65.1384,"siteType":"other","description":"No dating information. 0,07 ha.","startYear":200,"endYear":0},{"id":"vici-81623","name":"Anonymous structure (K104)","lat":31.7091,"lng":66.0931,"siteType":"other","description":"No dating information. 0,07 ha.","startYear":200,"endYear":0},{"id":"vici-81631","name":"Anonymous structure (K118)","lat":32.0063,"lng":65.6884,"siteType":"other","description":"No dating information. 0,07 ha.","startYear":200,"endYear":0},{"id":"vici-81636","name":"Anonymous structure (K187)","lat":31.9294,"lng":65.0272,"siteType":"other","description":"No dating information. 0,11 ha.","startYear":200,"endYear":0},{"id":"vici-81638","name":"Anonymous structure (K199)","lat":31.9127,"lng":65.0716,"siteType":"other","description":"No dating information. 0,18 ha. Possible caravanserail.","startYear":200,"endYear":0},{"id":"vici-81640","name":"Anonymous structure (K212)","lat":31.9047,"lng":65.1062,"siteType":"other","description":"No dating information. 0,33 ha.","startYear":200,"endYear":0},{"id":"vici-81644","name":"Anonymous structure (K226)","lat":31.891,"lng":65.5428,"siteType":"other","description":"No dating information. 0,45 ha.","startYear":200,"endYear":0},{"id":"vici-81649","name":"Anonymous structure (K241)","lat":31.8736,"lng":66.1212,"siteType":"other","description":"No dating information. 0,24 ha.","startYear":200,"endYear":0},{"id":"vici-81666","name":"Anonymous structure (K319)","lat":31.7655,"lng":65.5424,"siteType":"other","description":"No dating information. 0,07 ha.","startYear":200,"endYear":0},{"id":"vici-81667","name":"Anonymous structure (K328)","lat":31.7656,"lng":66.0325,"siteType":"other","description":"No dating information. 0,09 ha.","startYear":200,"endYear":0},{"id":"vici-81672","name":"Anonymous structure (K358)","lat":31.724,"lng":65.2519,"siteType":"other","description":"No dating information. 0,21 ha.","startYear":200,"endYear":0},{"id":"vici-81675","name":"Anonymous structure (K366)","lat":31.7137,"lng":65.5309,"siteType":"other","description":"No dating information. 0.1 ha.","startYear":200,"endYear":0},{"id":"vici-81679","name":"Anonymous structure (K395)","lat":31.6704,"lng":65.4126,"siteType":"other","description":"No dating information. 0,31 ha.","startYear":200,"endYear":0},{"id":"vici-81683","name":"Anonymous structure (K440)","lat":31.6331,"lng":65.3499,"siteType":"other","description":"No dating infirmation. 0,13 ha.","startYear":200,"endYear":0},{"id":"vici-81688","name":"Anonymous structure (K469)","lat":31.6176,"lng":65.8943,"siteType":"other","description":"No dating information. 0,06 ha. Recently damaged by a road.","startYear":200,"endYear":0},{"id":"vici-81695","name":"Anonymous structure (K500)","lat":31.582,"lng":65.0999,"siteType":"other","description":"No dating information. 0,11 ha.","startYear":200,"endYear":0},{"id":"vici-81728","name":"Anonymous structure (K544)","lat":31.5597,"lng":65.1431,"siteType":"other","description":"No dating information. 0,14 ha.","startYear":200,"endYear":0},{"id":"vici-81785","name":"Anonymous structure (K642)","lat":31.4821,"lng":65.4504,"siteType":"other","description":"No dating information. 0,27 ha.","startYear":200,"endYear":0},{"id":"vici-81846","name":"Anonymous structure (K704)","lat":31.4482,"lng":65.7452,"siteType":"other","description":"No dating information. 0,67 ha.","startYear":200,"endYear":0},{"id":"vici-61210","name":"Antalya","lat":36.8395,"lng":30.7055,"siteType":"other","description":"Bronze Age shipwreck.","startYear":-1600,"endYear":0},{"id":"vici-29355","name":"Antike Rampe zur Villa","lat":41.2486,"lng":13.4541,"siteType":"other","description":"Antike Rampe zur Villa","startYear":0,"endYear":0,"territoryYear":-338,"declineYear":null},{"id":"vici-34380","name":"Antikythera mechanism","lat":35.8819,"lng":23.3159,"siteType":"other","description":"Antikythera mechanism","startYear":0,"endYear":0,"territoryYear":null,"declineYear":null},{"id":"vici-30068","name":"Antikythera Shipwreck","lat":35.8822,"lng":23.3158,"siteType":"other","description":"The Antikythera wreck","startYear":0,"endYear":0,"territoryYear":null,"declineYear":null},{"id":"vici-70998","name":"Antinoeion","lat":41.9409,"lng":12.7737,"siteType":"other","description":"Antinoeion","startYear":130,"endYear":0},{"id":"vici-74492","name":"Antioch on the Maeander","lat":37.8716,"lng":28.548,"siteType":"other","description":"Probably here was created the statue of Venus de Milo.","startYear":-129,"endYear":0},{"id":"vici-32730","name":"Antiochia Pisidiae, Agora","lat":38.305,"lng":31.188,"siteType":"other","description":"Agors of Pisidian Antioch","startYear":0,"endYear":0,"territoryYear":-60,"declineYear":null},{"id":"vici-32725","name":"Antiochia Pisidiae, Palestra","lat":38.308,"lng":31.1902,"siteType":"other","description":"Palestra","startYear":0,"endYear":0,"territoryYear":-60,"declineYear":null},{"id":"vici-32727","name":"Antiochia Pisidiae, Propylon","lat":38.3043,"lng":31.1908,"siteType":"other","description":"Propylon.","startYear":0,"endYear":0,"territoryYear":-60,"declineYear":null},{"id":"vici-32723","name":"Antiochia Pisidiae, Tiberia Plateia","lat":38.3044,"lng":31.1906,"siteType":"other","description":"Tiberius square","startYear":0,"endYear":0,"territoryYear":-60,"declineYear":null},{"id":"vici-32729","name":"Antiochia Pisidiae, West Gate","lat":38.3042,"lng":31.1871,"siteType":"other","description":"West Propylon","startYear":0,"endYear":0,"territoryYear":-60,"declineYear":null},{"id":"vici-60708","name":"Antirhodos","lat":31.2053,"lng":29.8964,"siteType":"other","description":"Roman period Schipwreck.","startYear":-99,"endYear":99},{"id":"vici-24449","name":"Antonine nymphaeum, Sagalassos","lat":37.6774,"lng":30.5178,"siteType":"other","description":"Sagalassos - Nymphaion.","startYear":0,"endYear":0,"territoryYear":47,"declineYear":null},{"id":"vici-18306","name":"Aornus","lat":34.8306,"lng":72.9291,"siteType":"other","description":"Belegering van de Aornus (http://www.livius.org/battle/aornus/)","startYear":-326,"endYear":0},{"id":"vici-18967","name":"Apeldoorn","lat":52.2102,"lng":5.9472,"siteType":"other","description":"Site of a small village where iron was worked","startYear":0,"endYear":0,"territoryYear":-27,"declineYear":476},{"id":"vici-67927","name":"Aperlai","lat":36.1792,"lng":29.7719,"siteType":"other","description":"Ancient structure","startYear":-299,"endYear":0},{"id":"vici-24259","name":"Aphrodisias in Caria","lat":37.7092,"lng":28.723,"siteType":"other","description":"Christian basilica","startYear":0,"endYear":0,"territoryYear":-133,"declineYear":null},{"id":"vici-26121","name":"Aphrodisias, Gymnasium","lat":37.7063,"lng":28.7264,"siteType":"other","description":"Gaudin`s Gymnasion","startYear":0,"endYear":0,"territoryYear":-133,"declineYear":null},{"id":"vici-26118","name":"Aphrodisias, Portico of Tiberius","lat":37.708,"lng":28.7229,"siteType":"other","description":"Tiderii Porticus","startYear":0,"endYear":0,"territoryYear":-133,"declineYear":null},{"id":"vici-33034","name":"Aphrodite's Rock","lat":34.6635,"lng":32.6271,"siteType":"other","description":"The legendary Birthplace of Aphrodite","startYear":0,"endYear":0,"territoryYear":null,"declineYear":null},{"id":"vici-17840","name":"Apodyterium, Nemea","lat":37.8071,"lng":22.7137,"siteType":"other","description":"Apodyterium, Nemea","startYear":0,"endYear":0,"territoryYear":-133,"declineYear":null},{"id":"vici-31470","name":"Apollonia Bouleterion - Apollonia","lat":40.7215,"lng":19.4726,"siteType":"other","description":"Apollonia Bouleterion - Apollonia","startYear":0,"endYear":0,"territoryYear":-218,"declineYear":null},{"id":"vici-56007","name":"Apollonia, Honorary Arch","lat":40.7216,"lng":19.4729,"siteType":"other","description":"Apollonia, Honorary Arch","startYear":1,"endYear":0},{"id":"vici-17842","name":"Apsidal cistern, Perachora Heraion","lat":38.028,"lng":22.8537,"siteType":"other","description":"Apsidal cistern, Perachora Heraion","startYear":0,"endYear":0,"territoryYear":null,"declineYear":null},{"id":"vici-63847","name":"Aqua Tauri","lat":42.1191,"lng":11.8299,"siteType":"other","description":"Elliptical tank","startYear":200,"endYear":0},{"id":"vici-37850","name":"Aqueduct","lat":36.4354,"lng":34.0906,"siteType":"other","description":"Aqueduct","startYear":0,"endYear":9999,"territoryYear":-60,"declineYear":null},{"id":"vici-64760","name":"Aqueduct","lat":36.4163,"lng":9.2022,"siteType":"other","description":"Aqueduct","startYear":50,"endYear":0},{"id":"vici-64835","name":"Aqueduct","lat":36.3914,"lng":9.1372,"siteType":"other","description":"Aqueduct","startYear":50,"endYear":0},{"id":"vici-64839","name":"Aqueduct","lat":36.4032,"lng":9.17,"siteType":"other","description":"Aqueduct","startYear":50,"endYear":0},{"id":"vici-64841","name":"Aqueduct","lat":36.4096,"lng":9.1779,"siteType":"other","description":"Aqueduct","startYear":50,"endYear":0},{"id":"vici-64845","name":"Aqueduct","lat":36.4144,"lng":9.1868,"siteType":"other","description":"Aqueduct","startYear":50,"endYear":0},{"id":"vici-64761","name":"Aqueduct of Thugga","lat":36.3974,"lng":9.1581,"siteType":"other","description":"Aqueduct of Thugga","startYear":-59,"endYear":0},{"id":"vici-13915","name":"Aquileia Market area","lat":45.7683,"lng":13.3711,"siteType":"other","description":"Aquileia Market area","startYear":0,"endYear":0,"territoryYear":-218,"declineYear":null},{"id":"vici-42160","name":"Aquileia, Basilica","lat":45.7728,"lng":13.3665,"siteType":"other","description":"Aquileia, Basilica","startYear":0,"endYear":0,"territoryYear":-218,"declineYear":null},{"id":"vici-42164","name":"Aquileia, Horrea","lat":45.7692,"lng":13.3703,"siteType":"other","description":"Aquileia, Horrea","startYear":0,"endYear":0,"territoryYear":-218,"declineYear":null},{"id":"vici-29247","name":"Aquinum, Arch of Mark Antony","lat":41.4983,"lng":13.7022,"siteType":"other","description":"Arch of Mark Antony Aquino.","startYear":0,"endYear":0,"territoryYear":-298,"declineYear":null},{"id":"vici-60812","name":"Ara Noricorum","lat":46.7052,"lng":14.3654,"siteType":"other","description":"Ara Noricorum","startYear":100,"endYear":0},{"id":"vici-17942","name":"Ara Pacis","lat":41.9034,"lng":12.4794,"siteType":"other","description":"Ara Pacis","startYear":0,"endYear":0,"territoryYear":-500,"declineYear":null},{"id":"vici-17366","name":"Araphisar,Bouleterion,TR - ALABANDA","lat":37.5975,"lng":27.9829,"siteType":"other","description":"Bouleterion","startYear":0,"endYear":0,"territoryYear":-133,"declineYear":null},{"id":"vici-88636","name":"Arapören","lat":39.5529,"lng":30.8452,"siteType":"other","description":"Arapören","startYear":0,"endYear":9999,"territoryYear":-133,"declineYear":null},{"id":"vici-39927","name":"Arbela","lat":36.1912,"lng":44.0094,"siteType":"other","description":"Asssyrian tomb in Arbil/Erbil.","startYear":0,"endYear":0,"territoryYear":null,"declineYear":null},{"id":"vici-58085","name":"Arc d'Auguste","lat":45.1361,"lng":7.043,"siteType":"other","description":"Trumphal Arch","startYear":5,"endYear":0},{"id":"vici-61261","name":"Arc de triomphe de Carpentras","lat":44.0544,"lng":5.0475,"siteType":"other","description":"Arc de triomphe de Carpentras","startYear":19,"endYear":0},{"id":"vici-26055","name":"Arcadian Orchomenos, Bouleuterion","lat":37.7239,"lng":22.3152,"siteType":"other","description":"The Bouleuterion of Orchomenus.","startYear":-399,"endYear":0},{"id":"vici-57766","name":"Arch and wall","lat":40.7932,"lng":14.1876,"siteType":"other","description":"Arch and wall","startYear":100,"endYear":0},{"id":"vici-11697","name":"Arch Hadrian - Capua","lat":41.084,"lng":14.2477,"siteType":"other","description":"Arch Hadrian - Capua","startYear":0,"endYear":0,"territoryYear":-338,"declineYear":null},{"id":"vici-8482","name":"Arch of August","lat":45.7392,"lng":7.3281,"siteType":"other","description":"Arch of August","startYear":0,"endYear":0,"territoryYear":-27,"declineYear":null},{"id":"vici-18222","name":"Arch of Augustus","lat":44.0568,"lng":12.5713,"siteType":"other","description":"Arch of Augustus","startYear":0,"endYear":0,"territoryYear":-264,"declineYear":null},{"id":"vici-31253","name":"Arch of Bal","lat":36.4003,"lng":9.905,"siteType":"other","description":"Arch of Bal","startYear":0,"endYear":0,"territoryYear":-133,"declineYear":null},{"id":"vici-10905","name":"Arch of Bera","lat":41.1733,"lng":1.4691,"siteType":"other","description":"BERA","startYear":0,"endYear":0,"territoryYear":-133,"declineYear":476},{"id":"vici-62739","name":"Arch of Caracalla","lat":35.9174,"lng":9.3442,"siteType":"other","description":"Arch of Caracalla","startYear":100,"endYear":0},