[{"id":"2","name":"Augusta Treverorum","modern":"Trier","lat":49.7562,"lng":6.6438,"major":true,"type":11,"startYear":-30,"endYear":640,"greek":"Αὐγούστα Τριβήρων"},{"id":"3","name":"Mogontiacum","modern":"Mainz","lat":49.9989,"lng":8.2739,"major":true,"type":11,"startYear":-30,"endYear":640,"greek":"Μοκοντίακον"},{"id":"10","name":"Augusta Vindelicum","modern":"Augsburg","lat":48.3728,"lng":10.8966,"major":true,"type":11,"startYear":-30,"endYear":640},{"id":"15","name":"Iuvavum","modern":"Salzburg","lat":47.7978,"lng":13.0466,"major":true,"type":11,"startYear":-30,"endYear":640},{"id":"19","name":"Augusta Raurica","modern":"Augst","lat":47.5332,"lng":7.7223,"major":true,"type":11,"startYear":-330,"endYear":640},{"id":"24","name":"Aventicum","modern":"Avenches","lat":46.8803,"lng":7.0407,"major":true,"type":11,"startYear":-30,"endYear":640},{"id":"29","name":"Vesontio","modern":"Besançon","lat":47.2337,"lng":6.0304,"major":true,"type":11,"startYear":-330,"endYear":640},{"id":"30","name":"Andematunnum","modern":"Langres","lat":47.8642,"lng":5.3352,"major":true,"type":11,"startYear":-30,"endYear":640},{"id":"52","name":"Durocortorum","modern":"Reims","lat":49.2538,"lng":4.0339,"major":true,"type":11,"startYear":-330,"endYear":640,"greek":"Δουροκόττορον/Δουρικορτόρα"},{"id":"104","name":"Augusta Praetoria","modern":"Aosta","lat":45.7381,"lng":7.3178,"major":true,"type":11,"startYear":-30,"endYear":640},{"id":"105","name":"Lugdunum","modern":"Lyon","lat":45.7597,"lng":4.8198,"major":true,"type":11,"startYear":-550,"endYear":640,"greek":"Λούγδουνον"},{"id":"106","name":"Vienna","modern":"Vienne","lat":45.5242,"lng":4.8732,"major":true,"type":11,"startYear":-550,"endYear":640,"greek":"Οὐιέννη"},{"id":"117","name":"Augustodunum","modern":"Autun","lat":46.945,"lng":4.299,"major":true,"type":11,"startYear":-30,"endYear":640},{"id":"119","name":"Avaricum","modern":"Bourges","lat":47.0822,"lng":2.3992,"major":true,"type":11,"startYear":-330,"endYear":640},{"id":"120","name":"Cenabum","modern":"Orléans","lat":47.9019,"lng":1.9104,"major":true,"type":11,"startYear":-330,"endYear":640},{"id":"121","name":"Caesarodunum","modern":"Tours","lat":47.3956,"lng":0.6945,"major":true,"type":11,"startYear":-30,"endYear":640,"greek":"Καισαρόδουνον"},{"id":"123","name":"Iuliomagus","modern":"Angers","lat":47.4706,"lng":-0.555,"major":true,"type":11,"startYear":-30,"endYear":640},{"id":"142","name":"Augustonemetum","modern":"Clermont-Ferrand","lat":45.7787,"lng":3.0858,"major":true,"type":11,"startYear":-30,"endYear":640},{"id":"143","name":"Augustoritum","modern":"Limoges","lat":45.8289,"lng":1.2667,"major":true,"type":11,"startYear":-30,"endYear":640},{"id":"144","name":"Limonum","modern":"Poitiers","lat":46.5803,"lng":0.3493,"major":true,"type":11,"startYear":-330,"endYear":640},{"id":"145","name":"Mediolanum","modern":"Saintes","lat":45.7445,"lng":-0.6319,"major":true,"type":11,"startYear":-30,"endYear":640},{"id":"147","name":"Burdigala","modern":"Bordeaux","lat":44.8378,"lng":-0.5792,"major":true,"type":11,"startYear":-30,"endYear":640},{"id":"149","name":"Aginnum","modern":"Agen","lat":44.2068,"lng":0.6192,"major":true,"type":11,"startYear":-30,"endYear":640},{"id":"150","name":"Divona","modern":"Cahors","lat":44.4473,"lng":1.443,"major":true,"type":11,"startYear":-30,"endYear":640},{"id":"151","name":"Segodunum","modern":"Rodez","lat":44.3508,"lng":2.5741,"major":true,"type":11,"startYear":-330,"endYear":640},{"id":"153","name":"Tolosa","modern":"Toulouse","lat":43.6044,"lng":1.443,"major":true,"type":11,"startYear":-330,"endYear":640,"greek":"Τολῶσσα"},{"id":"156","name":"Narbo Martius","modern":"Narbonne","lat":43.1847,"lng":3.0036,"major":true,"type":11,"startYear":-750,"endYear":640,"greek":"Νάρβων"},{"id":"159","name":"Baeterrae","modern":"Béziers","lat":43.3416,"lng":3.2178,"major":true,"type":11,"startYear":-330,"endYear":640},{"id":"163","name":"Vesunna","modern":"Périgueux","lat":45.1835,"lng":0.7227,"major":true,"type":11,"startYear":-30,"endYear":640},{"id":"166","name":"Arausio","modern":"Orange","lat":44.138,"lng":4.8074,"major":true,"type":11,"startYear":-330,"endYear":640},{"id":"167","name":"Augusta Tricastinorum","modern":"Saint-Paul-Trois-Châteaux","lat":44.3495,"lng":4.7677,"major":true,"type":11,"startYear":-330,"endYear":640},{"id":"171","name":"Nemausus","modern":"Nîmes","lat":43.8384,"lng":4.3604,"major":true,"type":11,"startYear":-550,"endYear":640,"greek":"Νέμαυσος"},{"id":"173","name":"Arelate","modern":"Arles","lat":43.6759,"lng":4.6227,"major":true,"type":11,"startYear":-750,"endYear":640,"greek":"Ἀρελᾶτε"},{"id":"175","name":"Aquae Sextiae","modern":"Aix-en-Provence","lat":43.5319,"lng":5.4473,"major":true,"type":11,"startYear":-330,"endYear":640},{"id":"176","name":"Massalia","modern":"Marseille","lat":43.2995,"lng":5.3653,"major":true,"type":11,"startYear":-750,"endYear":640,"greek":"Μασσαλία"},{"id":"183","name":"Cemenelum","modern":"Cimiez","lat":43.719,"lng":7.2763,"major":true,"type":11,"startYear":-330,"endYear":640},{"id":"184","name":"Forum Iulii","modern":"Fréjus","lat":43.4332,"lng":6.7369,"major":true,"type":11,"startYear":-330,"endYear":640,"greek":"Φόρος Ἰούλιος"},{"id":"190","name":"Dea Vocontiorum","modern":"Die","lat":44.7522,"lng":5.371,"major":true,"type":11,"startYear":-330,"endYear":640},{"id":"191","name":"Valentia","modern":"Valence","lat":44.9316,"lng":4.8895,"major":true,"type":11,"startYear":-330,"endYear":640},{"id":"299","name":"Claudia Ara Agrippinensium","modern":"Köln","lat":50.9413,"lng":6.9582,"major":true,"type":11,"startYear":-30,"endYear":640,"greek":"Ἀγριππινηηνσίς"},{"id":"348","name":"Cambodunum","modern":"Kempten","lat":47.7276,"lng":10.3229,"major":true,"type":11,"startYear":-330,"endYear":640},{"id":"384","name":"Batavodurum","modern":"Nijmegen","lat":51.8481,"lng":5.8698,"major":true,"type":11,"startYear":-30,"endYear":640,"greek":"Βοταυόδουρον"},{"id":"395","name":"Lugdunum Convenarum","modern":"Saint-Bertrand-de-Comminges","lat":43.0267,"lng":0.5713,"major":true,"type":11,"startYear":-330,"endYear":640},{"id":"558","name":"Ulpia Traiana","modern":"Xanten","lat":51.6667,"lng":6.45,"major":true,"type":11,"startYear":-30,"endYear":640,"greek":"Τραινὴ/Τραιανή"},{"id":"1438","name":"Roma","modern":"Roma","lat":41.8926,"lng":12.4843,"major":true,"type":11,"startYear":-750,"endYear":640,"greek":"Ῥώμη"},{"id":"1439","name":"Verona","modern":"Verona","lat":45.4472,"lng":10.997,"major":true,"type":11,"startYear":-30,"endYear":640,"greek":"Οὐήρων"},{"id":"1445","name":"Mediolanium","modern":"Milano","lat":45.4637,"lng":9.1881,"major":true,"type":11,"startYear":-550,"endYear":640,"greek":"Μεδιόλανον/Μεδιολάνιον"},{"id":"1446","name":"Eporedia","modern":"Ivrea","lat":45.4681,"lng":7.8753,"major":true,"type":11,"startYear":-30,"endYear":640},{"id":"1448","name":"Parma","modern":"Parma","lat":44.8015,"lng":10.328,"major":true,"type":11,"startYear":-30,"endYear":640},{"id":"1449","name":"Bononia","modern":"Bologna","lat":44.4946,"lng":11.3418,"major":true,"type":11,"startYear":-750,"endYear":640},{"id":"1450","name":"Forum Iulii","modern":"Cividale del Friuli","lat":46.0931,"lng":13.4317,"major":true,"type":11,"startYear":-30,"endYear":640},{"id":"1452","name":"Ravenna","modern":"Ravenna","lat":44.4154,"lng":12.197,"major":true,"type":11,"startYear":-550,"endYear":640,"greek":"Ῥάυεννα"},{"id":"1453","name":"Florentia","modern":"Firenze","lat":43.7687,"lng":11.2569,"major":true,"type":11,"startYear":-30,"endYear":640,"greek":"Φλωρεντία"},{"id":"1454","name":"Ancona","modern":"Ancona","lat":43.6253,"lng":13.5103,"major":true,"type":11,"startYear":-550,"endYear":640,"greek":"Ἀγκών"},{"id":"1455","name":"Spoletium","modern":"Spoleto","lat":42.7353,"lng":12.7403,"major":true,"type":11,"startYear":-330,"endYear":640},{"id":"1457","name":"Casilinum","modern":"Capua","lat":41.1061,"lng":14.213,"major":true,"type":11,"startYear":-330,"endYear":640,"greek":"Κασιλῖνον"},{"id":"1461","name":"Vicetia","modern":"Vicenza","lat":45.5459,"lng":11.5403,"major":true,"type":11,"startYear":-750,"endYear":640,"greek":"Οὐικετία"},{"id":"1463","name":"Brixia","modern":"Brescia","lat":45.5398,"lng":10.2229,"major":true,"type":11,"startYear":-550,"endYear":640},{"id":"1465","name":"Bergomum","modern":"Bergamo","lat":45.6947,"lng":9.6687,"major":true,"type":11,"startYear":-550,"endYear":640},{"id":"1466","name":"Placentia","modern":"Piacenza","lat":45.0528,"lng":9.6966,"major":true,"type":11,"startYear":-30,"endYear":640,"greek":"Πλακεντία"},{"id":"1467","name":"Augusta Taurinorum","modern":"Torino","lat":45.0734,"lng":7.6854,"major":true,"type":11,"startYear":-30,"endYear":640},{"id":"1468","name":"Aquileia","modern":"Aquileia","lat":45.7696,"lng":13.3709,"major":true,"type":11,"startYear":-181,"endYear":640,"greek":"Ἀκυληία"},{"id":"1482","name":"Beneventum","modern":"Benevento","lat":41.1316,"lng":14.7743,"major":true,"type":11,"startYear":-330,"endYear":640,"greek":"Βενεουεντόν"},{"id":"1517","name":"Aesernia","modern":"Isernia","lat":41.5899,"lng":14.2267,"major":true,"type":11,"startYear":-330,"endYear":640},{"id":"1518","name":"Verulae","modern":"Veroli","lat":41.6905,"lng":13.4173,"major":true,"type":11,"startYear":-330,"endYear":640},{"id":"1519","name":"Luca","modern":"Lucca","lat":43.8407,"lng":10.506,"major":true,"type":11,"startYear":-330,"endYear":640},{"id":"1520","name":"Dertona","modern":"Tortona","lat":44.8972,"lng":8.8655,"major":true,"type":11,"startYear":-550,"endYear":640},{"id":"1521","name":"Vercellae","modern":"Vercelli","lat":45.321,"lng":8.4263,"major":true,"type":11,"startYear":-550,"endYear":640,"greek":"Οὐερκέλλοι/Οὐερκέλλαι"},{"id":"1522","name":"Tridentium","modern":"Trento","lat":46.0669,"lng":11.1215,"major":true,"type":11,"startYear":-330,"endYear":640},{"id":"1523","name":"Salernum","modern":"Salerno","lat":40.678,"lng":14.7659,"major":true,"type":11,"startYear":-330,"endYear":640,"greek":"Σάλερνον"},{"id":"1524","name":"Neapolis","modern":"Napoli","lat":40.8509,"lng":14.2581,"major":true,"type":11,"startYear":-750,"endYear":640,"greek":"Νέα πόλις/Νεάπολις"},{"id":"1525","name":"Venusia","modern":"Venosa","lat":40.9691,"lng":15.8274,"major":true,"type":11,"startYear":-330,"endYear":640,"greek":"Οὐενουσία"},{"id":"1527","name":"Reate","modern":"Rieti","lat":42.402,"lng":12.8589,"major":true,"type":11,"startYear":-550,"endYear":640},{"id":"1529","name":"Arae Flaviae","modern":"Rottweil","lat":48.1667,"lng":8.6279,"major":true,"type":11,"startYear":-30,"endYear":640},{"id":"1888","name":"Londinium","modern":"London","lat":51.5125,"lng":-0.0992,"major":true,"type":11,"startYear":-30,"endYear":640},{"id":"1889","name":"*Durovernum","modern":"Canterbury","lat":51.277,"lng":1.0784,"major":true,"type":11,"startYear":-30,"endYear":640},{"id":"2240","name":"*Argentomagus","modern":"Saint-Marcel","lat":46.5989,"lng":1.5165,"major":true,"type":11,"startYear":-30,"endYear":640},{"id":"2718","name":"Comum","modern":"Como","lat":45.812,"lng":9.0855,"major":true,"type":11,"startYear":-750,"endYear":640},{"id":"2720","name":"Mutina","modern":"Modena","lat":44.6471,"lng":10.9252,"major":true,"type":11,"startYear":-30,"endYear":640,"greek":"Μο[υ]τίνη"},{"id":"3123","name":"Ovilava","modern":"Wels","lat":48.1578,"lng":14.027,"major":true,"type":11,"startYear":40,"endYear":488},{"id":"5064","name":"Arretium","modern":"Arezzo","lat":43.4671,"lng":11.8834,"major":true,"type":11,"startYear":-750,"endYear":640,"greek":"Αρρέτιον"},{"id":"5472","name":"Byzantium","modern":"Istanbul","lat":41.0124,"lng":28.9759,"major":true,"type":11,"startYear":-750,"endYear":640,"greek":"Βυζάντιον"},{"id":"5537","name":"Novaria","modern":"Novara","lat":45.4457,"lng":8.6197,"major":true,"type":11,"startYear":-30,"endYear":640},{"id":"5543","name":"Cremona","modern":"Cremona","lat":45.1335,"lng":10.0261,"major":true,"type":11,"startYear":-30,"endYear":640,"greek":"Κρεμώνη"},{"id":"5544","name":"Volaterrae","modern":"Volterra","lat":43.4018,"lng":10.859,"major":true,"type":11,"startYear":-750,"endYear":640,"greek":"Οὐολατέρρα"},{"id":"5554","name":"Scarbantia","modern":"Sopron","lat":47.686,"lng":16.5914,"major":true,"type":11,"startYear":-30,"endYear":640},{"id":"5560","name":"Savaria","modern":"Szombathely","lat":47.2319,"lng":16.6167,"major":true,"type":11,"startYear":43,"endYear":640},{"id":"10898","name":"Aquincum","modern":"Aquincum","lat":47.5641,"lng":19.0495,"major":true,"type":11,"startYear":-30,"endYear":640},{"id":"5854","name":"Luna","modern":"Luni","lat":44.0643,"lng":10.0169,"major":true,"type":11,"startYear":-330,"endYear":640},{"id":"5890","name":"Pinna","modern":"Penne","lat":42.4562,"lng":13.9268,"major":true,"type":11,"startYear":-330,"endYear":640},{"id":"6534","name":"Barcino","modern":"Barcelona","lat":41.3829,"lng":2.177,"major":true,"type":11,"startYear":-30,"endYear":640},{"id":"6535","name":"Tarraco","modern":"Tarragona","lat":41.1177,"lng":1.257,"major":true,"type":11,"startYear":-550,"endYear":640,"greek":"Ταρράκων"},{"id":"6536","name":"Caesaraugusta","modern":"Zaragoza","lat":41.6521,"lng":-0.8779,"major":true,"type":11,"startYear":-30,"endYear":640},{"id":"6537","name":"Osca","modern":"Huesca","lat":42.1405,"lng":-0.4082,"major":true,"type":11,"startYear":-330,"endYear":640},{"id":"6538","name":"Ilerda","modern":"Lleida","lat":41.6148,"lng":0.6267,"major":true,"type":11,"startYear":-330,"endYear":640},{"id":"8024","name":"Ruscino","modern":"Château Roussillon","lat":42.7087,"lng":2.9452,"major":true,"type":11,"startYear":-750,"endYear":640,"greek":"Ῥουσκίνων"},{"id":"8039","name":"Albium Intimilium","modern":"Ventimiglia","lat":43.7892,"lng":7.6252,"major":true,"type":11,"startYear":-550,"endYear":640,"greek":"Ἄλβιον Ἰντεμέλιον"},{"id":"10347","name":"Remesiana","modern":"Bela Palanka","lat":43.218,"lng":22.3114,"major":true,"type":11,"startYear":-30,"endYear":640},{"id":"10562","name":"Ariminum","modern":"Rimini","lat":44.0596,"lng":12.5703,"major":true,"type":11,"startYear":-550,"endYear":640,"greek":"Ἀρίμινον"},{"id":"10564","name":"Pisaurum","modern":"Pesaro","lat":43.911,"lng":12.9146,"major":true,"type":11,"startYear":-550,"endYear":640},{"id":"10565","name":"Fanum Fortunae","modern":"Fano","lat":43.8443,"lng":13.0181,"major":true,"type":11,"startYear":-330,"endYear":640},{"id":"10567","name":"Album Ingaunum","modern":"Albenga","lat":44.0494,"lng":8.2133,"major":true,"type":11,"startYear":-550,"endYear":640},{"id":"10595","name":"Pisae","modern":"Pisa","lat":43.7194,"lng":10.4001,"major":true,"type":11,"startYear":-550,"endYear":640,"greek":"Πῖσα"},{"id":"10596","name":"Pistoriae","modern":"Pistoia","lat":43.9334,"lng":10.918,"major":true,"type":11,"startYear":-30,"endYear":640,"greek":"Πιστωρία"},{"id":"10609","name":"Faesulae","modern":"Fiesole","lat":43.8072,"lng":11.2925,"major":true,"type":11,"startYear":-750,"endYear":640},{"id":"10645","name":"Iulia Concordia","modern":"Concordia Sagittaria","lat":45.7559,"lng":12.8455,"major":true,"type":11,"startYear":-750,"endYear":640},{"id":"10647","name":"Patavium","modern":"Padova","lat":45.4096,"lng":11.8766,"major":true,"type":11,"startYear":-750,"endYear":640},{"id":"10670","name":"Teurnia","modern":"Sankt Peter in Holz","lat":46.8232,"lng":13.4437,"major":true,"type":11,"startYear":-30,"endYear":640,"greek":"Τεουρνία"},{"id":"10710","name":"Virunum","modern":"Zollfeld","lat":46.6979,"lng":14.367,"major":true,"type":11,"startYear":-30,"endYear":640},{"id":"10717","name":"Emona","modern":"Ljubljana","lat":46.0474,"lng":14.5011,"major":true,"type":11,"startYear":-330,"endYear":640},{"id":"10718","name":"Celeia","modern":"Celje","lat":46.231,"lng":15.2603,"major":true,"type":11,"startYear":-30,"endYear":640},{"id":"10719","name":"Poetovio","modern":"Ptuj","lat":46.42,"lng":15.87,"major":true,"type":11,"startYear":-30,"endYear":640},{"id":"10720","name":"Carnuntum","modern":"Petronell-Carnuntum","lat":48.1132,"lng":16.8617,"major":true,"type":11,"startYear":6,"endYear":400},{"id":"10734","name":"Neviodunum","modern":"Drnovo","lat":45.9174,"lng":15.4888,"major":true,"type":11,"startYear":-30,"endYear":640},{"id":"10735","name":"Tergeste","modern":"Trieste","lat":45.6472,"lng":13.7725,"major":true,"type":11,"startYear":-330,"endYear":640,"greek":"Τεργέστε"},{"id":"10738","name":"Sala","modern":"Zalalövő","lat":46.8457,"lng":16.5869,"major":true,"type":11,"startYear":-30,"endYear":640},{"id":"10769","name":"Flavia Solva","modern":"Wagna","lat":46.769,"lng":15.5687,"major":true,"type":11,"startYear":-30,"endYear":640},{"id":"10770","name":"Mursa","modern":"Osijek","lat":45.56,"lng":18.6759,"major":true,"type":11,"startYear":-30,"endYear":640},{"id":"10771","name":"Segestica","modern":"Sisak","lat":45.4843,"lng":16.3726,"major":true,"type":11,"startYear":-550,"endYear":640,"greek":"Σεγεστική"},{"id":"10779","name":"Aguntum","modern":"Dölsach","lat":46.8277,"lng":12.823,"major":true,"type":11,"startYear":-30,"endYear":640},{"id":"10783","name":"Mun. Vindobona","modern":"Wien","lat":48.1932,"lng":16.3911,"major":true,"type":11,"startYear":80,"endYear":300},{"id":"10847","name":"Gorsium","modern":"Tác","lat":47.0897,"lng":18.4203,"major":true,"type":11,"startYear":-30,"endYear":640},{"id":"10853","name":"Tricciana","modern":"Ságvár","lat":46.836,"lng":18.106,"major":true,"type":11,"startYear":-30,"endYear":640},{"id":"10854","name":"Sopianae","modern":"Pécs","lat":46.0713,"lng":18.2331,"major":true,"type":11,"startYear":-30,"endYear":640},{"id":"10861","name":"Aquae Balissae","modern":"Daruvar","lat":45.5937,"lng":17.224,"major":true,"type":11,"startYear":-30,"endYear":640},{"id":"10862","name":"Cibalae","modern":"Vinkovci","lat":45.291,"lng":18.801,"major":true,"type":11,"startYear":-30,"endYear":640},{"id":"10865","name":"Sirmium","modern":"Sremska Mitrovica","lat":44.9665,"lng":19.6102,"major":true,"type":11,"startYear":-30,"endYear":640,"greek":"Σίρμιον"},{"id":"10875","name":"Andautonia","modern":"Šćitarjevo","lat":45.7736,"lng":16.1172,"major":true,"type":11,"startYear":-30,"endYear":640},{"id":"10877","name":"Viminacium","modern":"Stari Kostolac","lat":44.7368,"lng":21.2161,"major":true,"type":11,"startYear":-30,"endYear":640},{"id":"10878","name":"Singidunum","modern":"Beograd","lat":44.8236,"lng":20.4503,"major":true,"type":11,"startYear":-30,"endYear":640},{"id":"10879","name":"Naissus","modern":"Niš","lat":43.3206,"lng":21.8927,"major":true,"type":11,"startYear":-30,"endYear":640},{"id":"10880","name":"Serdica","modern":"Sofia","lat":42.6976,"lng":23.3222,"major":true,"type":11,"startYear":-30,"endYear":640,"greek":"Σερδική"},{"id":"10896","name":"Bononia","modern":"Vidin","lat":43.9904,"lng":22.8816,"major":true,"type":11,"startYear":-30,"endYear":640},{"id":"10897","name":"Ratiaria","modern":"Archar","lat":43.8174,"lng":22.9049,"major":true,"type":11,"startYear":-30,"endYear":300},{"id":"10939","name":"Salona","modern":"Solin","lat":43.5381,"lng":16.4837,"major":true,"type":11,"startYear":-330,"endYear":640,"greek":"Σάλων/Σαλῶναι"},{"id":"10942","name":"Pola","modern":"Pula","lat":44.8703,"lng":13.8455,"major":true,"type":11,"startYear":-330,"endYear":640,"greek":"Πόλα/Πόλαι"},{"id":"10944","name":"Scardona","modern":"Skradin","lat":43.8179,"lng":15.923,"major":true,"type":11,"startYear":-330,"endYear":640,"greek":"Σκάρδων"},{"id":"10946","name":"Senia","modern":"Senj","lat":44.9906,"lng":14.9009,"major":true,"type":11,"startYear":-330,"endYear":640},{"id":"10948","name":"Scodra","modern":"Shkodër","lat":42.0464,"lng":19.4937,"major":true,"type":11,"startYear":-330,"endYear":640,"greek":"Σκόδρα"},{"id":"10961","name":"Dertosa","modern":"Tortosa","lat":40.8133,"lng":0.5229,"major":true,"type":11,"startYear":-330,"endYear":640},{"id":"10962","name":"Brundisium","modern":"Brindisi","lat":40.6411,"lng":17.9469,"major":true,"type":11,"startYear":-750,"endYear":640,"greek":"Βρενδέσιον/Βρεντήσιον"},{"id":"10975","name":"Athenae","modern":"Athína","lat":37.9717,"lng":23.7265,"major":true,"type":11,"startYear":-750,"endYear":640,"greek":"Ἀθῆναι"},{"id":"11053","name":"Auso","modern":"Vic","lat":41.9279,"lng":2.2548,"major":true,"type":11,"startYear":-330,"endYear":640},{"id":"11084","name":"Mogentiana","modern":"Tüskevár","lat":47.1193,"lng":17.3138,"major":true,"type":11,"startYear":-30,"endYear":640},{"id":"13848","name":"Bassiana","modern":"Donji Petrovci","lat":44.9707,"lng":19.9741,"major":true,"type":11,"startYear":-30,"endYear":640},{"id":"11881","name":"Tarsatica","modern":"Trsat","lat":45.3325,"lng":14.4554,"major":true,"type":11,"startYear":-330,"endYear":640},{"id":"12782","name":"Corduba","modern":"Córdoba","lat":37.8847,"lng":-4.7792,"major":true,"type":11,"startYear":-330,"endYear":640},{"id":"12826","name":"Saena","modern":"Siena","lat":43.3178,"lng":11.329,"major":true,"type":11,"startYear":-330,"endYear":640,"greek":"Σαίνα"},{"id":"12840","name":"Asisium","modern":"Assisi","lat":43.0714,"lng":12.6147,"major":true,"type":11,"startYear":-550,"endYear":640},{"id":"13018","name":"Aurelium Cananefatium","modern":"Voorburg","lat":52.0601,"lng":4.3492,"major":true,"type":11,"startYear":-30,"endYear":640},{"id":"13512","name":"Clusium","modern":"Chiusi","lat":43.0157,"lng":11.9491,"major":true,"type":11,"startYear":-750,"endYear":640},{"id":"13576","name":"Larinum","modern":"Larino","lat":41.8071,"lng":14.9192,"major":true,"type":11,"startYear":-750,"endYear":640,"greek":"Λάρινα"},{"id":"13695","name":"Bracara Augusta","modern":"Braga","lat":41.55,"lng":-8.427,"major":true,"type":11,"startYear":-30,"endYear":640},{"id":"13697","name":"Lucus Augusti","modern":"Lugo","lat":43.0092,"lng":-7.5582,"major":true,"type":11,"startYear":-330,"endYear":640},{"id":"13698","name":"Asturica Augusta","modern":"Astorga","lat":42.4589,"lng":-6.0635,"major":true,"type":11,"startYear":-30,"endYear":640},{"id":"13705","name":"Aeminium","modern":"Coimbra","lat":40.2076,"lng":-8.4262,"major":true,"type":11,"startYear":-30,"endYear":640},{"id":"16869","name":"Conimbriga","modern":"Condeixa-a-Velha","lat":40.0991,"lng":-8.4934,"major":true,"type":11,"startYear":-750,"endYear":640},{"id":"13709","name":"Toletum","modern":"Toledo","lat":39.8568,"lng":-4.0245,"major":true,"type":11,"startYear":-330,"endYear":640,"greek":"Τώλητον"},{"id":"13753","name":"Bassiana","modern":"Sárvár","lat":47.254,"lng":16.935,"major":true,"type":11,"startYear":-30,"endYear":640},{"id":"13756","name":"Volgum","modern":"Fenékpuszta","lat":46.7096,"lng":17.2465,"major":true,"type":11,"startYear":-30,"endYear":640},{"id":"13788","name":"Parentium","modern":"Poreč","lat":45.2286,"lng":13.5935,"major":true,"type":11,"startYear":-330,"endYear":640,"greek":"Πάρενθος"},{"id":"13857","name":"Iader","modern":"Zadar","lat":44.1155,"lng":15.2245,"major":true,"type":11,"startYear":-330,"endYear":640,"greek":"τὰ Διάδωρα"},{"id":"13861","name":"Metulum","modern":"Viničica","lat":45.209,"lng":15.3,"major":true,"type":11,"startYear":-330,"endYear":300},{"id":"13865","name":"Ortopla","modern":"Stinica","lat":44.7192,"lng":14.8924,"major":true,"type":11,"startYear":-330,"endYear":640},{"id":"13897","name":"Bistua Nova","modern":"Bugojno","lat":44.0536,"lng":17.4464,"major":true,"type":11,"startYear":-30,"endYear":640},{"id":"13898","name":"Delminium","modern":"Lib u Borčanima","lat":43.645,"lng":17.314,"major":true,"type":11,"startYear":-330,"endYear":640},{"id":"13900","name":"Splonum","modern":"Gor. Vrtače","lat":44.37,"lng":16.3903,"major":true,"type":11,"startYear":-30,"endYear":640,"greek":"Σπλαῦνον"},{"id":"13902","name":"Magnum","modern":"Balina Glavica","lat":43.8028,"lng":16.3008,"major":true,"type":11,"startYear":-330,"endYear":300},{"id":"13904","name":"Rider","modern":"Danilo Kraljice","lat":43.7034,"lng":16.0591,"major":true,"type":11,"startYear":-30,"endYear":640},{"id":"13907","name":"Burnum","modern":"Plavno Polje","lat":44.0189,"lng":16.0256,"major":true,"type":11,"startYear":-330,"endYear":640},{"id":"13913","name":"Aequum","modern":"Čitluk","lat":43.739,"lng":16.656,"major":true,"type":11,"startYear":-30,"endYear":640},{"id":"13914","name":"Pelva","modern":"Lištani","lat":43.8812,"lng":16.7701,"major":true,"type":11,"startYear":-30,"endYear":640},{"id":"13915","name":"Salvium","modern":"Vrba on Glamočko polje","lat":44.048,"lng":16.751,"major":true,"type":11,"startYear":-30,"endYear":640,"greek":"Σαλουία"},{"id":"13916","name":"Baloia","modern":"Šipovo","lat":44.2822,"lng":17.0831,"major":true,"type":11,"startYear":-30,"endYear":640},{"id":"13921","name":"Flanona","modern":"Plomin","lat":45.1382,"lng":14.1727,"major":true,"type":11,"startYear":-330,"endYear":640},{"id":"13927","name":"Narona","modern":"Vid","lat":43.0803,"lng":17.6281,"major":true,"type":11,"startYear":-30,"endYear":640,"greek":"Ναρῶνα"},{"id":"13932","name":"Diluntum","modern":"Stolac","lat":43.0804,"lng":17.956,"major":true,"type":11,"startYear":-330,"endYear":640},{"id":"13933","name":"Epidaurum","modern":"Cavtat","lat":42.5814,"lng":18.2173,"major":true,"type":11,"startYear":-550,"endYear":300},{"id":"14073","name":"Sutrium","modern":"Sutri","lat":42.2412,"lng":12.2263,"major":true,"type":11,"startYear":-550,"endYear":640},{"id":"14305","name":"Augusta Emerita","modern":"Mérida","lat":38.9159,"lng":-6.3456,"major":true,"type":11,"startYear":-30,"endYear":640},{"id":"15297","name":"Firmum Picenum","modern":"Fermo","lat":43.1611,"lng":13.7168,"major":true,"type":11,"startYear":-750,"endYear":640},{"id":"15896","name":"Ierusalem","modern":"Jerusalem","lat":31.7767,"lng":35.2342,"major":true,"type":11,"startYear":-330,"endYear":640,"greek":"Ἱεροσόλυμα"},{"id":"16812","name":"Aesis","modern":"Jesi","lat":43.5249,"lng":13.2462,"major":true,"type":11,"startYear":-330,"endYear":640},{"id":"15897","name":"Carthago","modern":"Carthago","lat":36.8531,"lng":10.3231,"major":true,"type":11,"startYear":-750,"endYear":640,"greek":"Καρχηδών"},{"id":"15898","name":"Alexandria","modern":"Alexandria","lat":31.1954,"lng":29.9041,"major":true,"type":11,"startYear":-330,"endYear":640,"greek":"Ἀλεξάνδρεια"},{"id":"15960","name":"Ostia","modern":"Ostia Antica","lat":41.7549,"lng":12.2877,"major":true,"type":11,"startYear":-750,"endYear":640,"greek":"Ὤστια"},{"id":"15969","name":"Sena Gallica","modern":"Senigallia","lat":43.7123,"lng":13.2184,"major":true,"type":11,"startYear":-330,"endYear":640},{"id":"16028","name":"Amiternum","modern":"San Vittorino Amiterno","lat":42.402,"lng":13.3088,"major":true,"type":11,"startYear":-330,"endYear":640},{"id":"16105","name":"Interamnia Praetuttiorum","modern":"Teramo","lat":42.6588,"lng":13.7056,"major":true,"type":11,"startYear":-750,"endYear":640},{"id":"16123","name":"Horta","modern":"Orte","lat":42.4603,"lng":12.3864,"major":true,"type":11,"startYear":-550,"endYear":640},{"id":"16130","name":"Velitrae","modern":"Velletri","lat":41.6874,"lng":12.7772,"major":true,"type":11,"startYear":-750,"endYear":640,"greek":"Οὐελίτραι"},{"id":"16177","name":"Carales","modern":"Cagliari","lat":39.2187,"lng":9.117,"major":true,"type":11,"startYear":-750,"endYear":640,"greek":"Κάραλίς"},{"id":"16458","name":"Chersonesos","modern":"Cherson","lat":44.6109,"lng":33.4923,"major":true,"type":11,"startYear":-750,"endYear":640,"greek":"Χερσόνησος"},{"id":"16556","name":"Rhegion","modern":"Reggio di Calabria","lat":38.1093,"lng":15.6439,"major":true,"type":11,"startYear":-750,"endYear":640,"greek":"Ῥήγιον"},{"id":"16562","name":"Taras","modern":"Taranto","lat":40.476,"lng":17.2286,"major":true,"type":11,"startYear":-750,"endYear":640,"greek":"Τάρᾱς"},{"id":"16564","name":"Luceria","modern":"Lucera","lat":41.5081,"lng":15.3351,"major":true,"type":11,"startYear":-550,"endYear":640,"greek":"Λουκερία"},{"id":"16570","name":"Syracusae","modern":"Siracusa","lat":37.0596,"lng":15.2938,"major":true,"type":11,"startYear":-750,"endYear":640,"greek":"Συράκουσαι"},{"id":"16574","name":"Saepinum","modern":"Altilia","lat":41.4332,"lng":14.6184,"major":true,"type":11,"startYear":-550,"endYear":640,"greek":"Σαίπινον"},{"id":"16575","name":"Bovianum","modern":"Bojano","lat":41.482,"lng":14.4726,"major":true,"type":11,"startYear":-330,"endYear":640},{"id":"16578","name":"Tuder","modern":"Todi","lat":42.7803,"lng":12.4085,"major":true,"type":11,"startYear":-550,"endYear":640},{"id":"16579","name":"Ameria","modern":"Amelia","lat":42.5572,"lng":12.4134,"major":true,"type":11,"startYear":-750,"endYear":640},{"id":"16580","name":"Perusia","modern":"Perugia","lat":43.1117,"lng":12.3906,"major":true,"type":11,"startYear":-750,"endYear":640,"greek":"Περουσία"},{"id":"16582","name":"Camerinum","modern":"Camerino","lat":43.1343,"lng":13.0669,"major":true,"type":11,"startYear":-550,"endYear":640},{"id":"16583","name":"Volsinii Veteres","modern":"Orvieto","lat":42.717,"lng":12.1136,"major":true,"type":11,"startYear":-750,"endYear":640},{"id":"16589","name":"Sipous","modern":"Siponto","lat":41.6085,"lng":15.8898,"major":true,"type":11,"startYear":-330,"endYear":300,"greek":"Σιποῦς"},{"id":"16606","name":"Arpinum","modern":"Arpino","lat":41.6484,"lng":13.6099,"major":true,"type":11,"startYear":-750,"endYear":640,"greek":"Ἀρπίνη"},{"id":"16629","name":"Tuscana","modern":"Tuscania","lat":42.4128,"lng":11.8784,"major":true,"type":11,"startYear":-750,"endYear":640,"greek":"Τυρρηνία/Τυρρηνή"},{"id":"16631","name":"Tifernum Tiberinum","modern":"Città di Castello","lat":43.4567,"lng":12.2381,"major":true,"type":11,"startYear":-330,"endYear":640},{"id":"16677","name":"Chalcedon","modern":"Kadıköy","lat":40.9834,"lng":29.0258,"major":true,"type":11,"startYear":-750,"endYear":640},{"id":"16679","name":"Hispalis","modern":"Sevilla","lat":37.3858,"lng":-5.9931,"major":true,"type":11,"startYear":-750,"endYear":640},{"id":"16692","name":"Sarsina","modern":"Sarsina","lat":43.9189,"lng":12.1436,"major":true,"type":11,"startYear":-550,"endYear":640,"greek":"Σάρσινα"},{"id":"16693","name":"Populonia","modern":"Populonia","lat":42.9881,"lng":10.4897,"major":true,"type":11,"startYear":-750,"endYear":640,"greek":"Ποπλώνιον"},{"id":"16694","name":"Rusellae","modern":"Roselle","lat":42.8276,"lng":11.1596,"major":true,"type":11,"startYear":-750,"endYear":640},{"id":"16695","name":"Visentium","modern":"Monte Bisenzio","lat":42.5733,"lng":11.8741,"major":true,"type":11,"startYear":-750,"endYear":300},{"id":"16696","name":"Volsinii","modern":"Bolsena","lat":42.6503,"lng":11.9902,"major":true,"type":11,"startYear":-330,"endYear":640},{"id":"16697","name":"Vettona","modern":"Bettona","lat":43.0139,"lng":12.4854,"major":true,"type":11,"startYear":-330,"endYear":640},{"id":"16698","name":"Arna","modern":"Civitella d'Arno","lat":43.1278,"lng":12.4855,"major":true,"type":11,"startYear":-550,"endYear":640},{"id":"16699","name":"Mevania","modern":"Bevagna","lat":42.9349,"lng":12.6094,"major":true,"type":11,"startYear":-330,"endYear":640},{"id":"16700","name":"Plestia","modern":"Pistia","lat":43.0303,"lng":12.9038,"major":true,"type":11,"startYear":-330,"endYear":640},{"id":"16701","name":"Tifernum Mataurense","modern":"Sant'Angelo in Vado","lat":43.6666,"lng":12.4117,"major":true,"type":11,"startYear":-330,"endYear":640},{"id":"16702","name":"Pitinum Pisaurense","modern":"Macerata Feltria","lat":43.8017,"lng":12.4325,"major":true,"type":11,"startYear":-30,"endYear":640},{"id":"16705","name":"Tarquinii","modern":"Tarquinia","lat":42.2595,"lng":11.8032,"major":true,"type":11,"startYear":-750,"endYear":640},{"id":"16707","name":"Blera","modern":"Blera","lat":42.2791,"lng":12.0236,"major":true,"type":11,"startYear":-750,"endYear":640},{"id":"16708","name":"Caere","modern":"Cerveteri","lat":42.0077,"lng":12.1054,"major":true,"type":11,"startYear":-750,"endYear":640,"greek":"Καιρέα/Ἄγυλλα"},{"id":"16710","name":"Portus","modern":"Portus","lat":41.7799,"lng":12.2626,"major":true,"type":11,"startYear":-30,"endYear":640},{"id":"16711","name":"Antium","modern":"Anzio","lat":41.4552,"lng":12.6286,"major":true,"type":11,"startYear":-750,"endYear":640,"greek":"Ἄντιον"},{"id":"16712","name":"Tarracinae","modern":"Terracina","lat":41.2912,"lng":13.2489,"major":true,"type":11,"startYear":-550,"endYear":640,"greek":"Ταρρακῖνα"},{"id":"16713","name":"Fundi","modern":"Fondi","lat":41.3574,"lng":13.4279,"major":true,"type":11,"startYear":-330,"endYear":640},{"id":"16714","name":"Minturnae","modern":"Minturno","lat":41.242,"lng":13.7682,"major":true,"type":11,"startYear":-330,"endYear":640,"greek":"Μιντοῦρναι"},{"id":"16715","name":"Suessa Aurunca","modern":"Sessa Aurunca","lat":41.2346,"lng":13.9307,"major":true,"type":11,"startYear":-750,"endYear":640},{"id":"16716","name":"Formiae","modern":"Formia","lat":41.2564,"lng":13.6059,"major":true,"type":11,"startYear":-330,"endYear":640,"greek":"Ὁρμίαι/Φορμίαι"},{"id":"16719","name":"Cumae","modern":"Cuma","lat":40.8488,"lng":14.054,"major":true,"type":11,"startYear":-750,"endYear":640,"greek":"Κύμη/Κύμαι/Κύμα"},{"id":"16720","name":"Misenum","modern":"Miseno","lat":40.7863,"lng":14.0849,"major":true,"type":11,"startYear":-30,"endYear":640,"greek":"Μισηνὸς"},{"id":"16721","name":"Puteoli","modern":"Pozzuoli","lat":40.828,"lng":14.1219,"major":true,"type":11,"startYear":-750,"endYear":640,"greek":"Ποτίολοι/Δικαιάρχεια/Δικαιαρχία"},{"id":"16725","name":"Nuceria Alfaterna","modern":"Nocera","lat":40.7473,"lng":14.6389,"major":true,"type":11,"startYear":-750,"endYear":640,"greek":"Νουκερία ἡ Ἀλφατέρνα/Νουκρία"},{"id":"16726","name":"Paestum","modern":"Paestum","lat":40.4214,"lng":15.0051,"major":true,"type":11,"startYear":-750,"endYear":300,"greek":"Ποσειδωνία/Ποσειδωνιάς/Παιστός/Παῖστον"},{"id":"16728","name":"Velia","modern":"Castellammare di Velia","lat":40.1604,"lng":15.1573,"major":true,"type":11,"startYear":-750,"endYear":300,"greek":"Ἐλέα/Ὑέλη"},{"id":"16733","name":"Hipponion","modern":"Vibo Valentia","lat":38.6712,"lng":16.1083,"major":true,"type":11,"startYear":-550,"endYear":300,"greek":"Οὐιβῶνα Οὐαλεντία/Ἱππώνιον"},{"id":"16737","name":"Lokroi Epizephyrioi","modern":"Locri","lat":38.2078,"lng":16.2372,"major":true,"type":11,"startYear":-750,"endYear":300,"greek":"Λοκροὶ Επιζεφύριοι"},{"id":"16739","name":"Croton","modern":"Crotone","lat":39.0816,"lng":17.1289,"major":true,"type":11,"startYear":-750,"endYear":640,"greek":"Κρότων"},{"id":"16740","name":"Sybaris","modern":"Sibari","lat":39.7171,"lng":16.4928,"major":true,"type":11,"startYear":-750,"endYear":640,"greek":"Σύβαρις/Θούριοι"},{"id":"16741","name":"Grumentum","modern":"Spineta","lat":40.2855,"lng":15.9072,"major":true,"type":11,"startYear":-750,"endYear":640},{"id":"16743","name":"Potentia","modern":"Potenza","lat":40.6379,"lng":15.8012,"major":true,"type":11,"startYear":-330,"endYear":640},{"id":"16747","name":"Canusium","modern":"Canosa di Puglia","lat":41.2204,"lng":16.0652,"major":true,"type":11,"startYear":-750,"endYear":640,"greek":"Κανύσιον"},{"id":"16754","name":"Aufidena","modern":"Castel di Sangro","lat":41.7863,"lng":14.1092,"major":true,"type":11,"startYear":-330,"endYear":640},{"id":"16755","name":"Sulmo","modern":"Sulmona","lat":42.0468,"lng":13.9256,"major":true,"type":11,"startYear":-330,"endYear":640,"greek":"Σουλμῶν"},{"id":"16756","name":"Corfinium","modern":"Corfinio","lat":42.1211,"lng":13.841,"major":true,"type":11,"startYear":-330,"endYear":640,"greek":"Κορφίνιον"},{"id":"16757","name":"Hortona","modern":"Ortona","lat":42.3573,"lng":14.4045,"major":true,"type":11,"startYear":-330,"endYear":640},{"id":"16758","name":"Teate","modern":"Chieti","lat":42.3515,"lng":14.167,"major":true,"type":11,"startYear":-550,"endYear":640},{"id":"16761","name":"Nola","modern":"Nola","lat":40.9278,"lng":14.5205,"major":true,"type":11,"startYear":-750,"endYear":640,"greek":"Νῶλα"},{"id":"16762","name":"Atella","modern":"Sant'Arpino","lat":40.9611,"lng":14.2589,"major":true,"type":11,"startYear":-330,"endYear":640},{"id":"16765","name":"Allifae","modern":"Alife","lat":41.3286,"lng":14.3306,"major":true,"type":11,"startYear":-330,"endYear":640},{"id":"16766","name":"Kupelternum","modern":"San Ferrante","lat":41.2634,"lng":14.3387,"major":true,"type":11,"startYear":-550,"endYear":640},{"id":"16767","name":"Venafrum","modern":"Venafro","lat":41.4846,"lng":14.0461,"major":true,"type":11,"startYear":-330,"endYear":640,"greek":"Οὐέναφρον"},{"id":"16768","name":"Teanum Sidicinum","modern":"Teano","lat":41.2482,"lng":14.0726,"major":true,"type":11,"startYear":-550,"endYear":640,"greek":"Τεάνον Σιδικινόν"},{"id":"16769","name":"Casinum","modern":"Cassino","lat":41.4831,"lng":13.8222,"major":true,"type":11,"startYear":-330,"endYear":640},{"id":"16770","name":"Aquinum","modern":"Aquino","lat":41.4925,"lng":13.6991,"major":true,"type":11,"startYear":-330,"endYear":640},{"id":"16771","name":"Ferentinum","modern":"Ferentino","lat":41.691,"lng":13.2536,"major":true,"type":11,"startYear":-330,"endYear":640},{"id":"16772","name":"Anagnia","modern":"Anagni","lat":41.7422,"lng":13.159,"major":true,"type":11,"startYear":-750,"endYear":640},{"id":"16773","name":"Aletrium","modern":"Alatri","lat":41.7248,"lng":13.344,"major":true,"type":11,"startYear":-330,"endYear":640},{"id":"16776","name":"Praeneste","modern":"Palestrina","lat":41.8391,"lng":12.8921,"major":true,"type":11,"startYear":-750,"endYear":640,"greek":"Πραίνεστος"},{"id":"16777","name":"Tibur","modern":"Tivoli","lat":41.9657,"lng":12.7971,"major":true,"type":11,"startYear":-750,"endYear":640,"greek":"Τιβούρ/Τίβουρα"},{"id":"16778","name":"Treba","modern":"Trevi nel Lazio","lat":41.8625,"lng":13.2487,"major":true,"type":11,"startYear":-330,"endYear":640},{"id":"16781","name":"Aveia","modern":"Fossa","lat":42.2928,"lng":13.4883,"major":true,"type":11,"startYear":-330,"endYear":640},{"id":"16782","name":"Aufinum","modern":"Ofena","lat":42.3269,"lng":13.7597,"major":true,"type":11,"startYear":-330,"endYear":640},{"id":"16784","name":"Cures","modern":"Santa Maria in Arci","lat":42.1845,"lng":12.6806,"major":true,"type":11,"startYear":-750,"endYear":640},{"id":"16790","name":"Falerii Veteres","modern":"Civita Castellana","lat":42.2911,"lng":12.4146,"major":true,"type":11,"startYear":-750,"endYear":640},{"id":"16788","name":"Nepet","modern":"Nepi","lat":42.243,"lng":12.3476,"major":true,"type":11,"startYear":-750,"endYear":640},{"id":"16789","name":"Falerii","modern":"Santa Maria di Falleri","lat":42.2997,"lng":12.3595,"major":true,"type":11,"startYear":-330,"endYear":640},{"id":"16791","name":"Ocriculum","modern":"Otricoli","lat":42.4136,"lng":12.4663,"major":true,"type":11,"startYear":-750,"endYear":640},{"id":"16792","name":"Nequinum","modern":"Narni","lat":42.5176,"lng":12.5156,"major":true,"type":11,"startYear":-550,"endYear":640},{"id":"16793","name":"Interamna Nahars","modern":"Terni","lat":42.5604,"lng":12.6433,"major":true,"type":11,"startYear":-750,"endYear":640},{"id":"16794","name":"Nursia","modern":"Norcia","lat":42.7918,"lng":13.0928,"major":true,"type":11,"startYear":-550,"endYear":640},{"id":"16795","name":"Trebiae","modern":"Trevi","lat":42.8778,"lng":12.7463,"major":true,"type":11,"startYear":-330,"endYear":640},{"id":"16796","name":"Fulginiae","modern":"Foligno","lat":42.9539,"lng":12.7175,"major":true,"type":11,"startYear":-330,"endYear":640},{"id":"16798","name":"Hispellum","modern":"Spello","lat":42.9909,"lng":12.6718,"major":true,"type":11,"startYear":-330,"endYear":640},{"id":"16799","name":"Hatria","modern":"Atri","lat":42.5804,"lng":13.9787,"major":true,"type":11,"startYear":-750,"endYear":640,"greek":"Ἀδρία"},{"id":"16800","name":"Asculum","modern":"Ascoli Piceno","lat":42.8554,"lng":13.575,"major":true,"type":11,"startYear":-550,"endYear":640,"greek":"Ἄσκουλον"},{"id":"16802","name":"Urbs Salvia","modern":"Urbisaglia","lat":43.1979,"lng":13.3857,"major":true,"type":11,"startYear":-30,"endYear":640},{"id":"16803","name":"Septempeda","modern":"San Severino Marche","lat":43.2365,"lng":13.1974,"major":true,"type":11,"startYear":-330,"endYear":640},{"id":"16805","name":"Matilica","modern":"Matelica","lat":43.255,"lng":13.0116,"major":true,"type":11,"startYear":-330,"endYear":640},{"id":"16806","name":"Tadinae","modern":"Sant'Antonio di Rasina","lat":43.2116,"lng":12.7673,"major":true,"type":11,"startYear":-550,"endYear":640},{"id":"16807","name":"Iguvium","modern":"Gubbio","lat":43.3555,"lng":12.5734,"major":true,"type":11,"startYear":-550,"endYear":640},{"id":"16808","name":"Pausulae","modern":"San Claudio","lat":43.2841,"lng":13.5166,"major":true,"type":11,"startYear":-330,"endYear":640},{"id":"16811","name":"Auximum","modern":"Osimo","lat":43.4865,"lng":13.4769,"major":true,"type":11,"startYear":-550,"endYear":640},{"id":"16813","name":"Ostra","modern":"Le Muracce","lat":43.5842,"lng":13.0858,"major":true,"type":11,"startYear":-330,"endYear":640},{"id":"16814","name":"Cingulum","modern":"Cingoli","lat":43.3741,"lng":13.2163,"major":true,"type":11,"startYear":-330,"endYear":640},{"id":"16815","name":"Urvinum Mataurense","modern":"Urbino","lat":43.725,"lng":12.6364,"major":true,"type":11,"startYear":-330,"endYear":640,"greek":"Οὐρβῖνον"},{"id":"16816","name":"Pitinum Mergens","modern":"Piano di Valeria","lat":43.614,"lng":12.6274,"major":true,"type":11,"startYear":-30,"endYear":640},{"id":"16818","name":"Calagurris Nasica Iulia","modern":"Calahorra","lat":42.3015,"lng":-1.9611,"major":true,"type":11,"startYear":-330,"endYear":640},{"id":"16823","name":"Valentia","modern":"Valencia","lat":39.4753,"lng":-0.3756,"major":true,"type":11,"startYear":-330,"endYear":640},{"id":"16824","name":"Ilici","modern":"Alcúdia","lat":38.2393,"lng":-0.6953,"major":true,"type":11,"startYear":-750,"endYear":640},{"id":"16825","name":"Begastrum","modern":"Cehegín","lat":38.0875,"lng":-1.7721,"major":true,"type":11,"startYear":-30,"endYear":640},{"id":"16826","name":"Carthago Nova","modern":"Cartagena","lat":37.5999,"lng":-0.9845,"major":true,"type":11,"startYear":-330,"endYear":640,"greek":"Καρχηδὼν"},{"id":"16830","name":"Abdera","modern":"Cerro de Montecristo","lat":36.7512,"lng":-3.0091,"major":true,"type":11,"startYear":-750,"endYear":640},{"id":"16831","name":"Iliberri","modern":"Granada","lat":37.1765,"lng":-3.5979,"major":true,"type":11,"startYear":-330,"endYear":640},{"id":"16832","name":"Malaca","modern":"Málaga","lat":36.7196,"lng":-4.42,"major":true,"type":11,"startYear":-750,"endYear":640,"greek":"Μαλάκη"},{"id":"16834","name":"Italica","modern":"Santiponce","lat":37.4414,"lng":-6.0434,"major":true,"type":11,"startYear":-330,"endYear":640},{"id":"16836","name":"Ossonoba","modern":"Faro","lat":37.0154,"lng":-7.9351,"major":true,"type":11,"startYear":-750,"endYear":640},{"id":"16838","name":"Ebora","modern":"Évora","lat":38.5726,"lng":-7.9074,"major":true,"type":11,"startYear":-30,"endYear":640},{"id":"16839","name":"Olisipo","modern":"Lisboa","lat":38.71,"lng":-9.1337,"major":true,"type":11,"startYear":-750,"endYear":640,"greek":"Ὀλιοσείπων/Ὀλυσιπών"},{"id":"16841","name":"Castulo","modern":"Cástulo","lat":38.0358,"lng":-3.6236,"major":true,"type":11,"startYear":-550,"endYear":640,"greek":"Κασταλῶν"},{"id":"16843","name":"Tucci","modern":"Martos","lat":37.7228,"lng":-3.9663,"major":true,"type":11,"startYear":-330,"endYear":640},{"id":"16844","name":"Igabrum","modern":"Cabra","lat":37.4712,"lng":-4.4475,"major":true,"type":11,"startYear":-30,"endYear":640},{"id":"16845","name":"Astigi","modern":"Écija","lat":37.5409,"lng":-5.08,"major":true,"type":11,"startYear":-330,"endYear":640},{"id":"16846","name":"Dianium","modern":"Dénia","lat":38.8428,"lng":0.1071,"major":true,"type":11,"startYear":-550,"endYear":640},{"id":"16847","name":"Valeria","modern":"Valera de Arriba","lat":39.8092,"lng":-2.1502,"major":true,"type":11,"startYear":-330,"endYear":640},{"id":"23821","name":"Mantua","modern":"Coto la Cepilla (Perales de Milla)","lat":40.3888,"lng":-4.0726,"major":true,"type":11,"startYear":-30,"endYear":640},{"id":"16850","name":"Segovia","modern":"Segovia","lat":40.9501,"lng":-4.1264,"major":true,"type":11,"startYear":-330,"endYear":640},{"id":"16865","name":"Salmantica","modern":"Salamanca","lat":40.965,"lng":-5.663,"major":true,"type":11,"startYear":-750,"endYear":640,"greek":"Σαλμάντικα/Σαλμαντίς/Ἑλμαντική"},{"id":"16868","name":"*Igaeditania","modern":"Idanha-a-Velha","lat":39.9966,"lng":-7.144,"major":true,"type":11,"startYear":-330,"endYear":640},{"id":"16874","name":"Tauromenium","modern":"Taormina","lat":37.8523,"lng":15.2921,"major":true,"type":11,"startYear":-550,"endYear":640,"greek":"Ταυρομένιον"},{"id":"16875","name":"Zancle","modern":"Messina","lat":38.1923,"lng":15.5555,"major":true,"type":11,"startYear":-750,"endYear":640,"greek":"Ζάγκλη/Μεσσάνα/Μεσσήνη"},{"id":"16876","name":"Tyndaris","modern":"Tindari","lat":38.1436,"lng":15.0431,"major":true,"type":11,"startYear":-550,"endYear":640,"greek":"Τυνδαρίς"},{"id":"16878","name":"Thermae Himeraeae","modern":"Termini Imerese","lat":37.9874,"lng":13.6972,"major":true,"type":11,"startYear":-550,"endYear":640,"greek":"Θερμαί Ἱμεραίαι"},{"id":"16879","name":"Panhormus","modern":"Palermo","lat":38.1156,"lng":13.3614,"major":true,"type":11,"startYear":-750,"endYear":640,"greek":"Πάνορμος"},{"id":"16881","name":"Lilybaeum","modern":"Capo Boeo","lat":37.7991,"lng":12.4342,"major":true,"type":11,"startYear":-750,"endYear":640,"greek":"Λιλύβαιον/Λιλύβη"},{"id":"16882","name":"Akragas","modern":"Agrigento","lat":37.2918,"lng":13.5859,"major":true,"type":11,"startYear":-750,"endYear":640,"greek":"Ἀκράγας"},{"id":"16883","name":"Leontini","modern":"Lentini","lat":37.2798,"lng":15.003,"major":true,"type":11,"startYear":-750,"endYear":300,"greek":"Λεόντιον/Λεοντῖνοι"},{"id":"16884","name":"Katane","modern":"Catania","lat":37.5025,"lng":15.0878,"major":true,"type":11,"startYear":-750,"endYear":300,"greek":"Κατάνη"},{"id":"16885","name":"Liparae","modern":"Lipari","lat":38.4671,"lng":14.9537,"major":true,"type":11,"startYear":-750,"endYear":640},{"id":"16886","name":"Sulcis","modern":"Sant'Antioco","lat":39.0713,"lng":8.4529,"major":true,"type":11,"startYear":-750,"endYear":640,"greek":"Σύλκοι"},{"id":"16888","name":"Turris Libisonis","modern":"Porto Torres","lat":40.8376,"lng":8.3965,"major":true,"type":11,"startYear":-330,"endYear":640,"greek":"Πύργος Λιβίσωνος"},{"id":"16889","name":"Olbia","modern":"Olbia","lat":40.923,"lng":9.5004,"major":true,"type":11,"startYear":-330,"endYear":640,"greek":"Ὀλβία"},{"id":"16893","name":"Alalie","modern":"Aléria","lat":42.1027,"lng":9.5091,"major":true,"type":11,"startYear":-750,"endYear":640,"greek":"Ἀλαλίη/Ἀλερία/Ἀλαλίη"},{"id":"16896","name":"Doclea","modern":"Duklja","lat":42.4684,"lng":19.2656,"major":true,"type":11,"startYear":-30,"endYear":640},{"id":"16897","name":"Lupiae","modern":"Lecce","lat":40.3517,"lng":18.1694,"major":true,"type":11,"startYear":-330,"endYear":640},{"id":"16902","name":"Dyrrachion","modern":"Durrës","lat":41.315,"lng":19.4459,"major":true,"type":11,"startYear":-750,"endYear":640,"greek":"Δυρράχιον/Ἐπίδαμνος"},{"id":"22251","name":"Eleutherna","modern":"Prines","lat":35.3329,"lng":24.6753,"major":true,"type":11,"startYear":-750,"endYear":640},{"id":"16906","name":"Saetabis","modern":"Xàtiva","lat":38.9888,"lng":-0.5156,"major":true,"type":11,"startYear":-330,"endYear":640},{"id":"17026","name":"Bergoule","modern":"Lüleburgaz","lat":41.4162,"lng":27.3612,"major":true,"type":11,"startYear":-30,"endYear":640},{"id":"17068","name":"Thessalonica","modern":"Thessaloniki","lat":40.6303,"lng":22.9496,"major":true,"type":11,"startYear":-750,"endYear":640,"greek":"Θεσσαλονίκη"},{"id":"17070","name":"Korinthos","modern":"Korinthos","lat":37.906,"lng":22.8787,"major":true,"type":11,"startYear":-750,"endYear":640,"greek":"Κόρινθος"},{"id":"17075","name":"Mytilene","modern":"Mitiline","lat":39.1105,"lng":26.547,"major":true,"type":11,"startYear":-750,"endYear":640,"greek":"Μυτιλήνη"},{"id":"17230","name":"Sentinum","modern":"Sassoferrato","lat":43.4218,"lng":12.853,"major":true,"type":11,"startYear":-550,"endYear":640,"greek":"Σέντινον"},{"id":"17231","name":"Cales","modern":"Cagli","lat":43.5468,"lng":12.6485,"major":true,"type":11,"startYear":-550,"endYear":640},{"id":"17233","name":"Nuceria","modern":"Nocera Umbra","lat":43.1098,"lng":12.7904,"major":true,"type":11,"startYear":-330,"endYear":640},{"id":"17237","name":"Carsulae","modern":"San Damiano","lat":42.6398,"lng":12.5568,"major":true,"type":11,"startYear":-330,"endYear":640},{"id":"17253","name":"Alsium","modern":"Palo","lat":41.9337,"lng":12.1023,"major":true,"type":11,"startYear":-750,"endYear":640,"greek":"Ἄλσιον"},{"id":"17254","name":"Pyrgi","modern":"Santa Severa","lat":42.0153,"lng":11.9629,"major":true,"type":11,"startYear":-750,"endYear":640,"greek":"Πύργοι"},{"id":"17839","name":"Altinum","modern":"Altino","lat":45.5462,"lng":12.3994,"major":true,"type":11,"startYear":-550,"endYear":640},{"id":"17965","name":"Aenona","modern":"Nin","lat":44.2437,"lng":15.1853,"major":true,"type":11,"startYear":-330,"endYear":640},{"id":"18301","name":"Emporiae","modern":"Empúries","lat":42.1329,"lng":3.1171,"major":true,"type":11,"startYear":-575,"endYear":640,"greek":"Ἐμπόριον"},{"id":"18310","name":"Saguntum","modern":"Sagunto","lat":39.6762,"lng":-0.2759,"major":true,"type":11,"startYear":-550,"endYear":640,"greek":"Ζάκανθα/Σάγουντος"},{"id":"18345","name":"Scallabis","modern":"Santarém","lat":39.2339,"lng":-8.677,"major":true,"type":11,"startYear":-750,"endYear":640},{"id":"18348","name":"Salacia Imperatoria","modern":"Alcácer do Sal","lat":38.3727,"lng":-8.5117,"major":true,"type":11,"startYear":-750,"endYear":300},{"id":"18364","name":"Ocelum Duri","modern":"Zamora","lat":41.4991,"lng":-5.7546,"major":true,"type":11,"startYear":-30,"endYear":640},{"id":"18367","name":"Palantia","modern":"Palencia","lat":42.0113,"lng":-4.5373,"major":true,"type":11,"startYear":-30,"endYear":640,"greek":"Παλλαντία"},{"id":"18388","name":"Celsa","modern":"Velilla de Ebro","lat":41.3725,"lng":-0.434,"major":true,"type":11,"startYear":-330,"endYear":300},{"id":"18714","name":"Vetulonia","modern":"Vetulonia","lat":42.8601,"lng":10.9695,"major":true,"type":11,"startYear":-750,"endYear":640,"greek":"Οὐετουλόνιον"},{"id":"18718","name":"Cortona","modern":"Cortona","lat":43.2747,"lng":11.9853,"major":true,"type":11,"startYear":-750,"endYear":640},{"id":"18726","name":"Urvinum Hortense","modern":"Collemancio","lat":42.9847,"lng":12.5249,"major":true,"type":11,"startYear":-330,"endYear":640},{"id":"18731","name":"Castrum Novum","modern":"Giulianova","lat":42.7383,"lng":13.9684,"major":true,"type":11,"startYear":-330,"endYear":640},{"id":"18732","name":"Castrum Truentinum","modern":"Villa Feriozzi","lat":42.8913,"lng":13.8984,"major":true,"type":11,"startYear":-330,"endYear":640},{"id":"18733","name":"Aternum","modern":"Pescara","lat":42.4602,"lng":14.2102,"major":true,"type":11,"startYear":-330,"endYear":640},{"id":"18742","name":"Sestinum","modern":"Sestino","lat":43.7091,"lng":12.2966,"major":true,"type":11,"startYear":-330,"endYear":640},{"id":"18988","name":"Durostorum","modern":"Silistra","lat":44.1212,"lng":27.2595,"major":true,"type":11,"startYear":-30,"endYear":640},{"id":"18989","name":"Marcianopolis","modern":"Devnya","lat":43.225,"lng":27.585,"major":true,"type":11,"startYear":-30,"endYear":640},{"id":"19910","name":"Sarmizegetusa","modern":"Sarmizegetusa","lat":45.5134,"lng":22.7888,"major":true,"type":11,"startYear":-30,"endYear":300},{"id":"20677","name":"Noviomagus","modern":"Chichester","lat":50.8333,"lng":-0.7887,"major":true,"type":11,"startYear":-30,"endYear":640},{"id":"20678","name":"Camulodunum","modern":"Colchester","lat":51.8908,"lng":0.9007,"major":true,"type":11,"startYear":-30,"endYear":640},{"id":"20679","name":"Eburacum","modern":"York","lat":53.957,"lng":-1.0871,"major":true,"type":11,"startYear":-30,"endYear":640},{"id":"20682","name":"Calleva","modern":"Silchester","lat":51.3574,"lng":-1.0822,"major":true,"type":11,"startYear":-30,"endYear":640},{"id":"20683","name":"Korinion","modern":"Cirencester","lat":51.714,"lng":-1.9652,"major":true,"type":11,"startYear":-30,"endYear":640},{"id":"20685","name":"Durnovaria","modern":"Dorchester","lat":50.7151,"lng":-2.4376,"major":true,"type":11,"startYear":-30,"endYear":640},{"id":"20686","name":"Glevum","modern":"Cloucester","lat":51.8603,"lng":-2.2483,"major":true,"type":11,"startYear":-30,"endYear":640},{"id":"20688","name":"Isca","modern":"Exeter","lat":50.7219,"lng":-3.5312,"major":true,"type":11,"startYear":-30,"endYear":640},{"id":"20689","name":"Isurium","modern":"Aldborough","lat":54.0919,"lng":-1.3809,"major":true,"type":11,"startYear":-30,"endYear":640},{"id":"20691","name":"Lindum","modern":"Lincoln","lat":53.2332,"lng":-0.5405,"major":true,"type":11,"startYear":-30,"endYear":640},{"id":"20692","name":"Luguvalium","modern":"Carlisle","lat":54.897,"lng":-2.9418,"major":true,"type":11,"startYear":-30,"endYear":640},{"id":"20693","name":"*Moridunum","modern":"Carmarthen","lat":51.859,"lng":-4.3009,"major":true,"type":11,"startYear":-30,"endYear":640},{"id":"20695","name":"Ratae","modern":"Leicester","lat":52.6354,"lng":-1.1371,"major":true,"type":11,"startYear":-30,"endYear":640},{"id":"20696","name":"Venta","modern":"Winchester","lat":51.061,"lng":-1.3136,"major":true,"type":11,"startYear":-30,"endYear":640},{"id":"20697","name":"Venta","modern":"Caistor St Edmund","lat":52.5814,"lng":1.2875,"major":true,"type":11,"startYear":-30,"endYear":640},{"id":"20698","name":"Venta","modern":"Caerwent","lat":51.6116,"lng":-2.768,"major":true,"type":11,"startYear":-30,"endYear":640},{"id":"20699","name":"Verulamium","modern":"St Albans","lat":51.7529,"lng":-0.3586,"major":true,"type":11,"startYear":43,"endYear":410,"greek":"Οὐρολάνιον"},{"id":"20700","name":"*Viroconium","modern":"Wroxeter","lat":52.6748,"lng":-2.6433,"major":true,"type":11,"startYear":-30,"endYear":640},{"id":"21087","name":"Damascus","modern":"Damascus","lat":33.5116,"lng":36.3091,"major":true,"type":11,"startYear":-550,"endYear":640,"greek":"Δαμασκός"},{"id":"21090","name":"Petra","modern":"Petra","lat":30.3274,"lng":35.4464,"major":true,"type":11,"startYear":-330,"endYear":640,"greek":"Πέτρα"},{"id":"21091","name":"Palmyra","modern":"Tadmur","lat":34.5536,"lng":38.2615,"major":true,"type":11,"startYear":-330,"endYear":640},{"id":"21094","name":"Antiochia","modern":"Antakya","lat":36.2007,"lng":36.1653,"major":true,"type":11,"startYear":-750,"endYear":640,"greek":"Ἀντιόχεια"},{"id":"21096","name":"Kellis","modern":"Ismant el-Kharab","lat":25.5173,"lng":29.0972,"major":true,"type":11,"startYear":-30,"endYear":640},{"id":"21105","name":"Hermonthis","modern":"Armant","lat":25.6221,"lng":32.5443,"major":true,"type":11,"startYear":-750,"endYear":640},{"id":"21107","name":"Diospolis Magna","modern":"Al Uqsur (Luxor)","lat":25.7025,"lng":32.6529,"major":true,"type":11,"startYear":-750,"endYear":640,"greek":"Διὸς Πόλις Μεγάλη/Θῆβαι"},{"id":"21111","name":"Panopolis","modern":"Akhmim","lat":26.5659,"lng":31.7461,"major":true,"type":11,"startYear":-330,"endYear":640,"greek":"Πανὸς Πόλις/Χεμμις"},{"id":"21113","name":"Berytus","modern":"Beirut","lat":33.8979,"lng":35.5012,"major":true,"type":11,"startYear":-330,"endYear":640,"greek":"Βηρυτός"},{"id":"21114","name":"Philadelpheia","modern":"Amman","lat":31.9551,"lng":35.9346,"major":true,"type":11,"startYear":-330,"endYear":640,"greek":"Φιλαδέλφεια"},{"id":"21115","name":"Sidon","modern":"Saida","lat":33.5602,"lng":35.3712,"major":true,"type":11,"startYear":-750,"endYear":640,"greek":"Σιδών"},{"id":"21116","name":"Tyrus","modern":"Tyre","lat":33.2681,"lng":35.2094,"major":true,"type":11,"startYear":-550,"endYear":640,"greek":"ἡ Τύρος"},{"id":"21117","name":"Bostra","modern":"Busra ash-Sham","lat":32.5167,"lng":36.4833,"major":true,"type":11,"startYear":-330,"endYear":640,"greek":"Βόστρα"},{"id":"21118","name":"Heliopolis","modern":"Baalbek","lat":34.0067,"lng":36.2037,"major":true,"type":11,"startYear":-330,"endYear":640,"greek":"Ἡλιούπολις"},{"id":"21126","name":"Cyrene","modern":"Shahhat","lat":32.8187,"lng":21.8562,"major":true,"type":11,"startYear":-750,"endYear":640,"greek":"Κυρήνη"},{"id":"21127","name":"Lepcis Magna","modern":"Leptis Magna","lat":32.6392,"lng":14.2906,"major":true,"type":11,"startYear":-750,"endYear":640,"greek":"Νεάπολις/Λέπτις μεγάλη"},{"id":"21128","name":"Sabratha","modern":"Sabratha","lat":32.8047,"lng":12.4836,"major":true,"type":11,"startYear":-750,"endYear":640,"greek":"Σάβραθα/Ἀβρότονον"},{"id":"21131","name":"Thugga","modern":"Dougga","lat":36.4222,"lng":9.2183,"major":true,"type":11,"startYear":-330,"endYear":640},{"id":"21133","name":"Latopolis","modern":"Esna","lat":25.2936,"lng":32.5564,"major":true,"type":11,"startYear":-750,"endYear":640,"greek":"Λάτων Πόλις"},{"id":"21134","name":"Pathyris","modern":"Gebelein","lat":25.4833,"lng":32.4833,"major":true,"type":11,"startYear":-750,"endYear":640},{"id":"21135","name":"Krokodilopolis","modern":"Medinet el-Fayum","lat":29.3209,"lng":30.8358,"major":true,"type":11,"startYear":-550,"endYear":640,"greek":"Πτολεμαὶς Εὐεργέτις/Κροκοδίλων Πόλις"},{"id":"21136","name":"Herakleopolis","modern":"Ihnasya el-Medina","lat":29.0855,"lng":30.9345,"major":true,"type":11,"startYear":-330,"endYear":640,"greek":"Ἡρακλέους Πόλις"},{"id":"21137","name":"Memphis","modern":"Mit Rahina","lat":29.8497,"lng":31.2543,"major":true,"type":11,"startYear":-2950,"endYear":640,"greek":"Μεμφις"},{"id":"21138","name":"Sais","modern":"Sa el-Hagar","lat":30.9672,"lng":30.7695,"major":true,"type":11,"startYear":-750,"endYear":640,"greek":"Σαις"},{"id":"21139","name":"Heliopolis","modern":"Tell Hisn","lat":30.1294,"lng":31.3052,"major":true,"type":11,"startYear":-750,"endYear":640,"greek":"Ἡλίου Πόλις/Ὠν/Ὀνίου/Ἡλιούπολις"},{"id":"21142","name":"Letopolis","modern":"Ausim","lat":30.1216,"lng":31.1346,"major":true,"type":11,"startYear":-750,"endYear":640,"greek":"Λητοῦς Πόλις"},{"id":"21148","name":"Resafa","modern":"Resafa","lat":35.629,"lng":38.758,"major":true,"type":11,"startYear":-30,"endYear":640},{"id":"21149","name":"Caesarea","modern":"Caesarea","lat":32.4988,"lng":34.8913,"major":true,"type":11,"startYear":-330,"endYear":640},{"id":"21150","name":"Baithsan","modern":"Beit She'an","lat":32.5021,"lng":35.502,"major":true,"type":11,"startYear":-750,"endYear":640,"greek":"Βαιθσαν/Σκυθόπολις"},{"id":"21151","name":"Samaria","modern":"Sebastiya","lat":32.2763,"lng":35.1893,"major":true,"type":11,"startYear":-750,"endYear":640,"greek":"Σαμάρεια"},{"id":"21152","name":"Hermopolis Magna","modern":"El-Ashmunein","lat":27.7813,"lng":30.8034,"major":true,"type":11,"startYear":-550,"endYear":640,"greek":"Ἑρμοῦ Πόλις Μεγάλη/Ἑρμοπολιτῶν Πόλις/Ζμουν"},{"id":"21153","name":"Ilium","modern":"Hisarlık","lat":39.9577,"lng":26.2387,"major":true,"type":11,"startYear":-750,"endYear":640},{"id":"21154","name":"Antigoneia","modern":"Dalayanköy","lat":39.7514,"lng":26.1577,"major":true,"type":11,"startYear":-330,"endYear":640},{"id":"21155","name":"Ephesos","modern":"Efes","lat":37.9419,"lng":27.3397,"major":true,"type":11,"startYear":-750,"endYear":640,"greek":"Ἔφεσος"},{"id":"21157","name":"Smyrna","modern":"İzmir","lat":38.4191,"lng":27.1383,"major":true,"type":11,"startYear":-330,"endYear":640,"greek":"Σμύρνη/Σμύρνα"},{"id":"21158","name":"Pergamon","modern":"Bergama","lat":39.1325,"lng":27.1842,"major":true,"type":11,"startYear":-750,"endYear":640,"greek":"τὸ Πέργαμον/ἡ Πέργαμος"},{"id":"21159","name":"Thyateira","modern":"Akhisar","lat":38.9229,"lng":27.8405,"major":true,"type":11,"startYear":-330,"endYear":640,"greek":"Θυάτειρα"},{"id":"21160","name":"Sardis","modern":"Sart","lat":38.4883,"lng":28.0403,"major":true,"type":11,"startYear":-750,"endYear":640,"greek":"Σάρδεις"},{"id":"21161","name":"Philadelpheia","modern":"Alaşehir","lat":38.3443,"lng":28.5111,"major":true,"type":11,"startYear":-330,"endYear":640,"greek":"Φιλαδέλφεια"},{"id":"21162","name":"Laodicea ad Lycum","modern":"Eskihisar","lat":37.8369,"lng":29.1079,"major":true,"type":11,"startYear":-550,"endYear":300,"greek":"Λαοδίκεια"},{"id":"21165","name":"Trapezous","modern":"Trabzon","lat":41.0059,"lng":39.7285,"major":true,"type":11,"startYear":-750,"endYear":640,"greek":"Τραπεζοῦς"},{"id":"21166","name":"Miletos","modern":"Milet","lat":37.5292,"lng":27.2775,"major":true,"type":11,"startYear":-750,"endYear":640,"greek":"Μίλητος"},{"id":"21167","name":"Priene","modern":"Güllübahçe","lat":37.66,"lng":27.2983,"major":true,"type":11,"startYear":-550,"endYear":640,"greek":"Πριήνη"},{"id":"21170","name":"Colophon","modern":"Değirmendere","lat":38.1156,"lng":27.1422,"major":true,"type":11,"startYear":-750,"endYear":-330,"greek":"Κολοφών"},{"id":"21169","name":"Teos","modern":"Sığacık","lat":38.1773,"lng":26.785,"major":true,"type":11,"startYear":-750,"endYear":640,"greek":"Τέως"},{"id":"21171","name":"Klazomenai?","modern":"İskele","lat":38.3732,"lng":26.7872,"major":true,"type":11,"startYear":-750,"endYear":-550,"greek":"Κλαζομεναί"},{"id":"21172","name":"Magnesia ad Sipylum","modern":"Manisa","lat":38.6167,"lng":27.4333,"major":true,"type":11,"startYear":-550,"endYear":640},{"id":"21173","name":"Magnesia ad Maeandrum","modern":"Tekin","lat":37.8507,"lng":27.5279,"major":true,"type":11,"startYear":-550,"endYear":640,"greek":"Μαγνησία/Μαγνησία ἡ πρὸς Μαιάνδρῳ/Μαγνησία ἡ ἐπὶ Μαιάνδρῳ"},{"id":"21174","name":"Tralles","modern":"Aydın","lat":37.8598,"lng":27.8339,"major":true,"type":11,"startYear":-550,"endYear":640,"greek":"Τράλλεις"},{"id":"21175","name":"Nysa","modern":"Sultanhisar","lat":37.9034,"lng":28.145,"major":true,"type":11,"startYear":-550,"endYear":640,"greek":"Νῦσα/Ἄθυμβρα"},{"id":"21176","name":"Antiochia ad Maeandrum","modern":"Aliağaçiftliği","lat":37.8732,"lng":28.5492,"major":true,"type":11,"startYear":-330,"endYear":640},{"id":"21177","name":"Attouda","modern":"Hisar","lat":37.8422,"lng":28.8059,"major":true,"type":11,"startYear":-330,"endYear":640},{"id":"21178","name":"Aphrodisias","modern":"Geyre","lat":37.7095,"lng":28.7232,"major":true,"type":11,"startYear":-550,"endYear":640,"greek":"Ἀφροδισιάς/Νινόη"},{"id":"21179","name":"Tripolis ad Maeandrum","modern":"Yenicekent","lat":38.0388,"lng":28.9509,"major":true,"type":11,"startYear":-330,"endYear":640,"greek":"Τρίπολις"},{"id":"21180","name":"Herakleia Salbake","modern":"Vakıf","lat":37.6226,"lng":28.9857,"major":true,"type":11,"startYear":-330,"endYear":640,"greek":"Ἡράκλεια Σαλβάκη"},{"id":"21181","name":"Apollonia Salbakes","modern":"Medet","lat":37.5063,"lng":29.023,"major":true,"type":11,"startYear":-330,"endYear":640},{"id":"21182","name":"Sebastopolis","modern":"Kızılca","lat":37.4857,"lng":29.1376,"major":true,"type":11,"startYear":-330,"endYear":640,"greek":"Σεβαστόπολις"},{"id":"21183","name":"Tabai","modern":"Eski Kale","lat":37.4327,"lng":28.8452,"major":true,"type":11,"startYear":-330,"endYear":640,"greek":"Τάβαι"},{"id":"21184","name":"*Kidrama","modern":"Yorga","lat":37.3452,"lng":29.1143,"major":true,"type":11,"startYear":-30,"endYear":640},{"id":"21185","name":"Stratonikeia","modern":"Eskihisar","lat":37.3136,"lng":28.0645,"major":true,"type":11,"startYear":-330,"endYear":640,"greek":"Στρατονίκεια"},{"id":"21186","name":"Mylasa","modern":"Milas","lat":37.3169,"lng":27.7897,"major":true,"type":11,"startYear":-550,"endYear":640,"greek":"Μύλασα"},{"id":"21187","name":"Halikarnassos","modern":"Bodrum","lat":37.0379,"lng":27.4239,"major":true,"type":11,"startYear":-550,"endYear":640,"greek":"Ἁλικαρνασσός"},{"id":"21188","name":"Caunus","modern":"Dalyan","lat":36.8259,"lng":28.6215,"major":true,"type":11,"startYear":-550,"endYear":640,"greek":"Καῦνος"},{"id":"21189","name":"Bargylia","modern":"Varvıl","lat":37.1958,"lng":27.5895,"major":true,"type":11,"startYear":-550,"endYear":640,"greek":"Βαργύλια/Βαρβύλια"},{"id":"21190","name":"Knidos","modern":"Tekir","lat":36.6862,"lng":27.374,"major":true,"type":11,"startYear":-330,"endYear":640,"greek":"Κνίδος"},{"id":"21191","name":"Iasos","modern":"Asınkalesi","lat":37.2795,"lng":27.5846,"major":true,"type":11,"startYear":-550,"endYear":640,"greek":"Ἴασος"},{"id":"21192","name":"Alinda","modern":"Karpuzlu","lat":37.5585,"lng":27.8277,"major":true,"type":11,"startYear":-550,"endYear":640,"greek":"Ἄλινδα"},{"id":"21193","name":"Alabanda","modern":"Araphisar","lat":37.593,"lng":27.9849,"major":true,"type":11,"startYear":-550,"endYear":640,"greek":"Ἀλάβανδα"},{"id":"21194","name":"Samos","modern":"Samos","lat":37.691,"lng":26.9313,"major":true,"type":11,"startYear":-750,"endYear":640},{"id":"21196","name":"Blaundos","modern":"Sülümenli","lat":38.3578,"lng":29.2089,"major":true,"type":11,"startYear":-330,"endYear":640,"greek":"Βλέανδρος/Βλαῦνδος"},{"id":"21197","name":"Stratonicaea","modern":"Siledik","lat":39.1421,"lng":27.8018,"major":true,"type":11,"startYear":-330,"endYear":640,"greek":"Στρατονίκεια"},{"id":"21198","name":"Aizanoi","modern":"Çavdarhisar","lat":39.2013,"lng":29.6094,"major":true,"type":11,"startYear":-330,"endYear":640,"greek":"Αἰζανοί"},{"id":"21199","name":"Assos","modern":"Behram Köyü","lat":39.4906,"lng":26.3371,"major":true,"type":11,"startYear":-750,"endYear":640,"greek":"Ἄσσος"},{"id":"21202","name":"Phocaea","modern":"Foça","lat":38.6684,"lng":26.7526,"major":true,"type":11,"startYear":-750,"endYear":640,"greek":"Φώκαια"},{"id":"21201","name":"Erythrai","modern":"Ildır Köyrü","lat":38.3812,"lng":26.481,"major":true,"type":11,"startYear":-550,"endYear":640},{"id":"21203","name":"Cyme","modern":"Nemrut Limanı","lat":38.7595,"lng":26.9363,"major":true,"type":11,"startYear":-750,"endYear":640,"greek":"Κύμη"},{"id":"21204","name":"Nicomedia","modern":"İzmit","lat":40.7644,"lng":29.9235,"major":true,"type":11,"startYear":-330,"endYear":640,"greek":"Νικομήδεια"},{"id":"21205","name":"Hierapolis","modern":"Pamukkale","lat":37.9293,"lng":29.1242,"major":true,"type":11,"startYear":-330,"endYear":640,"greek":"Ἱεράπολις"},{"id":"21208","name":"Sinope","modern":"Sinop","lat":42.0206,"lng":35.1489,"major":true,"type":11,"startYear":-750,"endYear":640,"greek":"Σινώπη"},{"id":"21209","name":"Pompeiopolis","modern":"Taşköprü","lat":41.5101,"lng":34.2101,"major":true,"type":11,"startYear":-330,"endYear":640,"greek":"Πομπηιόπολις"},{"id":"21210","name":"Soloi","modern":"Viranşehir","lat":36.7449,"lng":34.5423,"major":true,"type":11,"startYear":-750,"endYear":640,"greek":"Σόλοι"},{"id":"21211","name":"Bithynion","modern":"Bolu","lat":40.7395,"lng":31.6116,"major":true,"type":11,"startYear":-330,"endYear":640},{"id":"21212","name":"Nicaea","modern":"İznik","lat":40.4267,"lng":29.7154,"major":true,"type":11,"startYear":-550,"endYear":640,"greek":"Νίκαια"},{"id":"21213","name":"Prusias ad Mare","modern":"Gemlik","lat":40.4325,"lng":29.1564,"major":true,"type":11,"startYear":-750,"endYear":640},{"id":"21214","name":"Myrleia","modern":"Mudanya","lat":40.3756,"lng":28.8827,"major":true,"type":11,"startYear":-550,"endYear":640,"greek":"Απάμεια Μύρλεια"},{"id":"21215","name":"Apollonia ad Rhyndacum","modern":"Gölyazı","lat":40.1702,"lng":28.6849,"major":true,"type":11,"startYear":-330,"endYear":640,"greek":"Ἀπολλωνία ἐπὶ Ῥυνδακῷ"},{"id":"21216","name":"Sestos","modern":"Yalikabat","lat":40.2134,"lng":26.3892,"major":true,"type":11,"startYear":-750,"endYear":300,"greek":"Σηστός"},{"id":"21217","name":"Lysimacheia","modern":"Baklaburnu","lat":40.5482,"lng":26.7508,"major":true,"type":11,"startYear":-550,"endYear":300,"greek":"Καρδία/Λυσιμάχεια"},{"id":"21218","name":"Caesarea Germanice","modern":"Tahtalı","lat":40.1745,"lng":28.8815,"major":true,"type":11,"startYear":-330,"endYear":640,"greek":"Γερμανικόπολις"},{"id":"21219","name":"Prusa","modern":"Bursa","lat":40.1848,"lng":29.0615,"major":true,"type":11,"startYear":-30,"endYear":640},{"id":"21220","name":"Ancyra","modern":"Ankara","lat":39.9444,"lng":32.8581,"major":true,"type":11,"startYear":-330,"endYear":640,"greek":"Ἄνκυρα"},{"id":"21221","name":"Gangra","modern":"Çankırı","lat":40.5959,"lng":33.6273,"major":true,"type":11,"startYear":-330,"endYear":640,"greek":"Γερμανικόπολις/Γάγγρα"},{"id":"21222","name":"Amaseia","modern":"Amasya","lat":40.6549,"lng":35.8281,"major":true,"type":11,"startYear":-330,"endYear":640,"greek":"Ἀμάσεια"},{"id":"21223","name":"Comana Pontica","modern":"Kılıçlı","lat":40.3576,"lng":36.6387,"major":true,"type":11,"startYear":-330,"endYear":640},{"id":"21224","name":"Sebastopolis","modern":"Sulusaray","lat":39.9972,"lng":36.0846,"major":true,"type":11,"startYear":-330,"endYear":640,"greek":"Σεβαστόπολις"},{"id":"21225","name":"Sebasteia","modern":"Sivas","lat":39.7477,"lng":37.0179,"major":true,"type":11,"startYear":-750,"endYear":640},{"id":"21232","name":"Side","modern":"Selimiye","lat":36.7681,"lng":31.3906,"major":true,"type":11,"startYear":-750,"endYear":640,"greek":"Σίδη"},{"id":"21233","name":"Polemonion","modern":"Fatsa","lat":41.02,"lng":37.5303,"major":true,"type":11,"startYear":-330,"endYear":640,"greek":"Πολεμώνιον"},{"id":"21234","name":"Amisos","modern":"Samsun","lat":41.2928,"lng":36.3313,"major":true,"type":11,"startYear":-550,"endYear":640,"greek":"Ἀμισός"},{"id":"21235","name":"Nicopolis","modern":"Yeşilyayla","lat":40.1366,"lng":38.1477,"major":true,"type":11,"startYear":-330,"endYear":640},{"id":"21237","name":"Arsamosata","modern":"Haraba","lat":38.6609,"lng":39.5109,"major":true,"type":11,"startYear":-330,"endYear":640,"greek":"Ἀρσαμόσατα"},{"id":"21238","name":"Samosata","modern":"Samsat","lat":37.5258,"lng":38.5304,"major":true,"type":11,"startYear":-550,"endYear":640,"greek":"Σαμόσατα"},{"id":"21239","name":"Melitene","modern":"Arslantepe","lat":38.3822,"lng":38.3612,"major":true,"type":11,"startYear":-750,"endYear":640,"greek":"Μελιτηνή"},{"id":"21240","name":"Comana","modern":"Şar","lat":38.3295,"lng":36.3259,"major":true,"type":11,"startYear":-750,"endYear":640,"greek":"τά Κόμανα"},{"id":"21241","name":"Ariaratheia","modern":"Pınarbaşı","lat":38.722,"lng":36.391,"major":true,"type":11,"startYear":-330,"endYear":640},{"id":"21242","name":"Caesarea","modern":"Kayseri","lat":38.7333,"lng":35.4835,"major":true,"type":11,"startYear":-750,"endYear":640},{"id":"21243","name":"Tyana","modern":"Kemerhisar","lat":37.8173,"lng":34.5684,"major":true,"type":11,"startYear":-550,"endYear":640,"greek":"Τύανα/Τυανα"},{"id":"21244","name":"Garsaura","modern":"Aksaray","lat":38.3741,"lng":34.0288,"major":true,"type":11,"startYear":-330,"endYear":640,"greek":"Ἀρχελαίς/Κολώνεια/Γαρσάουρα/Γαρσαύιρα"},{"id":"21245","name":"Tarsus","modern":"Gözlü Kule","lat":36.9124,"lng":34.8959,"major":true,"type":11,"startYear":-750,"endYear":640,"greek":"Ταρσός/Ταρσοί"},{"id":"21246","name":"Adana","modern":"Adana","lat":36.9858,"lng":35.3342,"major":true,"type":11,"startYear":-550,"endYear":640},{"id":"21247","name":"Mopsouhestia","modern":"Yakapınar","lat":36.9578,"lng":35.6239,"major":true,"type":11,"startYear":-550,"endYear":640},{"id":"21248","name":"Aigaiai","modern":"Yumurtalık","lat":36.7697,"lng":35.7895,"major":true,"type":11,"startYear":-330,"endYear":640},{"id":"21249","name":"Mallos","modern":"Karataş","lat":36.7562,"lng":35.4852,"major":true,"type":11,"startYear":-330,"endYear":640,"greek":"Μαλλός"},{"id":"21252","name":"Autisparate","modern":"Erzurum","lat":39.9077,"lng":41.2769,"major":true,"type":11,"startYear":300,"endYear":640},{"id":"21253","name":"Amastris","modern":"Amasra","lat":41.747,"lng":32.3856,"major":true,"type":11,"startYear":-750,"endYear":640,"greek":"Ἄμαστρις"},{"id":"21254","name":"Heraclea","modern":"Karadeniz Ereğli","lat":41.2847,"lng":31.4147,"major":true,"type":11,"startYear":-550,"endYear":640,"greek":"Ἡράκλεια"},{"id":"21255","name":"Prusias ad Hypium","modern":"Konuralp","lat":40.906,"lng":31.1482,"major":true,"type":11,"startYear":-330,"endYear":640},{"id":"21256","name":"Dorylaion","modern":"Şarhöyük","lat":39.7833,"lng":30.5172,"major":true,"type":11,"startYear":-330,"endYear":640,"greek":"Δορύλαιον/Δορύλλειον"},{"id":"21257","name":"Midaion","modern":"Karahüyük","lat":39.7996,"lng":30.8456,"major":true,"type":11,"startYear":-330,"endYear":640,"greek":"Μίδαιον/Μιδάειον"},{"id":"21258","name":"Nakoleia","modern":"Seyitgazi","lat":39.4447,"lng":30.6947,"major":true,"type":11,"startYear":-30,"endYear":640},{"id":"21259","name":"Pessinous","modern":"Ballıhisar","lat":39.3315,"lng":31.583,"major":true,"type":11,"startYear":-330,"endYear":640,"greek":"Πεσσινοῦς"},{"id":"21260","name":"Amorion","modern":"Hisarköy","lat":39.0195,"lng":31.2959,"major":true,"type":11,"startYear":-330,"endYear":640,"greek":"Ἀμόριον"},{"id":"21261","name":"Dokimeion","modern":"İscehisar","lat":38.8619,"lng":30.7551,"major":true,"type":11,"startYear":-330,"endYear":640,"greek":"Δοκίμειον"},{"id":"21262","name":"Prymnessos","modern":"Sülün","lat":38.6982,"lng":30.5696,"major":true,"type":11,"startYear":-30,"endYear":640},{"id":"21263","name":"Synnada","modern":"Şuhut","lat":38.5333,"lng":30.55,"major":true,"type":11,"startYear":-330,"endYear":640},{"id":"21264","name":"Appia","modern":"Pınarcık","lat":39.0246,"lng":29.9842,"major":true,"type":11,"startYear":-330,"endYear":640},{"id":"21265","name":"Kotiaeion","modern":"Kütahya","lat":39.4167,"lng":29.9833,"major":true,"type":11,"startYear":-330,"endYear":640},{"id":"21266","name":"Kadoi","modern":"Gediz","lat":38.9908,"lng":29.3918,"major":true,"type":11,"startYear":-330,"endYear":640,"greek":"Κάδοι"},{"id":"21267","name":"Synaos","modern":"Simav","lat":39.0927,"lng":28.9776,"major":true,"type":11,"startYear":-30,"endYear":640},{"id":"21268","name":"Ankyra","modern":"Boğazköy","lat":39.1554,"lng":28.8533,"major":true,"type":11,"startYear":-30,"endYear":640},{"id":"21269","name":"Hadrianeia","modern":"Dursunbey","lat":39.5883,"lng":28.633,"major":true,"type":11,"startYear":-30,"endYear":640},{"id":"21270","name":"Hadrianoi","modern":"Orhaneli","lat":39.9067,"lng":28.9886,"major":true,"type":11,"startYear":-30,"endYear":640},{"id":"21271","name":"Silandos","modern":"Karaselendi","lat":38.7536,"lng":28.8233,"major":true,"type":11,"startYear":-330,"endYear":640,"greek":"Σίλανδος"},{"id":"21272","name":"Tabala","modern":"Burgaz","lat":38.6196,"lng":28.8108,"major":true,"type":11,"startYear":-30,"endYear":640,"greek":"Τάβαλα"},{"id":"21273","name":"Saittai","modern":"Sidas Kale","lat":38.7901,"lng":28.6188,"major":true,"type":11,"startYear":-30,"endYear":640,"greek":"Σαΐτται"},{"id":"21274","name":"Bagis","modern":"Güre","lat":38.6653,"lng":29.1584,"major":true,"type":11,"startYear":-30,"endYear":640},{"id":"21275","name":"Temenouthyrai","modern":"Uşak","lat":38.6823,"lng":29.4082,"major":true,"type":11,"startYear":-30,"endYear":640,"greek":"Τημενοθύραι"},{"id":"21276","name":"Traianoupolis","modern":"Ortaköy","lat":38.686,"lng":29.547,"major":true,"type":11,"startYear":-30,"endYear":640},{"id":"21277","name":"Akmonia","modern":"Ahat Köyü","lat":38.659,"lng":29.7715,"major":true,"type":11,"startYear":-330,"endYear":640,"greek":"Ἀκμωνία"},{"id":"21278","name":"Brouzos","modern":"Karasandıklı","lat":38.5278,"lng":30.1719,"major":true,"type":11,"startYear":-30,"endYear":640},{"id":"21279","name":"Eukarpia","modern":"Emirhisar","lat":38.4755,"lng":30.1113,"major":true,"type":11,"startYear":-330,"endYear":640},{"id":"21280","name":"Stektorion","modern":"Kocahüyük","lat":38.3326,"lng":30.1438,"major":true,"type":11,"startYear":-30,"endYear":640},{"id":"21281","name":"Apamea","modern":"Dinar","lat":38.0729,"lng":30.1735,"major":true,"type":11,"startYear":-550,"endYear":640,"greek":"Ἀπάμεια"},{"id":"21301","name":"Megara Hyblaia","modern":"Megara Hyblaea","lat":37.2038,"lng":15.1827,"major":true,"type":11,"startYear":-750,"endYear":-30,"greek":"Μέγαρα/Μέγαρες Ὑβλαῖοι"},{"id":"21303","name":"Heraclea Minoa","modern":"Cattolica Eraclea","lat":37.394,"lng":13.2809,"major":true,"type":11,"startYear":-750,"endYear":640,"greek":"Ἡράκλεια Μινῴα"},{"id":"21306","name":"Heraclea","modern":"Policoro","lat":40.2197,"lng":16.6705,"major":true,"type":11,"startYear":-550,"endYear":640,"greek":"Ἡράκλεια"},{"id":"21307","name":"Metapontum","modern":"Metaponto","lat":40.3839,"lng":16.8241,"major":true,"type":11,"startYear":-750,"endYear":640,"greek":"Μεταπόντιον"},{"id":"21309","name":"Castrum Novum","modern":"Torre Chiaruccia","lat":42.0389,"lng":11.8297,"major":true,"type":11,"startYear":-287,"endYear":300},{"id":"21310","name":"Sinuessa","modern":"Mondragone","lat":41.1494,"lng":13.85,"major":true,"type":11,"startYear":-550,"endYear":-30,"greek":"Σινοέσση"},{"id":"21311","name":"Sora","modern":"Sora","lat":41.7209,"lng":13.6145,"major":true,"type":11,"startYear":-330,"endYear":640},{"id":"21312","name":"Signia","modern":"Segni","lat":41.6953,"lng":13.0262,"major":true,"type":11,"startYear":-750,"endYear":640},{"id":"21313","name":"Novae","modern":"Runovići","lat":43.3871,"lng":17.2399,"major":true,"type":11,"startYear":-30,"endYear":640},{"id":"21323","name":"Gabii","modern":"Castiglione","lat":41.8871,"lng":12.7174,"major":true,"type":11,"startYear":-750,"endYear":1453},{"id":"21326","name":"Caieta","modern":"Gaeta","lat":41.2089,"lng":13.5869,"major":true,"type":11,"startYear":-330,"endYear":640,"greek":"Καιήτη"},{"id":"21329","name":"Fregellae","modern":"Isoletta","lat":41.5367,"lng":13.5389,"major":true,"type":11,"startYear":-330,"endYear":-30,"greek":"Φρεγέλλαι"},{"id":"21330","name":"Lavinium","modern":"Pratica di Mare","lat":41.6613,"lng":12.4801,"major":true,"type":11,"startYear":-750,"endYear":640,"greek":"Λαβίνιον"},{"id":"21331","name":"Lanuvium","modern":"Lanuvio","lat":41.6744,"lng":12.6974,"major":true,"type":11,"startYear":-750,"endYear":640,"greek":"Λανούβιον"},{"id":"21332","name":"Tusculum","modern":"Tuscolo","lat":41.7983,"lng":12.7099,"major":true,"type":11,"startYear":-750,"endYear":640,"greek":"Τούσκλον/Τούσκουλον"},{"id":"21334","name":"Norba","modern":"Norma","lat":41.5917,"lng":12.9603,"major":true,"type":11,"startYear":-750,"endYear":-30},{"id":"21335","name":"Interamna Lirenas","modern":"Pignataro Interamna","lat":41.4286,"lng":13.753,"major":true,"type":11,"startYear":-330,"endYear":300},{"id":"21336","name":"Graviscae","modern":"Porto Clementino","lat":42.2128,"lng":11.7103,"major":true,"type":11,"startYear":-750,"endYear":640},{"id":"21339","name":"Lucus Feroniae","modern":"Lucus Feronia","lat":42.1297,"lng":12.5969,"major":true,"type":11,"startYear":-550,"endYear":640},{"id":"21340","name":"Capena","modern":"La Civitucola","lat":42.1728,"lng":12.5379,"major":true,"type":11,"startYear":-750,"endYear":640},{"id":"21341","name":"Ferentium","modern":"Ferento","lat":42.4888,"lng":12.1316,"major":true,"type":11,"startYear":-330,"endYear":640},{"id":"21345","name":"*Aurinia","modern":"Saturnia","lat":42.6663,"lng":11.5048,"major":true,"type":11,"startYear":-750,"endYear":640},{"id":"21346","name":"Trebula Balliensium","modern":"Treglia","lat":41.2271,"lng":14.2618,"major":true,"type":11,"startYear":-330,"endYear":300,"greek":"Τρήβουλα"},{"id":"21348","name":"Caiatia","modern":"Caiazzo","lat":41.1753,"lng":14.3685,"major":true,"type":11,"startYear":-330,"endYear":640},{"id":"21349","name":"Telesia","modern":"San Salvatore Telesino","lat":41.2237,"lng":14.5033,"major":true,"type":11,"startYear":-330,"endYear":640},{"id":"21352","name":"Pompeii","modern":"Pompei","lat":40.7494,"lng":14.4854,"major":true,"type":11,"startYear":-750,"endYear":79,"greek":"Πομπεῖα/Πομπήια"},{"id":"21353","name":"Herculaneum","modern":"Ercolano","lat":40.8055,"lng":14.3473,"major":true,"type":11,"startYear":-550,"endYear":79,"greek":"Ἡράκλειον"},{"id":"21356","name":"Siris","modern":"Siris","lat":40.1658,"lng":16.6682,"major":true,"type":11,"startYear":-750,"endYear":-550,"greek":"Σῑρις"},{"id":"21357","name":"Petelia","modern":"Strongoli","lat":39.2661,"lng":17.0511,"major":true,"type":11,"startYear":-550,"endYear":640,"greek":"Πετηλία"},{"id":"21358","name":"Vivatia","modern":"Baeza","lat":37.9901,"lng":-3.4693,"major":true,"type":11,"startYear":-30,"endYear":640},{"id":"21359","name":"Mirobriga","modern":"Ciudad Rodrigo","lat":40.5975,"lng":-6.5338,"major":true,"type":11,"startYear":-330,"endYear":640},{"id":"21360","name":"Mirobriga","modern":"Cerro del Cabezo","lat":38.8205,"lng":-5.0843,"major":true,"type":11,"startYear":-30,"endYear":300},{"id":"21361","name":"Mirobriga","modern":"Santiago do Cacém","lat":38.0097,"lng":-8.6838,"major":true,"type":11,"startYear":-750,"endYear":640},{"id":"21368","name":"Margum","modern":"Orašje","lat":44.6961,"lng":21.0779,"major":true,"type":11,"startYear":-30,"endYear":640},{"id":"21372","name":"Ulpiana","modern":"Gračanica","lat":42.5964,"lng":21.1751,"major":true,"type":11,"startYear":-30,"endYear":640},{"id":"21373","name":"Iustiniana Prima","modern":"Caričin Grad","lat":42.9532,"lng":21.67,"major":true,"type":11,"startYear":535,"endYear":615},{"id":"21375","name":"Drobeta","modern":"Drobeta-Turnu Severin","lat":44.623,"lng":22.654,"major":true,"type":11,"startYear":-30,"endYear":640},{"id":"21377","name":"Novae","modern":"Svishtov","lat":43.6128,"lng":25.3938,"major":true,"type":11,"startYear":-30,"endYear":640,"greek":"Νοοῦαι"},{"id":"21378","name":"Oescus","modern":"Gigen","lat":43.7105,"lng":24.4655,"major":true,"type":11,"startYear":-30,"endYear":640},{"id":"21379","name":"Diocletianopolis","modern":"Hisarya","lat":42.5,"lng":24.7051,"major":true,"type":11,"startYear":-30,"endYear":640},{"id":"21380","name":"Kabyle","modern":"Yambol","lat":42.5506,"lng":26.4842,"major":true,"type":11,"startYear":-330,"endYear":640,"greek":"Καβύλη"},{"id":"21381","name":"Apollonia Pontica","modern":"Sozopol","lat":42.4204,"lng":27.6943,"major":true,"type":11,"startYear":-550,"endYear":640},{"id":"21382","name":"Nicopolis ad Istrum","modern":"Nikyup","lat":43.2179,"lng":25.6122,"major":true,"type":11,"startYear":-30,"endYear":640,"greek":"Νικόπολις"},{"id":"21384","name":"Abritus","modern":"Razgrad","lat":43.5211,"lng":26.5517,"major":true,"type":11,"startYear":-330,"endYear":640},{"id":"21386","name":"Montana","modern":"Montana","lat":43.4085,"lng":23.2257,"major":true,"type":11,"startYear":-30,"endYear":640},{"id":"21387","name":"Dierna","modern":"Orșova","lat":44.7383,"lng":22.4076,"major":true,"type":11,"startYear":-30,"endYear":640},{"id":"21388","name":"Tropaeum Traiani","modern":"Adamclisi","lat":44.092,"lng":27.9442,"major":true,"type":11,"startYear":-30,"endYear":640},{"id":"21389","name":"Tomi","modern":"Constanța","lat":44.1725,"lng":28.6612,"major":true,"type":11,"startYear":-550,"endYear":640,"greek":"Τόμοι/Τόμις/Τῶμις"},{"id":"21390","name":"Troesmis","modern":"Igliţa","lat":45.1432,"lng":28.1951,"major":true,"type":11,"startYear":-30,"endYear":640},{"id":"21391","name":"Callatis","modern":"Mangalia","lat":43.8131,"lng":28.5852,"major":true,"type":11,"startYear":-550,"endYear":640,"greek":"Κάλλατις"},{"id":"21392","name":"Dionysopolis","modern":"Balchik","lat":43.4099,"lng":28.163,"major":true,"type":11,"startYear":-550,"endYear":640},{"id":"21393","name":"Odessus","modern":"Varna","lat":43.2002,"lng":27.9184,"major":true,"type":11,"startYear":-550,"endYear":640},{"id":"21394","name":"Mesembria","modern":"Nesebar","lat":42.6587,"lng":27.7308,"major":true,"type":11,"startYear":-550,"endYear":640},{"id":"21395","name":"Anchialus","modern":"Pomorie","lat":42.5559,"lng":27.6414,"major":true,"type":11,"startYear":-550,"endYear":640},{"id":"21396","name":"Bizye","modern":"Vize","lat":41.5751,"lng":27.7652,"major":true,"type":11,"startYear":-330,"endYear":640},{"id":"21397","name":"Bisanthe","modern":"Tekirdağ","lat":40.9833,"lng":27.5167,"major":true,"type":11,"startYear":-550,"endYear":640},{"id":"21398","name":"Aproi","modern":"Kermeyan","lat":40.9269,"lng":27.1074,"major":true,"type":11,"startYear":-30,"endYear":640},{"id":"21399","name":"Perinthus","modern":"Marmara Ereğlisi Adliyesi","lat":40.9709,"lng":27.9545,"major":true,"type":11,"startYear":-330,"endYear":640,"greek":"Πέρινθος"},{"id":"21400","name":"Selymbria","modern":"Silivri","lat":41.0802,"lng":28.2683,"major":true,"type":11,"startYear":-550,"endYear":640,"greek":"Σηλυμβρία"},{"id":"21402","name":"Anemourion","modern":"Anamur","lat":36.0206,"lng":32.8017,"major":true,"type":11,"startYear":-550,"endYear":640,"greek":"Ἀνεμούριον"},{"id":"21403","name":"Celenderis","modern":"Aydıncık","lat":36.1441,"lng":33.3231,"major":true,"type":11,"startYear":-750,"endYear":640,"greek":"Κελένδερις"},{"id":"21404","name":"Germanicopolis","modern":"Ermenek","lat":36.6401,"lng":32.8944,"major":true,"type":11,"startYear":-30,"endYear":640,"greek":"Γερμανικόπολις"},{"id":"21405","name":"Ninica","modern":"Mut","lat":36.6517,"lng":33.4416,"major":true,"type":11,"startYear":-30,"endYear":640,"greek":"Κλαυδιόπολις"},{"id":"21406","name":"Seleucia ad Calycadnum","modern":"Silifke","lat":36.3812,"lng":33.9241,"major":true,"type":11,"startYear":-330,"endYear":640,"greek":"Σελεύκεια"},{"id":"21407","name":"Diocaesarea","modern":"Uzuncaburç","lat":36.5812,"lng":33.9253,"major":true,"type":11,"startYear":-330,"endYear":640},{"id":"21408","name":"Philippopolis","modern":"Plovdiv","lat":42.1474,"lng":24.7491,"major":true,"type":11,"startYear":-330,"endYear":640,"greek":"Φιλιππόπολις/Φιλιπούπολις"},{"id":"21410","name":"Scupi","modern":"Skopje","lat":42.0169,"lng":21.3914,"major":true,"type":11,"startYear":81,"endYear":518,"greek":"Σκοῦποι"},{"id":"21411","name":"Stobi","modern":"Stobi","lat":41.5526,"lng":21.975,"major":true,"type":11,"startYear":-330,"endYear":640,"greek":"Στόβοι"},{"id":"21412","name":"Lychnidos","modern":"Ohrid","lat":41.1146,"lng":20.7938,"major":true,"type":11,"startYear":-550,"endYear":640,"greek":"Λυχνιδός/Λυχνίς"},{"id":"21413","name":"Herakleia","modern":"Bitola","lat":41.011,"lng":21.342,"major":true,"type":11,"startYear":-550,"endYear":640,"greek":"Ἡράκλεια Λυγκηστίς/Ἡράκλεια Λύγκου"},{"id":"21415","name":"Apollonia","modern":"Pojan","lat":40.7206,"lng":19.4704,"major":true,"type":11,"startYear":-750,"endYear":640,"greek":"Ἀπολλωνία"},{"id":"21417","name":"Byllis","modern":"Hekal","lat":40.5403,"lng":19.7375,"major":true,"type":11,"startYear":-330,"endYear":640,"greek":"Βύλλις"},{"id":"21422","name":"Phoinike","modern":"Finiq","lat":39.914,"lng":20.0564,"major":true,"type":11,"startYear":-750,"endYear":640,"greek":"Φοινίκη"},{"id":"21423","name":"Histria","modern":"Istria","lat":44.5476,"lng":28.7748,"major":true,"type":11,"startYear":-550,"endYear":640,"greek":"Ἴστρος"},{"id":"21424","name":"Tieion","modern":"Filyos (Hisarönü)","lat":41.5613,"lng":32.0231,"major":true,"type":11,"startYear":-330,"endYear":640,"greek":"Τίος/Τιεῖον"},{"id":"21425","name":"Cyzicus","modern":"Belkiz Kale","lat":40.3898,"lng":27.8741,"major":true,"type":11,"startYear":-750,"endYear":640,"greek":"Κύζικος"},{"id":"21426","name":"Parium","modern":"Kemer","lat":40.4259,"lng":27.067,"major":true,"type":11,"startYear":-550,"endYear":640,"greek":"Πάριον"},{"id":"21428","name":"Aigai","modern":"Yuntdağı Köseler","lat":38.832,"lng":27.1898,"major":true,"type":11,"startYear":-750,"endYear":640,"greek":"Αἰγαί/Αἰγαῖαι"},{"id":"21429","name":"Sebaste","modern":"Selçikler","lat":38.4952,"lng":29.6581,"major":true,"type":11,"startYear":-30,"endYear":640,"greek":"Σεβαστή"},{"id":"21435","name":"Olympus","modern":"Deliktaş","lat":36.3954,"lng":30.4734,"major":true,"type":11,"startYear":-330,"endYear":640},{"id":"21436","name":"Phaselis","modern":"Tekirova","lat":36.5246,"lng":30.5516,"major":true,"type":11,"startYear":-550,"endYear":640,"greek":"Φασηλίς"},{"id":"21437","name":"Gagai","modern":"Yeniceköy","lat":36.2888,"lng":30.3475,"major":true,"type":11,"startYear":-550,"endYear":640,"greek":"Γάγαι"},{"id":"21438","name":"Cremna","modern":"Girme","lat":37.4988,"lng":30.6889,"major":true,"type":11,"startYear":-330,"endYear":640,"greek":"Κρῆμνα"},{"id":"21439","name":"Adada","modern":"Sağrak","lat":37.5775,"lng":30.984,"major":true,"type":11,"startYear":-330,"endYear":640,"greek":"Ἄδαδα"},{"id":"21440","name":"Sagalassos","modern":"Ağlasun","lat":37.6781,"lng":30.5194,"major":true,"type":11,"startYear":-550,"endYear":640,"greek":"Σαγαλασσός"},{"id":"21441","name":"Seleucia","modern":"Selef","lat":37.8996,"lng":30.6175,"major":true,"type":11,"startYear":-330,"endYear":640},{"id":"21442","name":"Antiochia","modern":"Yalvaç","lat":38.3047,"lng":31.1905,"major":true,"type":11,"startYear":-330,"endYear":640},{"id":"21443","name":"Laodikeia (Katakekaumene)","modern":"Ladik","lat":38.191,"lng":32.3745,"major":true,"type":11,"startYear":-330,"endYear":640,"greek":"Λαοδίκεια Κατακεκαυμένη"},{"id":"21444","name":"Iconium","modern":"Konya","lat":37.8722,"lng":32.4923,"major":true,"type":11,"startYear":-550,"endYear":640,"greek":"Ἰκόνιον"},{"id":"21445","name":"Selge","modern":"Altınkaya","lat":37.2294,"lng":31.1272,"major":true,"type":11,"startYear":-330,"endYear":640,"greek":"Σέλγη"},{"id":"21448","name":"Aspendos","modern":"Belkis","lat":36.9389,"lng":31.1722,"major":true,"type":11,"startYear":-750,"endYear":640,"greek":"Ἄσπενδος"},{"id":"21449","name":"Sillyon","modern":"Asar Köyü","lat":36.9936,"lng":30.9901,"major":true,"type":11,"startYear":-550,"endYear":640,"greek":"Σίλλυον"},{"id":"21450","name":"Perge","modern":"Aksu","lat":36.9614,"lng":30.8543,"major":true,"type":11,"startYear":-750,"endYear":640,"greek":"Πέργη"},{"id":"21451","name":"Termessos","modern":"Güllük Dağ","lat":36.983,"lng":30.4672,"major":true,"type":11,"startYear":-550,"endYear":640,"greek":"Τερμησσός"},{"id":"21452","name":"Arykanda","modern":"Aykırca","lat":36.5135,"lng":30.0599,"major":true,"type":11,"startYear":-330,"endYear":640},{"id":"21454","name":"Limyra","modern":"Yuvalılar","lat":36.3428,"lng":30.1705,"major":true,"type":11,"startYear":-330,"endYear":640,"greek":"Λίμυρα"},{"id":"21455","name":"Myra","modern":"Demre","lat":36.2584,"lng":29.9856,"major":true,"type":11,"startYear":-330,"endYear":640,"greek":"Μύρα"},{"id":"21457","name":"Kyaneai","modern":"Yavı","lat":36.2475,"lng":29.8182,"major":true,"type":11,"startYear":-330,"endYear":640},{"id":"21458","name":"Phellos","modern":"Çukurbağ","lat":36.2428,"lng":29.6622,"major":true,"type":11,"startYear":-550,"endYear":640,"greek":"Φελλός"},{"id":"21460","name":"Patara","modern":"Gelemiş","lat":36.2602,"lng":29.3143,"major":true,"type":11,"startYear":-550,"endYear":640,"greek":"Πάταρα"},{"id":"21462","name":"Xanthos","modern":"Kınık","lat":36.3559,"lng":29.3184,"major":true,"type":11,"startYear":-550,"endYear":640,"greek":"Ξάνθος"},{"id":"21463","name":"Tlos","modern":"Düver","lat":36.5525,"lng":29.4222,"major":true,"type":11,"startYear":-550,"endYear":640,"greek":"Τλῶς"},{"id":"21464","name":"Pinara","modern":"Minare","lat":36.4897,"lng":29.2569,"major":true,"type":11,"startYear":-550,"endYear":640,"greek":"Πίναρα"},{"id":"21465","name":"Telmessos","modern":"Fethiye","lat":36.6209,"lng":29.1058,"major":true,"type":11,"startYear":-550,"endYear":640,"greek":"Τελμισσός"},{"id":"21467","name":"Sidyma","modern":"Dodurga","lat":36.4103,"lng":29.1917,"major":true,"type":11,"startYear":-330,"endYear":640,"greek":"Σίδυμα"},{"id":"21468","name":"Oenoanda","modern":"İncealiler","lat":36.8093,"lng":29.5497,"major":true,"type":11,"startYear":-330,"endYear":640,"greek":"Οἰνόανδα"},{"id":"21469","name":"Boubon","modern":"Ibecik","lat":36.9691,"lng":29.4071,"major":true,"type":11,"startYear":-330,"endYear":640},{"id":"21470","name":"Cibyra","modern":"Gölhisar","lat":37.1593,"lng":29.4927,"major":true,"type":11,"startYear":-330,"endYear":640,"greek":"Κίβυρα"},{"id":"21471","name":"Balboura","modern":"Çölkayağı","lat":36.9552,"lng":29.5811,"major":true,"type":11,"startYear":-330,"endYear":640,"greek":"Βαρβουλεύς"},{"id":"21472","name":"Colossae","modern":"Honaz","lat":37.7867,"lng":29.2598,"major":true,"type":11,"startYear":-550,"endYear":640,"greek":"Κολοσσαί"},{"id":"21473","name":"Herakleia","modern":"Kapıkırı","lat":37.4976,"lng":27.5271,"major":true,"type":11,"startYear":-550,"endYear":640,"greek":"Ἡράκλεια"},{"id":"21475","name":"Notion","modern":"Notion","lat":37.9916,"lng":27.1973,"major":true,"type":11,"startYear":-750,"endYear":640,"greek":"Νότιον"},{"id":"21487","name":"Syedra","modern":"Sedra Çay","lat":36.4461,"lng":32.1477,"major":true,"type":11,"startYear":-30,"endYear":640,"greek":"Σύεδρα"},{"id":"21491","name":"Isaura Nova","modern":"Zengibar Kalesi","lat":37.1936,"lng":32.3424,"major":true,"type":11,"startYear":-550,"endYear":640,"greek":"Ίσαυρα Νέα"},{"id":"21494","name":"Elaioussa","modern":"Ayaş","lat":36.4812,"lng":34.1746,"major":true,"type":11,"startYear":-330,"endYear":640,"greek":"Ἐλαιοῦσσα"},{"id":"21496","name":"Anazarbos","modern":"Anavarza","lat":37.2556,"lng":35.8983,"major":true,"type":11,"startYear":-330,"endYear":640},{"id":"21498","name":"Epiphaneia","modern":"Gözene","lat":36.9756,"lng":36.1345,"major":true,"type":11,"startYear":-550,"endYear":640},{"id":"21499","name":"Hierapolis","modern":"Bodrum Kalesi","lat":37.1772,"lng":36.1873,"major":true,"type":11,"startYear":-330,"endYear":640,"greek":"Καστάβαλα/Ίεράπολις"},{"id":"21500","name":"Zeugma","modern":"Belkis","lat":37.0569,"lng":37.8678,"major":true,"type":11,"startYear":-330,"endYear":640,"greek":"Σελεύκεια/Ζεῦγμα"},{"id":"21501","name":"Seleukeia Pieria","modern":"Çevlik","lat":36.1171,"lng":35.9382,"major":true,"type":11,"startYear":-550,"endYear":640,"greek":"Σελεύκεια ἡ ἐν Πιερίᾳ"},{"id":"21502","name":"Attaleia","modern":"Antalya","lat":36.8839,"lng":30.7054,"major":true,"type":11,"startYear":-330,"endYear":640,"greek":"Ἀττάλεια"},{"id":"21505","name":"Laodicea","modern":"Latakia","lat":35.514,"lng":35.782,"major":true,"type":11,"startYear":-550,"endYear":640,"greek":"Λαοδίκεια"},{"id":"21507","name":"Apamea","modern":"Afamiyah","lat":35.4222,"lng":36.4025,"major":true,"type":11,"startYear":-550,"endYear":640,"greek":"Ἀπάμεια"},{"id":"21509","name":"Cyrrus","modern":"Nebi Houri","lat":36.7447,"lng":36.9564,"major":true,"type":11,"startYear":-330,"endYear":640},{"id":"21510","name":"Doura","modern":"Qal'at es-Salihiye","lat":34.7479,"lng":40.7306,"major":true,"type":11,"startYear":-330,"endYear":300},{"id":"21511","name":"Sakkaia","modern":"Shaqqa (Sakkaia)","lat":32.8972,"lng":36.6972,"major":true,"type":11,"startYear":-30,"endYear":640},{"id":"21512","name":"Philippopolis","modern":"Shahba","lat":32.8539,"lng":36.6282,"major":true,"type":11,"startYear":-30,"endYear":640},{"id":"21513","name":"Canatha","modern":"Qanawat (Canatha)","lat":32.7542,"lng":36.6185,"major":true,"type":11,"startYear":-330,"endYear":640},{"id":"21514","name":"Dionysias","modern":"As-Suwayda","lat":32.706,"lng":36.565,"major":true,"type":11,"startYear":-30,"endYear":640},{"id":"21517","name":"Adraha","modern":"Daraa","lat":32.6124,"lng":36.0997,"major":true,"type":11,"startYear":-30,"endYear":640},{"id":"21519","name":"Byblos","modern":"Byblos","lat":34.119,"lng":35.6457,"major":true,"type":11,"startYear":-550,"endYear":640,"greek":"Βύβλος"},{"id":"21520","name":"Laranda","modern":"Karaman","lat":37.1835,"lng":33.2153,"major":true,"type":11,"startYear":-550,"endYear":640,"greek":"Λάρανδα"},{"id":"21521","name":"Derbe","modern":"Kerti Hüyük","lat":37.3486,"lng":33.3615,"major":true,"type":11,"startYear":-330,"endYear":300,"greek":"Δέρβη"},{"id":"21522","name":"Lystra","modern":"Hatunsaray","lat":37.602,"lng":32.3385,"major":true,"type":11,"startYear":-30,"endYear":640,"greek":"Λύστρα"},{"id":"21523","name":"Ouasada","modern":"Bostandere","lat":37.5021,"lng":31.9118,"major":true,"type":11,"startYear":-330,"endYear":640},{"id":"21524","name":"Amblada","modern":"Hisartepe","lat":37.5186,"lng":31.7386,"major":true,"type":11,"startYear":-330,"endYear":640},{"id":"21525","name":"*Mistea","modern":"Beyşehir","lat":37.6764,"lng":31.7261,"major":true,"type":11,"startYear":-330,"endYear":640},{"id":"21526","name":"Pappa","modern":"Yunuslar","lat":37.9031,"lng":31.9231,"major":true,"type":11,"startYear":-30,"endYear":640},{"id":"21527","name":"Neapolis","modern":"Kıyakdede","lat":37.9685,"lng":31.4813,"major":true,"type":11,"startYear":-330,"endYear":640},{"id":"21528","name":"Tyriaion?","modern":"Ilgın","lat":38.2792,"lng":31.9139,"major":true,"type":11,"startYear":-550,"endYear":640},{"id":"21529","name":"Hadrianoupolis","modern":"Doğanhisar","lat":38.1447,"lng":31.6781,"major":true,"type":11,"startYear":-30,"endYear":640},{"id":"21530","name":"Philomelion","modern":"Akşehir","lat":38.3559,"lng":31.4154,"major":true,"type":11,"startYear":-330,"endYear":640,"greek":"Φιλομήλιον"},{"id":"21531","name":"(Col. Iulia Aug. Felix) Germa","modern":"Babadat","lat":39.5318,"lng":31.6269,"major":true,"type":11,"startYear":-30,"endYear":640},{"id":"21532","name":"Metropolis","modern":"Tatarlı","lat":38.2418,"lng":30.4948,"major":true,"type":11,"startYear":-330,"endYear":640},{"id":"21533","name":"Parlais","modern":"Barla","lat":38.0167,"lng":30.7833,"major":true,"type":11,"startYear":-30,"endYear":640},{"id":"21534","name":"Conana","modern":"Gönen","lat":37.956,"lng":30.515,"major":true,"type":11,"startYear":-330,"endYear":640},{"id":"21535","name":"Apollonia","modern":"Uluborlu","lat":38.0725,"lng":30.4705,"major":true,"type":11,"startYear":-330,"endYear":640},{"id":"21536","name":"Fulvia","modern":"Işıklı","lat":38.3259,"lng":29.8506,"major":true,"type":11,"startYear":-330,"endYear":640,"greek":"Εὐμένεια"},{"id":"21537","name":"Miletopolis","modern":"Karacabey","lat":40.2098,"lng":28.3608,"major":true,"type":11,"startYear":-550,"endYear":640,"greek":"Μιλητούπολις/Μιλητόπολις"},{"id":"21538","name":"Daskyleion","modern":"Ergili","lat":40.1327,"lng":28.0507,"major":true,"type":11,"startYear":-750,"endYear":300,"greek":"Δασκύλειον/Δασκύλιον"},{"id":"21539","name":"Poimanenon","modern":"Alexa","lat":40.079,"lng":27.8923,"major":true,"type":11,"startYear":-30,"endYear":640},{"id":"21540","name":"Zeleia","modern":"Sarıköy","lat":40.2036,"lng":27.5951,"major":true,"type":11,"startYear":-750,"endYear":300},{"id":"21541","name":"Lampsacus","modern":"Lapseki","lat":40.3487,"lng":26.69,"major":true,"type":11,"startYear":-750,"endYear":300,"greek":"Λάμψακος"},{"id":"21542","name":"Kebren","modern":"Çalıdağı Köyü","lat":39.7125,"lng":26.587,"major":true,"type":11,"startYear":-750,"endYear":640,"greek":"Κέβρην"},{"id":"21543","name":"Adramyttium","modern":"Ören","lat":39.504,"lng":26.9346,"major":true,"type":11,"startYear":-750,"endYear":640,"greek":"Ἀδραμύττιον/Ἀτραμύττιον"},{"id":"21544","name":"Elaia","modern":"Zeytindağ","lat":38.9416,"lng":27.041,"major":true,"type":11,"startYear":-750,"endYear":640,"greek":"Ἐλαία"},{"id":"21549","name":"Ariassos","modern":"Üçkapı","lat":37.1816,"lng":30.4713,"major":true,"type":11,"startYear":-330,"endYear":640},{"id":"21550","name":"Pednelissos","modern":"Kozan","lat":37.2142,"lng":30.9341,"major":true,"type":11,"startYear":-330,"endYear":640},{"id":"21551","name":"Etenna","modern":"Sırtköy","lat":36.9989,"lng":31.4492,"major":true,"type":11,"startYear":-330,"endYear":640,"greek":"Ἔτεννα"},{"id":"21552","name":"Olbasa","modern":"Belenli","lat":37.3045,"lng":29.9957,"major":true,"type":11,"startYear":-330,"endYear":640,"greek":"Ὄλβασα"},{"id":"21553","name":"Pogla","modern":"Çomaklı","lat":37.2871,"lng":30.2498,"major":true,"type":11,"startYear":-330,"endYear":640},{"id":"21554","name":"Comama","modern":"Ürkütlü","lat":37.3207,"lng":30.312,"major":true,"type":11,"startYear":-30,"endYear":640},{"id":"21559","name":"Korakesion","modern":"Alanya","lat":36.5336,"lng":31.9937,"major":true,"type":11,"startYear":-330,"endYear":640,"greek":"Κορακήσιον"},{"id":"21560","name":"Korykos","modern":"Kızkalesi","lat":36.4653,"lng":34.1542,"major":true,"type":11,"startYear":-330,"endYear":640,"greek":"Κώρυκος"},{"id":"21561","name":"Karpasia","modern":"Dipkarpaz","lat":35.6262,"lng":34.3732,"major":true,"type":11,"startYear":-750,"endYear":640,"greek":"Καρπασία/Καρπάσεια"},{"id":"21562","name":"Salamis","modern":"Salamis","lat":35.1793,"lng":33.9029,"major":true,"type":11,"startYear":-750,"endYear":640,"greek":"Σαλαμίς"},{"id":"21563","name":"Kition","modern":"Larnaca","lat":34.9232,"lng":33.6306,"major":true,"type":11,"startYear":-750,"endYear":640,"greek":"Κίτιον"},{"id":"21564","name":"Amathous","modern":"[Amathous]","lat":34.7122,"lng":33.1438,"major":true,"type":11,"startYear":-750,"endYear":640,"greek":"Ἀμαθοῦς"},