[{"id":"chgis-210001","name":"Dingqiang Jun","nameZh":"定羌军","type":"Jun","lat":39.018,"lng":111.076,"startYear":993,"endYear":1004},{"id":"chgis-210003","name":"Baode Zhou","nameZh":"保德州","type":"Zhou","lat":39.016,"lng":111.083,"startYear":1005,"endYear":1374},{"id":"chgis-210004","name":"Huoshan Jun","nameZh":"火山军","type":"Jun","lat":39.168,"lng":111.217,"startYear":982,"endYear":1219},{"id":"chgis-210006","name":"Ao Zhou","nameZh":"隩州","type":"Zhou","lat":39.413,"lng":111.235,"startYear":1120,"endYear":1264},{"id":"chgis-210007","name":"Guan Zhou","nameZh":"管州","type":"Zhou","lat":38.358,"lng":111.94,"startYear":621,"endYear":1268},{"id":"chgis-210012","name":"Xinxing Jun","nameZh":"新兴郡","type":"Jun","lat":38.493,"lng":112.944,"startYear":446,"endYear":555},{"id":"chgis-210014","name":"Xinxing Jun","nameZh":"新兴郡","type":"Jun","lat":38.262,"lng":112.733,"startYear":581,"endYear":583},{"id":"chgis-210018","name":"Silu Jun","nameZh":"肆卢郡","type":"Jun","lat":38.451,"lng":112.688,"startYear":398,"endYear":446},{"id":"chgis-210019","name":"Leping Jun","nameZh":"乐平郡","type":"Jun","lat":37.596,"lng":113.574,"startYear":215,"endYear":582},{"id":"chgis-210021","name":"Shou Zhou","nameZh":"受州","type":"Zhou","lat":37.429,"lng":112.072,"startYear":623,"endYear":624},{"id":"chgis-210022","name":"Shou Zhou","nameZh":"受州","type":"Zhou","lat":37.855,"lng":113.564,"startYear":625,"endYear":633},{"id":"chgis-210023","name":"Pingding Jun","nameZh":"平定军","type":"Jun","lat":37.722,"lng":113.627,"startYear":977,"endYear":978},{"id":"chgis-210024","name":"Pingding Jun","nameZh":"平定军","type":"Jun","lat":37.802,"lng":113.622,"startYear":979,"endYear":1217},{"id":"chgis-210025","name":"Pingjin Jun","nameZh":"平晋军","type":"Jun","lat":37.608,"lng":113.697,"startYear":596,"endYear":978},{"id":"chgis-210026","name":"Taiyuan Jun","nameZh":"太原郡","type":"Jun","lat":37.74,"lng":112.488,"startYear":-247,"endYear":722},{"id":"chgis-210030","name":"Bing Zhou","nameZh":"并州","type":"Zhou","lat":37.678,"lng":112.745,"startYear":979,"endYear":981},{"id":"chgis-210035","name":"Lan Zhou","nameZh":"岚州","type":"Zhou","lat":38.391,"lng":111.693,"startYear":623,"endYear":1264},{"id":"chgis-210036","name":"Ze Zhou","nameZh":"帻州","type":"Zhou","lat":37.342,"lng":112.447,"startYear":1216,"endYear":1233},{"id":"chgis-210037","name":"Yanmen Jun","nameZh":"雁门郡","type":"Jun","lat":39.952,"lng":112.303,"startYear":-221,"endYear":51},{"id":"chgis-210040","name":"Yanmen Jun","nameZh":"雁门郡","type":"Jun","lat":39.242,"lng":112.727,"startYear":52,"endYear":544},{"id":"chgis-210041","name":"Yanmen Jun","nameZh":"雁门郡","type":"Jun","lat":39.034,"lng":112.891,"startYear":221,"endYear":515},{"id":"chgis-210043","name":"Si Zhou","nameZh":"肆州","type":"Zhou","lat":38.397,"lng":112.724,"startYear":446,"endYear":499},{"id":"chgis-210047","name":"Dai Zhou","nameZh":"代州","type":"Zhou","lat":39.06,"lng":112.949,"startYear":516,"endYear":1217},{"id":"chgis-210050","name":"Beiling Zhou","nameZh":"北灵州","type":"Zhou","lat":39.193,"lng":113.294,"startYear":543,"endYear":579},{"id":"chgis-210051","name":"Beixian Zhou","nameZh":"北显州","type":"Zhou","lat":38.883,"lng":112.752,"startYear":543,"endYear":579},{"id":"chgis-210057","name":"Fucheng Jun","nameZh":"敷城郡","type":"Jun","lat":38.935,"lng":112.226,"startYear":424,"endYear":445},{"id":"chgis-210058","name":"Ninghua Jun","nameZh":"宁化军","type":"Jun","lat":38.642,"lng":112.101,"startYear":608,"endYear":1217},{"id":"chgis-210060","name":"Wu Zhou","nameZh":"武州","type":"Zhou","lat":39.029,"lng":111.79,"startYear":1040,"endYear":1287},{"id":"chgis-210064","name":"Shi Zhou","nameZh":"石州","type":"Zhou","lat":37.51,"lng":111.135,"startYear":318,"endYear":1260},{"id":"chgis-210065","name":"Dinghu Jun","nameZh":"定胡郡","type":"Jun","lat":37.552,"lng":110.801,"startYear":579,"endYear":580},{"id":"chgis-210066","name":"Dingrong Jun","nameZh":"定戎郡","type":"Jun","lat":37.171,"lng":111.809,"startYear":529,"endYear":560},{"id":"chgis-210067","name":"Dingyang Jun","nameZh":"定阳郡","type":"Jun","lat":37.026,"lng":111.912,"startYear":542,"endYear":626},{"id":"chgis-210076","name":"Fen Zhou","nameZh":"汾州","type":"Zhou","lat":37.263,"lng":111.779,"startYear":221,"endYear":1453},{"id":"chgis-210078","name":"Kuhu Jun","nameZh":"窟胡郡","type":"Jun","lat":37.438,"lng":111.115,"startYear":579,"endYear":582},{"id":"chgis-210079","name":"Tujing Jun","nameZh":"吐京郡","type":"Jun","lat":36.996,"lng":110.827,"startYear":448,"endYear":582},{"id":"chgis-210080","name":"Tujing Jun","nameZh":"吐京郡","type":"Jun","lat":37.13,"lng":111.696,"startYear":526,"endYear":560},{"id":"chgis-210082","name":"Wuchang Jun","nameZh":"武昌郡","type":"Jun","lat":37.2,"lng":111.748,"startYear":546,"endYear":560},{"id":"chgis-210083","name":"Xian Zhou","nameZh":"显州","type":"Zhou","lat":37.138,"lng":111.757,"startYear":529,"endYear":571},{"id":"chgis-210086","name":"Leping Jun","nameZh":"乐平郡","type":"Jun","lat":37.337,"lng":113.557,"startYear":526,"endYear":555},{"id":"chgis-210088","name":"Wuxiang Jun","nameZh":"武乡郡","type":"Jun","lat":37.071,"lng":112.964,"startYear":317,"endYear":622},{"id":"chgis-210091","name":"Xiang Jun","nameZh":"乡郡","type":"Jun","lat":36.944,"lng":112.663,"startYear":433,"endYear":576},{"id":"chgis-210092","name":"Xiang Jun","nameZh":"乡郡","type":"Jun","lat":36.827,"lng":112.916,"startYear":491,"endYear":582},{"id":"chgis-210094","name":"Weisheng Jun","nameZh":"威胜军","type":"Jun","lat":36.757,"lng":112.699,"startYear":977,"endYear":1453},{"id":"chgis-210096","name":"Dai Jun","nameZh":"代郡","type":"Jun","lat":40.354,"lng":113.752,"startYear":40,"endYear":534},{"id":"chgis-210098","name":"Lingqiu Jun","nameZh":"灵丘郡","type":"Jun","lat":39.429,"lng":114.267,"startYear":453,"endYear":605},{"id":"chgis-210107","name":"Wei Zhou","nameZh":"蔚州","type":"Zhou","lat":39.438,"lng":114.229,"startYear":631,"endYear":741},{"id":"chgis-210108","name":"Ying Zhou","nameZh":"应州","type":"Zhou","lat":39.562,"lng":113.244,"startYear":577,"endYear":877},{"id":"chgis-210109","name":"Ying Zhou","nameZh":"应州","type":"Zhou","lat":39.56,"lng":113.182,"startYear":878,"endYear":1287},{"id":"chgis-210112","name":"Yun Zhou","nameZh":"云州","type":"Zhou","lat":40.093,"lng":113.296,"startYear":398,"endYear":1453},{"id":"chgis-210125","name":"Shuo Zhou","nameZh":"朔州","type":"Zhou","lat":39.354,"lng":112.61,"startYear":782,"endYear":785},{"id":"chgis-210126","name":"Shuo Zhou","nameZh":"朔州","type":"Zhou","lat":39.308,"lng":112.422,"startYear":555,"endYear":1287},{"id":"chgis-210129","name":"Dingxiang Jun","nameZh":"定襄郡","type":"Jun","lat":40.16,"lng":112.344,"startYear":23,"endYear":212},{"id":"chgis-210131","name":"Huan Zhou","nameZh":"寰州","type":"Zhou","lat":39.333,"lng":112.447,"startYear":926,"endYear":997},{"id":"chgis-210132","name":"Sanggan Jun","nameZh":"桑干郡","type":"Jun","lat":39.335,"lng":112.587,"startYear":467,"endYear":526},{"id":"chgis-210134","name":"Taiping Jun","nameZh":"太平郡","type":"Jun","lat":39.211,"lng":112.768,"startYear":555,"endYear":576},{"id":"chgis-210138","name":"Yong'an Jun","nameZh":"永安郡","type":"Jun","lat":36.564,"lng":111.728,"startYear":528,"endYear":1259},{"id":"chgis-210142","name":"Dongyong Zhou","nameZh":"东雍州","type":"Zhou","lat":35.559,"lng":111.154,"startYear":443,"endYear":576},{"id":"chgis-210144","name":"Jiang Zhou","nameZh":"绛州","type":"Zhou","lat":35.351,"lng":111.297,"startYear":560,"endYear":560},{"id":"chgis-210146","name":"Jiang Zhou","nameZh":"绛州","type":"Zhou","lat":35.58,"lng":110.913,"startYear":577,"endYear":582},{"id":"chgis-210148","name":"Jiang Zhou","nameZh":"绛州","type":"Zhou","lat":35.614,"lng":111.22,"startYear":494,"endYear":1259},{"id":"chgis-210150","name":"Gaoliang Jun","nameZh":"高凉郡","type":"Jun","lat":35.58,"lng":111.079,"startYear":483,"endYear":582},{"id":"chgis-210151","name":"Longmen Jun","nameZh":"龙门郡","type":"Jun","lat":35.576,"lng":110.662,"startYear":538,"endYear":643},{"id":"chgis-210152","name":"Nanjiang Jun","nameZh":"南绛郡","type":"Jun","lat":35.637,"lng":111.657,"startYear":528,"endYear":576},{"id":"chgis-210154","name":"Jiang Jun","nameZh":"绛郡","type":"Jun","lat":35.472,"lng":111.606,"startYear":539,"endYear":583},{"id":"chgis-210160","name":"Hebei Jun","nameZh":"河北郡","type":"Jun","lat":34.685,"lng":110.637,"startYear":384,"endYear":486},{"id":"chgis-210161","name":"Hebei Jun","nameZh":"河北郡","type":"Jun","lat":34.817,"lng":111.185,"startYear":487,"endYear":582},{"id":"chgis-210165","name":"Jie Zhou","nameZh":"解州","type":"Zhou","lat":34.912,"lng":110.855,"startYear":948,"endYear":1219},{"id":"chgis-210166","name":"Jie Zhou","nameZh":"解州","type":"Zhou","lat":34.802,"lng":111.113,"startYear":1120,"endYear":1230},{"id":"chgis-210169","name":"Shangdang Jun","nameZh":"上党郡","type":"Jun","lat":36.12,"lng":112.874,"startYear":-204,"endYear":188},{"id":"chgis-210171","name":"Shangdang Jun","nameZh":"上党郡","type":"Jun","lat":36.424,"lng":113.355,"startYear":265,"endYear":353},{"id":"chgis-210174","name":"Shangdang Jun","nameZh":"上党郡","type":"Jun","lat":36.567,"lng":113.091,"startYear":354,"endYear":449},{"id":"chgis-210178","name":"Lu Zhou","nameZh":"潞州","type":"Zhou","lat":36.184,"lng":113.103,"startYear":-221,"endYear":1453},{"id":"chgis-210181","name":"Bing Zhou","nameZh":"并州","type":"Zhou","lat":36.52,"lng":113.436,"startYear":305,"endYear":306},{"id":"chgis-210183","name":"Xiangyuan Jun","nameZh":"襄垣郡","type":"Jun","lat":36.538,"lng":113.048,"startYear":528,"endYear":606},{"id":"chgis-210195","name":"Fenxi Jun","nameZh":"汾西郡","type":"Jun","lat":36.651,"lng":111.563,"startYear":555,"endYear":581},{"id":"chgis-210203","name":"Jin Zhou","nameZh":"晋州","type":"Zhou","lat":36.058,"lng":111.415,"startYear":247,"endYear":1115},{"id":"chgis-210204","name":"Pingyang Fu","nameZh":"平阳府","type":"Zhou","lat":36.078,"lng":111.515,"startYear":526,"endYear":1453},{"id":"chgis-210210","name":"Qinchang Jun","nameZh":"禽昌郡","type":"Jun","lat":36.189,"lng":110.688,"startYear":428,"endYear":440},{"id":"chgis-210211","name":"Wucheng Jun","nameZh":"五城郡","type":"Jun","lat":36.219,"lng":110.507,"startYear":452,"endYear":582},{"id":"chgis-210212","name":"Xihe Jun","nameZh":"西河郡","type":"Jun","lat":36.097,"lng":111.544,"startYear":526,"endYear":581},{"id":"chgis-210213","name":"Zhongyang Jun","nameZh":"中阳郡","type":"Jun","lat":35.982,"lng":110.791,"startYear":474,"endYear":581},{"id":"chgis-210217","name":"Hedong Jun","nameZh":"河东郡","type":"Jun","lat":35.18,"lng":111.16,"startYear":-204,"endYear":427},{"id":"chgis-210225","name":"Hezhong Fu","nameZh":"河中府","type":"Fu","lat":34.835,"lng":110.332,"startYear":351,"endYear":1259},{"id":"chgis-210227","name":"Rong Zhou","nameZh":"荣州","type":"Zhou","lat":35.312,"lng":110.483,"startYear":561,"endYear":1259},{"id":"chgis-210228","name":"Chang Zhou","nameZh":"昌州","type":"Zhou","lat":36.411,"lng":111.089,"startYear":619,"endYear":627},{"id":"chgis-210230","name":"Linhe Jun","nameZh":"临河郡","type":"Jun","lat":36.702,"lng":110.604,"startYear":570,"endYear":582},{"id":"chgis-210231","name":"Longquan Jun","nameZh":"龙泉郡","type":"Jun","lat":36.831,"lng":111.027,"startYear":579,"endYear":584},{"id":"chgis-210235","name":"Shicheng Jun","nameZh":"石城郡","type":"Jun","lat":36.341,"lng":111.298,"startYear":564,"endYear":581},{"id":"chgis-210237","name":"Anping Jun","nameZh":"安平郡","type":"Jun","lat":35.757,"lng":112.367,"startYear":492,"endYear":586},{"id":"chgis-210240","name":"Jianxing Jun","nameZh":"建兴郡","type":"Jun","lat":35.66,"lng":112.793,"startYear":368,"endYear":447},{"id":"chgis-210241","name":"Jianxing Jun","nameZh":"建兴郡","type":"Jun","lat":35.592,"lng":112.953,"startYear":465,"endYear":623},{"id":"chgis-210242","name":"Taining Jun","nameZh":"泰宁郡","type":"Jun","lat":35.746,"lng":112.056,"startYear":527,"endYear":553},{"id":"chgis-210243","name":"Changping Jun","nameZh":"长平郡","type":"Jun","lat":35.792,"lng":112.92,"startYear":529,"endYear":622},{"id":"chgis-210262","name":"Bing Zhou","nameZh":"并州","type":"Zhou","lat":37.874,"lng":112.565,"startYear":307,"endYear":1367},{"id":"chgis-210266","name":"Bao Zhou","nameZh":"保州","type":"Zhou","lat":38.856,"lng":115.502,"startYear":966,"endYear":1453},{"id":"chgis-210272","name":"Wan Zhou","nameZh":"完州","type":"Zhou","lat":38.835,"lng":115.133,"startYear":1214,"endYear":1239},{"id":"chgis-210273","name":"Xiong Zhou","nameZh":"雄州","type":"Zhou","lat":38.976,"lng":116.093,"startYear":959,"endYear":1240},{"id":"chgis-210274","name":"Qi Zhou","nameZh":"祁州","type":"Zhou","lat":38.175,"lng":114.97,"startYear":893,"endYear":1003},{"id":"chgis-210275","name":"Qi Zhou","nameZh":"祁州","type":"Zhou","lat":38.412,"lng":115.317,"startYear":1004,"endYear":1215},{"id":"chgis-210276","name":"An Zhou","nameZh":"安州","type":"Zhou","lat":38.875,"lng":115.817,"startYear":992,"endYear":1207},{"id":"chgis-210277","name":"An Zhou","nameZh":"安州","type":"Zhou","lat":38.92,"lng":115.924,"startYear":1208,"endYear":1265},{"id":"chgis-210286","name":"Daming Fu","nameZh":"大名府","type":"Fu","lat":36.276,"lng":115.147,"startYear":1402,"endYear":1453},{"id":"chgis-210287","name":"Chan Zhou","nameZh":"澶州","type":"Zhou","lat":35.759,"lng":115.03,"startYear":938,"endYear":1105},{"id":"chgis-210288","name":"Kai Zhou","nameZh":"开州","type":"Zhou","lat":35.766,"lng":115.013,"startYear":1106,"endYear":1228},{"id":"chgis-210292","name":"Ding Zhou","nameZh":"定州","type":"Zhou","lat":38.52,"lng":114.975,"startYear":581,"endYear":1368},{"id":"chgis-210298","name":"Min Zhou","nameZh":"洺州","type":"Zhou","lat":36.701,"lng":114.723,"startYear":82,"endYear":1453},{"id":"chgis-210302","name":"Bei Zhou","nameZh":"贝州","type":"Zhou","lat":37.085,"lng":115.615,"startYear":551,"endYear":859},{"id":"chgis-210303","name":"Bei Zhou","nameZh":"贝州","type":"Zhou","lat":37.073,"lng":115.624,"startYear":860,"endYear":1122},{"id":"chgis-210306","name":"Yin Zhou","nameZh":"瀛州","type":"Zhou","lat":38.436,"lng":116.086,"startYear":387,"endYear":1453},{"id":"chgis-210311","name":"Mo Zhou","nameZh":"莫州","type":"Zhou","lat":38.858,"lng":116.112,"startYear":711,"endYear":1072},{"id":"chgis-210317","name":"Ji Zhou","nameZh":"冀州","type":"Zhou","lat":37.566,"lng":115.564,"startYear":-155,"endYear":1237},{"id":"chgis-210319","name":"Jing'an Jun","nameZh":"静安军","type":"Jun","lat":37.995,"lng":115.631,"startYear":955,"endYear":983},{"id":"chgis-210322","name":"Shen Zhou","nameZh":"深州","type":"Zhou","lat":38.236,"lng":115.725,"startYear":623,"endYear":642},{"id":"chgis-210324","name":"Shen Zhou","nameZh":"深州","type":"Zhou","lat":38.005,"lng":115.523,"startYear":713,"endYear":1005},{"id":"chgis-210326","name":"Xiangguo Jun","nameZh":"襄国郡","type":"Jun","lat":36.783,"lng":114.477,"startYear":561,"endYear":620},{"id":"chgis-210328","name":"Beiguangping Jun","nameZh":"北广平郡","type":"Jun","lat":36.998,"lng":114.686,"startYear":527,"endYear":620},{"id":"chgis-210330","name":"Tianjinsan Wei","nameZh":"天津三卫","type":"Wei","lat":39.137,"lng":117.188,"startYear":1404,"endYear":1453},{"id":"chgis-210333","name":"Cang Zhou","nameZh":"沧州","type":"Zhou","lat":37.912,"lng":117.064,"startYear":517,"endYear":606},{"id":"chgis-210335","name":"Cang Zhou","nameZh":"沧州","type":"Zhou","lat":38.205,"lng":117.026,"startYear":-170,"endYear":1264},{"id":"chgis-210338","name":"Yi Zhou","nameZh":"易州","type":"Zhou","lat":39.349,"lng":115.493,"startYear":581,"endYear":1240},{"id":"chgis-210343","name":"Zhao Zhou","nameZh":"赵州","type":"Zhou","lat":37.753,"lng":114.772,"startYear":387,"endYear":1235},{"id":"chgis-210345","name":"Changshan Jun","nameZh":"常山郡","type":"Jun","lat":38.14,"lng":114.564,"startYear":-154,"endYear":1453},{"id":"chgis-210354","name":"Guchengdengchujunmin Wanhufu","nameZh":"鼓城等处军民万户府","type":"Wanhufu","lat":38.028,"lng":115.038,"startYear":1238,"endYear":1260},{"id":"chgis-210356","name":"Julu Jun","nameZh":"巨鹿郡","type":"Jun","lat":38.03,"lng":114.834,"startYear":554,"endYear":1234},{"id":"chgis-210360","name":"Zhao Guo","nameZh":"赵国","type":"Guo","lat":37.581,"lng":114.562,"startYear":232,"endYear":386},{"id":"chgis-210362","name":"Julu Jun","nameZh":"巨鹿郡","type":"Jun","lat":36.982,"lng":114.912,"startYear":-221,"endYear":620},{"id":"chgis-210363","name":"Julu Guo","nameZh":"巨鹿国","type":"Guo","lat":37.595,"lng":114.919,"startYear":265,"endYear":553},{"id":"chgis-210371","name":"Qinghe Jun","nameZh":"清河郡","type":"Jun","lat":36.756,"lng":116.073,"startYear":148,"endYear":550},{"id":"chgis-210375","name":"Bohai Jun","nameZh":"勃海郡","type":"Jun","lat":38.067,"lng":116.743,"startYear":132,"endYear":544},{"id":"chgis-210379","name":"Guangping Jun","nameZh":"广平郡","type":"Jun","lat":36.856,"lng":114.932,"startYear":-122,"endYear":582},{"id":"chgis-210384","name":"Hejian Guo","nameZh":"河间国","type":"Guo","lat":38.177,"lng":116.204,"startYear":-221,"endYear":386},{"id":"chgis-210387","name":"Boling Jun","nameZh":"博陵郡","type":"Jun","lat":38.442,"lng":115.591,"startYear":158,"endYear":582},{"id":"chgis-210389","name":"Zhangwu Jun","nameZh":"章武郡","type":"Jun","lat":38.694,"lng":116.633,"startYear":215,"endYear":582},{"id":"chgis-210392","name":"Beiping Jun","nameZh":"北平郡","type":"Jun","lat":39.819,"lng":118.187,"startYear":30,"endYear":477},{"id":"chgis-210393","name":"Liaoxi Jun","nameZh":"辽西郡","type":"Jun","lat":39.854,"lng":119.002,"startYear":265,"endYear":337},{"id":"chgis-210394","name":"Guangning Jun","nameZh":"广宁郡","type":"Jun","lat":40.218,"lng":115.391,"startYear":283,"endYear":552},{"id":"chgis-210395","name":"Daxing Fu","nameZh":"大兴府","type":"Fu","lat":39.925,"lng":116.368,"startYear":1215,"endYear":1453},{"id":"chgis-210404","name":"Yan Jun","nameZh":"燕郡","type":"Jun","lat":39.92,"lng":116.349,"startYear":-220,"endYear":1367},{"id":"chgis-210417","name":"Kehan Zhou","nameZh":"可汗州","type":"Zhou","lat":40.478,"lng":115.796,"startYear":907,"endYear":937},{"id":"chgis-210418","name":"Kehan Zhou","nameZh":"可汗州","type":"Zhou","lat":40.346,"lng":115.679,"startYear":702,"endYear":1122},{"id":"chgis-210420","name":"Fengsheng Zhou","nameZh":"奉圣州","type":"Zhou","lat":40.375,"lng":115.216,"startYear":885,"endYear":1265},{"id":"chgis-210421","name":"Ru Zhou","nameZh":"儒州","type":"Zhou","lat":40.458,"lng":115.965,"startYear":984,"endYear":1140},{"id":"chgis-210429","name":"Guihua Zhou","nameZh":"归化州","type":"Zhou","lat":40.61,"lng":115.051,"startYear":938,"endYear":1453},{"id":"chgis-210430","name":"Liaoxi Jun","nameZh":"辽西郡","type":"Jun","lat":39.995,"lng":118.639,"startYear":338,"endYear":383},{"id":"chgis-210431","name":"Liaoxi Jun","nameZh":"辽西郡","type":"Jun","lat":40.077,"lng":118.864,"startYear":384,"endYear":555},{"id":"chgis-210435","name":"Bing Zhou","nameZh":"平州","type":"Zhou","lat":39.877,"lng":118.862,"startYear":478,"endYear":1453},{"id":"chgis-210446","name":"Jinan Guo","nameZh":"济南国","type":"Guo","lat":36.787,"lng":117.421,"startYear":-187,"endYear":281},{"id":"chgis-210450","name":"Qi Zhou","nameZh":"齐州","type":"Zhou","lat":36.666,"lng":116.976,"startYear":282,"endYear":1453},{"id":"chgis-210454","name":"Jibei Guo","nameZh":"济北国","type":"Guo","lat":36.469,"lng":116.845,"startYear":90,"endYear":266},{"id":"chgis-210455","name":"Jibei Jun","nameZh":"济北郡","type":"Jun","lat":36.185,"lng":116.765,"startYear":430,"endYear":551},{"id":"chgis-210460","name":"De Zhou","nameZh":"德州","type":"Zhou","lat":37.335,"lng":116.567,"startYear":483,"endYear":1367},{"id":"chgis-210464","name":"Pingyuan Jun","nameZh":"平原郡","type":"Jun","lat":37.065,"lng":116.345,"startYear":-154,"endYear":583},{"id":"chgis-210469","name":"Le'an Jun","nameZh":"乐安郡","type":"Guo","lat":36.957,"lng":117.855,"startYear":225,"endYear":432},{"id":"chgis-210470","name":"Le'an Jun","nameZh":"乐安郡","type":"Guo","lat":37.115,"lng":118.401,"startYear":433,"endYear":583},{"id":"chgis-210471","name":"Le'an Jun","nameZh":"乐安郡","type":"Jun","lat":37.097,"lng":117.954,"startYear":14,"endYear":224},{"id":"chgis-210474","name":"Zi Zhou","nameZh":"淄州","type":"Zhou","lat":36.646,"lng":117.961,"startYear":598,"endYear":1368},{"id":"chgis-210480","name":"Di Zhou","nameZh":"棣州","type":"Zhou","lat":37.616,"lng":117.565,"startYear":586,"endYear":622},{"id":"chgis-210484","name":"Di Zhou","nameZh":"棣州","type":"Zhou","lat":37.378,"lng":117.643,"startYear":643,"endYear":908},{"id":"chgis-210485","name":"Di Zhou","nameZh":"棣州","type":"Zhou","lat":37.304,"lng":117.651,"startYear":909,"endYear":1014},{"id":"chgis-210486","name":"Di Zhou","nameZh":"棣州","type":"Zhou","lat":37.483,"lng":117.503,"startYear":220,"endYear":1278},{"id":"chgis-210489","name":"Bin Zhou","nameZh":"滨州","type":"Zhou","lat":37.48,"lng":117.962,"startYear":956,"endYear":1369},{"id":"chgis-210502","name":"Qi Jun","nameZh":"齐郡","type":"Jun","lat":36.851,"lng":118.344,"startYear":-221,"endYear":593},{"id":"chgis-210504","name":"Qing Zhou","nameZh":"青州","type":"Zhou","lat":36.688,"lng":118.478,"startYear":607,"endYear":1453},{"id":"chgis-210506","name":"Mi Zhou","nameZh":"密州","type":"Zhou","lat":35.995,"lng":119.395,"startYear":14,"endYear":1278},{"id":"chgis-210509","name":"Deng Zhou","nameZh":"登州","type":"Zhou","lat":37.81,"lng":120.752,"startYear":707,"endYear":1453},{"id":"chgis-210511","name":"Ninghai Zhou","nameZh":"宁海州","type":"Zhou","lat":37.386,"lng":121.595,"startYear":596,"endYear":1367},{"id":"chgis-210513","name":"Donglai Jun","nameZh":"东莱郡","type":"Jun","lat":37.657,"lng":120.674,"startYear":140,"endYear":221},{"id":"chgis-210519","name":"Lai Zhou","nameZh":"莱州","type":"Zhou","lat":37.176,"lng":119.938,"startYear":-153,"endYear":1453},{"id":"chgis-210520","name":"Beihai Jun","nameZh":"北海郡","type":"Jun","lat":36.556,"lng":118.626,"startYear":-148,"endYear":26},{"id":"chgis-210526","name":"Beihai Jun","nameZh":"北海郡","type":"Jun","lat":36.63,"lng":118.888,"startYear":27,"endYear":606},{"id":"chgis-210528","name":"Jiaodong Guo","nameZh":"胶东国","type":"Guo","lat":36.588,"lng":120.16,"startYear":-164,"endYear":8},{"id":"chgis-210532","name":"Langxie Jun","nameZh":"琅邪郡","type":"Jun","lat":35.689,"lng":119.853,"startYear":-221,"endYear":13},{"id":"chgis-210539","name":"Langxie Jun","nameZh":"琅邪郡","type":"Jun","lat":35.088,"lng":118.519,"startYear":431,"endYear":582},{"id":"chgis-210541","name":"Yi Zhou","nameZh":"沂州","type":"Zhou","lat":35.061,"lng":118.331,"startYear":80,"endYear":1278},{"id":"chgis-210543","name":"Tan Jun","nameZh":"郯郡","type":"Jun","lat":34.637,"lng":118.34,"startYear":-221,"endYear":426},{"id":"chgis-210550","name":"Donghai Jun","nameZh":"东海郡","type":"Jun","lat":34.702,"lng":117.853,"startYear":427,"endYear":552},{"id":"chgis-210554","name":"Yan Zhou","nameZh":"兖州","type":"Zhou","lat":35.553,"lng":116.824,"startYear":606,"endYear":1453},{"id":"chgis-210558","name":"Fan Jun","nameZh":"蕃郡","type":"Jun","lat":35.111,"lng":117.09,"startYear":527,"endYear":556},{"id":"chgis-210560","name":"Tengyang Jun","nameZh":"滕阳军","type":"Jun","lat":35.084,"lng":117.155,"startYear":1118,"endYear":1230},{"id":"chgis-210562","name":"Lanling Jun","nameZh":"兰陵郡","type":"Jun","lat":34.764,"lng":117.584,"startYear":291,"endYear":628},{"id":"chgis-210564","name":"Lanling Jun","nameZh":"兰陵郡","type":"Jun","lat":34.997,"lng":117.33,"startYear":426,"endYear":582},{"id":"chgis-210567","name":"Rencheng Guo","nameZh":"任城国","type":"Guo","lat":35.237,"lng":116.695,"startYear":84,"endYear":421},{"id":"chgis-210572","name":"Ji Zhou","nameZh":"济州","type":"Zhou","lat":36.378,"lng":116.207,"startYear":423,"endYear":753},{"id":"chgis-210574","name":"Ji Zhou","nameZh":"济州","type":"Zhou","lat":35.391,"lng":116.085,"startYear":8,"endYear":1346},{"id":"chgis-210575","name":"Ji Zhou","nameZh":"济州","type":"Zhou","lat":35.408,"lng":116.589,"startYear":518,"endYear":1384},{"id":"chgis-210588","name":"Gaoping Jun","nameZh":"高平郡","type":"Jun","lat":35.14,"lng":116.127,"startYear":-144,"endYear":425},{"id":"chgis-210592","name":"Puyang Jun","nameZh":"濮阳郡","type":"Jun","lat":35.65,"lng":114.948,"startYear":277,"endYear":387},{"id":"chgis-210596","name":"Pu Zhou","nameZh":"濮州","type":"Zhou","lat":35.668,"lng":115.505,"startYear":309,"endYear":1368},{"id":"chgis-210599","name":"Dongping Guo","nameZh":"东平国","type":"Guo","lat":35.864,"lng":116.558,"startYear":-52,"endYear":7},{"id":"chgis-210600","name":"Dongping Guo","nameZh":"东平国","type":"Guo","lat":35.973,"lng":116.389,"startYear":39,"endYear":1373},{"id":"chgis-210607","name":"Jibei Guo","nameZh":"济北国","type":"Guo","lat":36.21,"lng":116.289,"startYear":267,"endYear":280},{"id":"chgis-210617","name":"Jiyin Jun","nameZh":"济阴郡","type":"Jun","lat":35.089,"lng":115.552,"startYear":-144,"endYear":387},{"id":"chgis-210622","name":"Cao Zhou","nameZh":"曹州","type":"Zhou","lat":35.041,"lng":115.432,"startYear":388,"endYear":1167},{"id":"chgis-210626","name":"Cao Zhou","nameZh":"曹州","type":"Zhou","lat":35.247,"lng":115.45,"startYear":1168,"endYear":1367},{"id":"chgis-210627","name":"Cao Zhou","nameZh":"曹州","type":"Zhou","lat":34.828,"lng":115.539,"startYear":1369,"endYear":1370},{"id":"chgis-210628","name":"Taishan Jun","nameZh":"泰山郡","type":"Jun","lat":36.211,"lng":117.384,"startYear":-122,"endYear":387},{"id":"chgis-210629","name":"Taishan Jun","nameZh":"泰山郡","type":"Jun","lat":36.178,"lng":117.132,"startYear":-221,"endYear":626},{"id":"chgis-210633","name":"Tai'an Zhou","nameZh":"泰安州","type":"Zhou","lat":36.189,"lng":117.116,"startYear":1124,"endYear":1368},{"id":"chgis-210636","name":"Bo Zhou","nameZh":"博州","type":"Zhou","lat":36.524,"lng":116.078,"startYear":596,"endYear":937},{"id":"chgis-210637","name":"Bo Zhou","nameZh":"博州","type":"Zhou","lat":36.4,"lng":116.071,"startYear":938,"endYear":977},{"id":"chgis-210638","name":"Bo Zhou","nameZh":"博州","type":"Zhou","lat":36.454,"lng":115.972,"startYear":978,"endYear":1453},{"id":"chgis-210643","name":"Gaotang Zhou","nameZh":"高唐州","type":"Zhou","lat":36.857,"lng":116.224,"startYear":1270,"endYear":1367},{"id":"chgis-210646","name":"Yangping Jun","nameZh":"阳平郡","type":"Jun","lat":36.526,"lng":115.316,"startYear":395,"endYear":626},{"id":"chgis-210648","name":"Dongguan Jun","nameZh":"东莞郡","type":"Jun","lat":35.95,"lng":118.76,"startYear":198,"endYear":296},{"id":"chgis-210649","name":"Dongguan Jun","nameZh":"东莞郡","type":"Jun","lat":35.58,"lng":118.829,"startYear":41,"endYear":551},{"id":"chgis-210650","name":"Lin Zhou","nameZh":"林州","type":"Zhou","lat":36.063,"lng":113.815,"startYear":596,"endYear":1264},{"id":"chgis-210652","name":"Linlu Jun","nameZh":"林虑郡","type":"Jun","lat":36.062,"lng":114.182,"startYear":528,"endYear":582},{"id":"chgis-210653","name":"Wei Jun","nameZh":"魏郡","type":"Jun","lat":36.269,"lng":114.396,"startYear":-195,"endYear":579},{"id":"chgis-210657","name":"Xiang Zhou","nameZh":"相州","type":"Zhou","lat":36.101,"lng":114.346,"startYear":580,"endYear":1453},{"id":"chgis-210661","name":"Chaoge Jun","nameZh":"朝歌郡","type":"Jun","lat":35.604,"lng":114.195,"startYear":222,"endYear":266},{"id":"chgis-210662","name":"Dongyan Jun","nameZh":"东燕郡","type":"Jun","lat":35.188,"lng":114.275,"startYear":320,"endYear":387},{"id":"chgis-210663","name":"Hui Zhou","nameZh":"辉州","type":"Zhou","lat":35.46,"lng":113.797,"startYear":618,"endYear":1265},{"id":"chgis-210664","name":"Ji Jun","nameZh":"汲郡","type":"Jun","lat":35.386,"lng":113.97,"startYear":266,"endYear":577},{"id":"chgis-210665","name":"Ji Jun","nameZh":"汲郡","type":"Jun","lat":35.516,"lng":114.283,"startYear":386,"endYear":487},{"id":"chgis-210669","name":"Wei Zhou","nameZh":"卫州","type":"Zhou","lat":35.416,"lng":114.069,"startYear":627,"endYear":1453},{"id":"chgis-210681","name":"Jun Zhou","nameZh":"浚州","type":"Zhou","lat":35.684,"lng":114.597,"startYear":348,"endYear":1219},{"id":"chgis-210686","name":"Xiuwu Jun","nameZh":"修武郡","type":"Jun","lat":35.26,"lng":113.652,"startYear":562,"endYear":582},{"id":"chgis-210688","name":"Henei Jun","nameZh":"河内郡","type":"Jun","lat":35.047,"lng":113.252,"startYear":-206,"endYear":266},{"id":"chgis-210693","name":"Huai Zhou","nameZh":"怀州","type":"Zhou","lat":35.089,"lng":112.939,"startYear":267,"endYear":1453},{"id":"chgis-210699","name":"Meng Zhou","nameZh":"孟州","type":"Zhou","lat":34.9,"lng":112.785,"startYear":621,"endYear":1256},{"id":"chgis-210701","name":"Xingyang Jun","nameZh":"荥阳郡","type":"Jun","lat":34.88,"lng":113.534,"startYear":242,"endYear":492},{"id":"chgis-210702","name":"Xingyang Jun","nameZh":"荥阳郡","type":"Jun","lat":34.787,"lng":113.372,"startYear":447,"endYear":582},{"id":"chgis-210711","name":"Zheng Zhou","nameZh":"郑州","type":"Zhou","lat":34.753,"lng":113.66,"startYear":596,"endYear":1152},{"id":"chgis-210717","name":"Chenliu Guo","nameZh":"陈留国","type":"Gou","lat":34.823,"lng":114.545,"startYear":-41,"endYear":427},{"id":"chgis-210718","name":"Chenliu Jun","nameZh":"陈留郡","type":"Jun","lat":34.863,"lng":114.418,"startYear":428,"endYear":493},{"id":"chgis-210724","name":"Bian Zhou","nameZh":"汴州","type":"Zhou","lat":34.806,"lng":114.315,"startYear":526,"endYear":906},{"id":"chgis-210727","name":"Kaifeng Fu","nameZh":"开封府","type":"Fu","lat":34.79,"lng":114.346,"startYear":907,"endYear":1453},{"id":"chgis-210732","name":"Yingchuan Jun","nameZh":"颍川郡","type":"Jun","lat":34.162,"lng":113.466,"startYear":-230,"endYear":1233},{"id":"chgis-210733","name":"Yingchuan Jun","nameZh":"颍川郡","type":"Jun","lat":34.045,"lng":114.027,"startYear":221,"endYear":430},{"id":"chgis-210734","name":"Xuxhang Jun","nameZh":"许昌郡","type":"Jun","lat":33.992,"lng":113.991,"startYear":535,"endYear":551},{"id":"chgis-210735","name":"Yingchuan Jun","nameZh":"颍川郡","type":"Jun","lat":34.239,"lng":113.841,"startYear":431,"endYear":548},{"id":"chgis-210737","name":"Linying Jun","nameZh":"临颍郡","type":"Jun","lat":33.586,"lng":114.157,"startYear":555,"endYear":582},{"id":"chgis-210739","name":"Xu Zhou","nameZh":"许州","type":"Zhou","lat":34.027,"lng":113.814,"startYear":549,"endYear":1233},{"id":"chgis-210745","name":"Kaifeng Jun","nameZh":"开封郡","type":"Jun","lat":34.659,"lng":114.334,"startYear":534,"endYear":555},{"id":"chgis-210746","name":"Guangwu Jun","nameZh":"广武郡","type":"Jun","lat":34.725,"lng":114.062,"startYear":534,"endYear":564},{"id":"chgis-210747","name":"Guangwu Jun","nameZh":"广武郡","type":"Jun","lat":34.741,"lng":113.817,"startYear":565,"endYear":582},{"id":"chgis-210752","name":"Wei Zhou","nameZh":"洧州","type":"Zhou","lat":34.102,"lng":114.193,"startYear":596,"endYear":606},{"id":"chgis-210754","name":"Xiangcheng Jun","nameZh":"襄城郡","type":"Jun","lat":33.851,"lng":113.475,"startYear":266,"endYear":582},{"id":"chgis-210759","name":"Ru Zhou","nameZh":"汝州","type":"Zhou","lat":34.163,"lng":112.838,"startYear":553,"endYear":1270},{"id":"chgis-210760","name":"Rubei Jun","nameZh":"汝北郡","type":"Jun","lat":34.246,"lng":112.596,"startYear":527,"endYear":534},{"id":"chgis-210761","name":"Rubei Jun","nameZh":"汝北郡","type":"Jun","lat":34.346,"lng":112.97,"startYear":543,"endYear":546},{"id":"chgis-210762","name":"Rubei Jun","nameZh":"汝北郡","type":"Jun","lat":34.127,"lng":112.797,"startYear":547,"endYear":552},{"id":"chgis-210765","name":"Jiyang Jun","nameZh":"济阳郡","type":"Jun","lat":34.957,"lng":114.959,"startYear":301,"endYear":317},{"id":"chgis-210766","name":"Dang Jun","nameZh":"砀郡","type":"Jun","lat":34.18,"lng":116.505,"startYear":-223,"endYear":-201},{"id":"chgis-210768","name":"Dang Jun","nameZh":"砀郡","type":"Jun","lat":34.366,"lng":115.604,"startYear":-202,"endYear":1367},{"id":"chgis-210770","name":"Dang Jun","nameZh":"砀郡","type":"Jun","lat":34.426,"lng":116.481,"startYear":526,"endYear":555},{"id":"chgis-210780","name":"Sui Zhou","nameZh":"睢州","type":"Zhou","lat":34.426,"lng":115.064,"startYear":1105,"endYear":1233},{"id":"chgis-210781","name":"Beichen Zhou","nameZh":"北陈州","type":"Zhou","lat":34.057,"lng":114.388,"startYear":621,"endYear":623},{"id":"chgis-210782","name":"Nandun Jun","nameZh":"南顿郡","type":"Jun","lat":33.449,"lng":114.734,"startYear":302,"endYear":551},{"id":"chgis-210796","name":"Chen Zhou","nameZh":"陈州","type":"Zhou","lat":33.331,"lng":115.07,"startYear":568,"endYear":595},{"id":"chgis-210798","name":"Chen Zhou","nameZh":"陈州","type":"Zhou","lat":33.75,"lng":114.886,"startYear":-194,"endYear":1233},{"id":"chgis-210801","name":"Shen Zhou","nameZh":"沈州","type":"Zhou","lat":33.399,"lng":115.069,"startYear":596,"endYear":626},{"id":"chgis-210803","name":"Luyang Jun","nameZh":"鲁阳郡","type":"Jun","lat":33.74,"lng":112.898,"startYear":498,"endYear":626},{"id":"chgis-210810","name":"Runan Jun","nameZh":"汝南郡","type":"Jun","lat":33.128,"lng":114.58,"startYear":-203,"endYear":71},{"id":"chgis-210811","name":"Runan Jun","nameZh":"汝南郡","type":"Jun","lat":33.183,"lng":114.526,"startYear":72,"endYear":327},{"id":"chgis-210819","name":"Cai Zhou","nameZh":"蔡州","type":"Zhou","lat":33.004,"lng":114.358,"startYear":328,"endYear":1453},{"id":"chgis-210833","name":"Nanhuaianzuo Jun","nameZh":"南淮安左郡","type":"Jun","lat":32.37,"lng":113.848,"startYear":491,"endYear":582},{"id":"chgis-210835","name":"Chuan Jun","nameZh":"初安郡","type":"Jun","lat":32.883,"lng":113.867,"startYear":471,"endYear":525},{"id":"chgis-210836","name":"Chuan Jun","nameZh":"初安郡","type":"Jun","lat":32.664,"lng":113.978,"startYear":198,"endYear":582},{"id":"chgis-210838","name":"Yang'an Jun","nameZh":"阳安郡","type":"Jun","lat":32.882,"lng":114.047,"startYear":534,"endYear":552},{"id":"chgis-210839","name":"Xincai Jun","nameZh":"新蔡郡","type":"Jun","lat":32.751,"lng":114.974,"startYear":293,"endYear":627},{"id":"chgis-210846","name":"Beixincai Jun","nameZh":"北新蔡郡","type":"Jun","lat":33.079,"lng":114.98,"startYear":420,"endYear":512},{"id":"chgis-210848","name":"Yiyang Jun","nameZh":"弋阳郡","type":"Jun","lat":32.129,"lng":114.978,"startYear":220,"endYear":558},{"id":"chgis-210855","name":"Guang Zhou","nameZh":"光州","type":"Zhou","lat":32.135,"lng":115.044,"startYear":553,"endYear":1292},{"id":"chgis-210860","name":"Feng’an Jun","nameZh":"丰安郡","type":"Jun","lat":32.008,"lng":114.843,"startYear":556,"endYear":582},{"id":"chgis-210862","name":"Xibiancheng Jun","nameZh":"西边城郡","type":"Jun","lat":31.559,"lng":116.081,"startYear":466,"endYear":555},{"id":"chgis-210867","name":"Xi Zhou","nameZh":"息州","type":"Zhou","lat":32.342,"lng":114.729,"startYear":495,"endYear":1265},{"id":"chgis-210869","name":"Henan Jun","nameZh":"河南郡","type":"Jun","lat":34.728,"lng":112.586,"startYear":-298,"endYear":582},{"id":"chgis-210873","name":"Henan Jun","nameZh":"河南郡","type":"Jun","lat":34.672,"lng":112.435,"startYear":26,"endYear":1453},{"id":"chgis-210886","name":"Henan Fu","nameZh":"河南府","type":"Fu","lat":34.68,"lng":112.456,"startYear":621,"endYear":1216},{"id":"chgis-210888","name":"Mianchi Jun","nameZh":"渑池郡","type":"Jun","lat":34.766,"lng":111.713,"startYear":498,"endYear":558},{"id":"chgis-210891","name":"Shao Zhou","nameZh":"韶州","type":"Zhou","lat":34.756,"lng":111.775,"startYear":627,"endYear":1234},{"id":"chgis-210892","name":"Tonggui Jun","nameZh":"同轨郡","type":"Jun","lat":34.52,"lng":111.72,"startYear":565,"endYear":582},{"id":"chgis-210894","name":"Xiong Zhou","nameZh":"熊州","type":"Zhou","lat":34.499,"lng":111.925,"startYear":535,"endYear":626},{"id":"chgis-210896","name":"Yiyang Jun","nameZh":"宜阳郡","type":"Jun","lat":34.36,"lng":111.71,"startYear":534,"endYear":582},{"id":"chgis-210900","name":"Song Zhou","nameZh":"嵩州","type":"Zhou","lat":34.14,"lng":112.086,"startYear":1129,"endYear":1234},{"id":"chgis-210902","name":"Zhongchuan Jun","nameZh":"中川郡","type":"Jun","lat":34.382,"lng":112.611,"startYear":534,"endYear":579},{"id":"chgis-210903","name":"Yichuan Jun","nameZh":"伊川郡","type":"Jun","lat":34.348,"lng":112.333,"startYear":536,"endYear":582},{"id":"chgis-210904","name":"Yiyang Jun","nameZh":"伊阳郡","type":"Jun","lat":34.219,"lng":112.189,"startYear":544,"endYear":582},{"id":"chgis-210905","name":"Hongnong Jun","nameZh":"弘农郡","type":"Jun","lat":34.613,"lng":110.91,"startYear":-113,"endYear":582},{"id":"chgis-210915","name":"Shan Zhou","nameZh":"陕州","type":"Zhou","lat":34.796,"lng":111.145,"startYear":487,"endYear":1234},{"id":"chgis-210917","name":"Guo Zhou","nameZh":"虢州","type":"Zhou","lat":34.521,"lng":110.868,"startYear":607,"endYear":1234},{"id":"chgis-210921","name":"Dongyi Zhou","nameZh":"东义州","type":"Zhou","lat":34.054,"lng":111.042,"startYear":534,"endYear":633},{"id":"chgis-210924","name":"Yiyang Guo","nameZh":"义阳国","type":"Guo","lat":32.46,"lng":112.36,"startYear":267,"endYear":416},{"id":"chgis-210925","name":"Nanyang Jun","nameZh":"南阳郡","type":"Jun","lat":33.002,"lng":112.535,"startYear":-272,"endYear":1453},{"id":"chgis-210933","name":"Deng Zhou","nameZh":"邓州","type":"Zhou","lat":32.683,"lng":112.08,"startYear":479,"endYear":1270},{"id":"chgis-210937","name":"Meng Zhou","nameZh":"蒙州","type":"Zhou","lat":33.27,"lng":112.665,"startYear":537,"endYear":619},{"id":"chgis-210940","name":"Yu Zhou","nameZh":"淯州","type":"Zhou","lat":33.28,"lng":112.513,"startYear":620,"endYear":624},{"id":"chgis-210941","name":"Yu Zhou","nameZh":"裕州","type":"Zhou","lat":33.258,"lng":112.993,"startYear":552,"endYear":1270},{"id":"chgis-210942","name":"Beinanyang Jun","nameZh":"北南阳郡","type":"Jun","lat":33.197,"lng":113.08,"startYear":526,"endYear":537},{"id":"chgis-210944","name":"Xiangyi Jun","nameZh":"襄邑郡","type":"Jun","lat":33.257,"lng":113.043,"startYear":552,"endYear":582},{"id":"chgis-210945","name":"Dingnan Jun","nameZh":"定南郡","type":"Jun","lat":33.518,"lng":113.477,"startYear":535,"endYear":557},{"id":"chgis-210946","name":"Dongchuan Jun","nameZh":"洞川郡","type":"Jun","lat":32.689,"lng":112.964,"startYear":537,"endYear":582},{"id":"chgis-210949","name":"Xinye Jun","nameZh":"新野郡","type":"Jun","lat":32.501,"lng":112.514,"startYear":298,"endYear":578},{"id":"chgis-210951","name":"Xinye Jun","nameZh":"新野郡","type":"Jun","lat":32.524,"lng":112.358,"startYear":421,"endYear":582},{"id":"chgis-210956","name":"Shangchuan Jun","nameZh":"上川郡","type":"Jun","lat":32.426,"lng":113.636,"startYear":535,"endYear":582},{"id":"chgis-210959","name":"Xiyang Jun","nameZh":"析阳郡","type":"Jun","lat":32.924,"lng":111.578,"startYear":479,"endYear":537},{"id":"chgis-210961","name":"Xiyang Jun","nameZh":"淅阳郡","type":"Jun","lat":33.3,"lng":111.475,"startYear":538,"endYear":582},{"id":"chgis-210964","name":"Nanxiang Jun","nameZh":"南乡郡","type":"Jun","lat":33.01,"lng":111.271,"startYear":208,"endYear":582},{"id":"chgis-210967","name":"Xi Zhou","nameZh":"淅州","type":"Zhou","lat":33.008,"lng":111.382,"startYear":607,"endYear":633},{"id":"chgis-210968","name":"Danshui Jun","nameZh":"丹水郡","type":"Jun","lat":33.05,"lng":111.285,"startYear":536,"endYear":558},{"id":"chgis-210971","name":"Xiushan Jun","nameZh":"秀山郡","type":"Jun","lat":33.038,"lng":111.439,"startYear":521,"endYear":558},{"id":"chgis-210972","name":"Baishui Jun","nameZh":"白水郡","type":"Jun","lat":32.66,"lng":105.52,"startYear":475,"endYear":582},{"id":"chgis-210973","name":"Yong'an Jun","nameZh":"永安军","type":"Jun","lat":34.694,"lng":112.944,"startYear":1113,"endYear":1128},{"id":"chgis-210978","name":"Kui Zhou","nameZh":"夔州","type":"Zhou","lat":31.045,"lng":109.524,"startYear":1005,"endYear":1453},{"id":"chgis-210983","name":"Daningjian","nameZh":"大宁监","type":"Jian","lat":31.437,"lng":109.632,"startYear":973,"endYear":987},{"id":"chgis-210984","name":"Daning Jian","nameZh":"大宁监","type":"Jian","lat":31.401,"lng":109.623,"startYear":988,"endYear":1277},{"id":"chgis-210985","name":"Yun'an Jun","nameZh":"云安军","type":"Jun","lat":30.958,"lng":108.893,"startYear":973,"endYear":1277},{"id":"chgis-210986","name":"Zhouan Jun","nameZh":"周安郡","type":"Jun","lat":31.283,"lng":108.12,"startYear":566,"endYear":582},{"id":"chgis-210987","name":"Anxiang Jun","nameZh":"安乡郡","type":"Jun","lat":30.838,"lng":108.633,"startYear":557,"endYear":565},{"id":"chgis-210990","name":"Wan Zhou","nameZh":"万州","type":"Zhou","lat":30.813,"lng":108.376,"startYear":566,"endYear":1277},{"id":"chgis-210992","name":"Kaijiang Jun","nameZh":"开江郡","type":"Jun","lat":30.968,"lng":108.225,"startYear":556,"endYear":575},{"id":"chgis-210997","name":"Zhong Zhou","nameZh":"忠州","type":"Zhou","lat":30.299,"lng":108.032,"startYear":540,"endYear":1278},{"id":"chgis-211000","name":"Liangshan Jun","nameZh":"梁山军","type":"Jun","lat":30.676,"lng":107.796,"startYear":970,"endYear":1277},{"id":"chgis-211001","name":"Rongshan Jun","nameZh":"容山郡","type":"Jun","lat":30.334,"lng":107.349,"startYear":556,"endYear":582},{"id":"chgis-211008","name":"Youyang Anfusi","nameZh":"酉阳安抚司","type":"Anfusi","lat":28.842,"lng":108.766,"startYear":1372,"endYear":1417},{"id":"chgis-211009","name":"Si Zhou","nameZh":"思州","type":"Zhou","lat":28.561,"lng":108.492,"startYear":618,"endYear":962},{"id":"chgis-211011","name":"Fuling Jun","nameZh":"涪陵郡","type":"Jun","lat":28.962,"lng":108.312,"startYear":282,"endYear":312},{"id":"chgis-211012","name":"Fuling Jun","nameZh":"涪陵郡","type":"Jun","lat":29.744,"lng":107.419,"startYear":350,"endYear":480},{"id":"chgis-211015","name":"Qian Zhou","nameZh":"黔州","type":"Zhou","lat":29.535,"lng":108.426,"startYear":481,"endYear":1227},{"id":"chgis-211016","name":"Shaoqing Fu","nameZh":"绍庆府","type":"Fu","lat":29.295,"lng":108.16,"startYear":216,"endYear":1370},{"id":"chgis-211018","name":"Peng Zhou","nameZh":"蓬州","type":"Zhou","lat":31.222,"lng":106.605,"startYear":569,"endYear":740},{"id":"chgis-211021","name":"Peng Zhou","nameZh":"蓬州","type":"Zhou","lat":31.361,"lng":106.638,"startYear":741,"endYear":1257},{"id":"chgis-211022","name":"Peng Zhou","nameZh":"蓬州","type":"Zhou","lat":31.018,"lng":106.482,"startYear":1258,"endYear":1277},{"id":"chgis-211028","name":"Guo Zhou","nameZh":"果州","type":"Zhou","lat":30.809,"lng":106.11,"startYear":194,"endYear":1370},{"id":"chgis-211030","name":"Jianwei Jun","nameZh":"犍为郡","type":"Jun","lat":27.657,"lng":106.894,"startYear":-135,"endYear":-129},{"id":"chgis-211031","name":"Jianwei Jun","nameZh":"犍为郡","type":"Jun","lat":28.029,"lng":104.39,"startYear":-130,"endYear":-87},{"id":"chgis-211032","name":"Jianwei Jun","nameZh":"犍为郡","type":"Jun","lat":28.756,"lng":104.607,"startYear":-86,"endYear":617},{"id":"chgis-211034","name":"Jianwei Jun","nameZh":"犍为郡","type":"Jun","lat":30.232,"lng":103.909,"startYear":14,"endYear":479},{"id":"chgis-211041","name":"Xu Zhou","nameZh":"叙州","type":"Zhou","lat":28.777,"lng":104.641,"startYear":1114,"endYear":1280},{"id":"chgis-211043","name":"Mahu Lu","nameZh":"马湖路","type":"Lu","lat":28.599,"lng":103.948,"startYear":1272,"endYear":1301},{"id":"chgis-211045","name":"Mahu Fu","nameZh":"马湖府","type":"Fu","lat":28.647,"lng":104.16,"startYear":1302,"endYear":1453},{"id":"chgis-211051","name":"Yi Zhou","nameZh":"益州","type":"Zhou","lat":31.047,"lng":104.3,"startYear":186,"endYear":194},{"id":"chgis-211052","name":"Yi Zhou","nameZh":"益州","type":"Zhou","lat":30.666,"lng":104.075,"startYear":-316,"endYear":1453},{"id":"chgis-211064","name":"Wenshan Jun","nameZh":"汶山郡","type":"Jun","lat":31.361,"lng":103.498,"startYear":218,"endYear":267},{"id":"chgis-211065","name":"Wenshan Jun","nameZh":"汶山郡","type":"Jun","lat":31.841,"lng":103.706,"startYear":-111,"endYear":620},{"id":"chgis-211067","name":"Wenshan Jun","nameZh":"汶山郡","type":"Jun","lat":31.484,"lng":103.582,"startYear":559,"endYear":559},{"id":"chgis-211073","name":"Mao Zhou","nameZh":"茂州","type":"Zhou","lat":31.682,"lng":103.849,"startYear":522,"endYear":1263},{"id":"chgis-211075","name":"Yongkang Jun","nameZh":"永康军","type":"Jun","lat":31.002,"lng":103.621,"startYear":908,"endYear":1268},{"id":"chgis-211077","name":"Jinyuan Jun","nameZh":"晋原郡","type":"Jun","lat":30.746,"lng":103.519,"startYear":312,"endYear":558},{"id":"chgis-211080","name":"Shu Zhou","nameZh":"蜀州","type":"Zhou","lat":30.63,"lng":103.672,"startYear":686,"endYear":1265},{"id":"chgis-211086","name":"Jian Zhou","nameZh":"简州","type":"Zhou","lat":30.394,"lng":104.564,"startYear":555,"endYear":1265},{"id":"chgis-211089","name":"Zi Zhou","nameZh":"资州","type":"Zhou","lat":30.123,"lng":104.647,"startYear":560,"endYear":586},{"id":"chgis-211094","name":"Zi Zhou","nameZh":"资州","type":"Zhou","lat":29.779,"lng":104.847,"startYear":587,"endYear":1265},{"id":"chgis-211101","name":"Peng Zhou","nameZh":"彭州","type":"Zhou","lat":30.995,"lng":103.919,"startYear":435,"endYear":1265},{"id":"chgis-211103","name":"Guanghan Jun","nameZh":"广汉郡","type":"Jun","lat":31.139,"lng":104.388,"startYear":-201,"endYear":-117},{"id":"chgis-211104","name":"Guanghan Jun","nameZh":"广汉郡","type":"Jun","lat":31.637,"lng":105.157,"startYear":-116,"endYear":582},{"id":"chgis-211108","name":"Guanghan Jun","nameZh":"广汉郡","type":"Jun","lat":30.994,"lng":104.286,"startYear":25,"endYear":582},{"id":"chgis-211109","name":"Shikang Jun","nameZh":"始康郡","type":"Jun","lat":30.829,"lng":104.158,"startYear":503,"endYear":552},{"id":"chgis-211111","name":"Huaian Jun","nameZh":"怀安军","type":"Jun","lat":30.721,"lng":104.556,"startYear":967,"endYear":1274},{"id":"chgis-211112","name":"Jinyuan Jun","nameZh":"金渊郡","type":"Jun","lat":30.742,"lng":104.595,"startYear":553,"endYear":570},{"id":"chgis-211113","name":"Qile Jun","nameZh":"齐乐郡","type":"Jun","lat":30.019,"lng":103.511,"startYear":495,"endYear":582},{"id":"chgis-211121","name":"Mei Zhou","nameZh":"眉州","type":"Zhou","lat":30.047,"lng":103.833,"startYear":496,"endYear":1453},{"id":"chgis-211124","name":"Jia Zhou","nameZh":"嘉州","type":"Zhou","lat":29.565,"lng":103.763,"startYear":561,"endYear":1453},{"id":"chgis-211128","name":"Shenxi Jun","nameZh":"沈犀郡","type":"Jun","lat":29.14,"lng":103.993,"startYear":558,"endYear":582},{"id":"chgis-211129","name":"Rong Zhou","nameZh":"荣州","type":"Zhou","lat":29.349,"lng":104.712,"startYear":618,"endYear":622},{"id":"chgis-211132","name":"Rong Zhou","nameZh":"荣州","type":"Zhou","lat":29.458,"lng":104.418,"startYear":623,"endYear":1257},{"id":"chgis-211134","name":"Mu Zhou","nameZh":"沐州","type":"Zhou","lat":29.232,"lng":103.261,"startYear":665,"endYear":675},{"id":"chgis-211136","name":"Hanjia Jun","nameZh":"汉嘉郡","type":"Jun","lat":30.158,"lng":102.924,"startYear":122,"endYear":311},{"id":"chgis-211139","name":"Ya Zhou","nameZh":"雅州","type":"Zhou","lat":29.989,"lng":102.995,"startYear":553,"endYear":1453},{"id":"chgis-211144","name":"Shenliliao Jun","nameZh":"沈黎獠郡","type":"Jun","lat":29.581,"lng":102.621,"startYear":-111,"endYear":606},{"id":"chgis-211152","name":"Li Zhou","nameZh":"黎州","type":"Zhou","lat":29.494,"lng":102.621,"startYear":618,"endYear":1453},{"id":"chgis-211154","name":"Qiong Zhou","nameZh":"邛州","type":"Zhou","lat":30.324,"lng":103.69,"startYear":539,"endYear":657},{"id":"chgis-211158","name":"Qiong Zhou","nameZh":"邛州","type":"Zhou","lat":30.413,"lng":103.456,"startYear":553,"endYear":1275},{"id":"chgis-211159","name":"Qingshen Jun","nameZh":"青神郡","type":"Jun","lat":29.757,"lng":103.825,"startYear":558,"endYear":582},{"id":"chgis-211162","name":"Xuanwu Jun","nameZh":"玄武郡","type":"Jun","lat":31.038,"lng":104.694,"startYear":554,"endYear":606},{"id":"chgis-211166","name":"Pu Zhou","nameZh":"普州","type":"Zhou","lat":30.103,"lng":105.333,"startYear":575,"endYear":1257},{"id":"chgis-211167","name":"Puci Jun","nameZh":"普慈郡","type":"Jun","lat":30.274,"lng":105.217,"startYear":575,"endYear":582},{"id":"chgis-211173","name":"Zi Zhou","nameZh":"梓州","type":"Zhou","lat":31.09,"lng":105.087,"startYear":432,"endYear":1453},{"id":"chgis-211176","name":"Yanting Jun","nameZh":"盐亭郡","type":"Jun","lat":31.225,"lng":105.386,"startYear":505,"endYear":582},{"id":"chgis-211182","name":"Suining Fu","nameZh":"遂宁府","type":"Fu","lat":30.509,"lng":105.575,"startYear":35,"endYear":1282},{"id":"chgis-211185","name":"Kai Zhou","nameZh":"开州","type":"Zhou","lat":31.085,"lng":107.86,"startYear":529,"endYear":1277},{"id":"chgis-211189","name":"Da Zhou","nameZh":"达州","type":"Zhou","lat":31.214,"lng":107.495,"startYear":421,"endYear":1284},{"id":"chgis-211194","name":"Dangqu Jun","nameZh":"宕渠郡","type":"Jun","lat":31.004,"lng":107.063,"startYear":216,"endYear":535},{"id":"chgis-211199","name":"Qu Zhou","nameZh":"渠州","type":"Zhou","lat":30.843,"lng":106.969,"startYear":522,"endYear":1266},{"id":"chgis-211202","name":"Sanba Jun","nameZh":"三巴郡","type":"Jun","lat":31.535,"lng":107.762,"startYear":539,"endYear":624},{"id":"chgis-211204","name":"Linshan Jun","nameZh":"邻山郡","type":"Jun","lat":31.064,"lng":106.967,"startYear":537,"endYear":624},{"id":"chgis-211208","name":"Lu Zhou","nameZh":"泸州","type":"Zhou","lat":28.888,"lng":105.448,"startYear":213,"endYear":1453},{"id":"chgis-211211","name":"Dongjiangyang Jun","nameZh":"东江阳郡","type":"Jun","lat":28.744,"lng":105.226,"startYear":428,"endYear":505},{"id":"chgis-211216","name":"Ling Zhou","nameZh":"陵州","type":"Zhou","lat":29.997,"lng":104.14,"startYear":635,"endYear":1071},{"id":"chgis-211219","name":"Mian Zhou","nameZh":"绵州","type":"Zhou","lat":31.476,"lng":104.76,"startYear":307,"endYear":964},{"id":"chgis-211220","name":"Mian Zhou","nameZh":"绵州","type":"Zhou","lat":31.467,"lng":104.745,"startYear":965,"endYear":1282},{"id":"chgis-211224","name":"Wan'an Jun","nameZh":"万安郡","type":"Jun","lat":31.304,"lng":104.504,"startYear":554,"endYear":582},{"id":"chgis-211226","name":"Shiquan Jun","nameZh":"石泉军","type":"Jun","lat":31.864,"lng":104.319,"startYear":1117,"endYear":1254},{"id":"chgis-211227","name":"Shiquan Jun","nameZh":"石泉军","type":"Jun","lat":31.685,"lng":104.448,"startYear":1255,"endYear":1265},{"id":"chgis-211229","name":"Jinxi Jun","nameZh":"晋熙郡","type":"Jun","lat":31.344,"lng":104.195,"startYear":398,"endYear":582},{"id":"chgis-211236","name":"Yong Zhou","nameZh":"庸州","type":"Zhou","lat":29.581,"lng":108.858,"startYear":585,"endYear":606},{"id":"chgis-211237","name":"Yongning Lu","nameZh":"永宁路","type":"Lu","lat":28.051,"lng":105.224,"startYear":1290,"endYear":1381},{"id":"chgis-211239","name":"Yongning Xuanweisi","nameZh":"永宁宣慰司","type":"Xuanweisi","lat":28.169,"lng":105.434,"startYear":1382,"endYear":1453},{"id":"chgis-211250","name":"Wei Zhou","nameZh":"威州","type":"Zhou","lat":31.551,"lng":103.312,"startYear":624,"endYear":1265},{"id":"chgis-211251","name":"Zhe Zhou","nameZh":"柘州","type":"Zhou","lat":32.323,"lng":103.72,"startYear":658,"endYear":762},{"id":"chgis-211254","name":"Ba Jun","nameZh":"巴郡","type":"Jun","lat":29.577,"lng":106.552,"startYear":-314,"endYear":200},{"id":"chgis-211264","name":"Chang Zhou","nameZh":"昌州","type":"Zhou","lat":29.386,"lng":105.558,"startYear":758,"endYear":803},{"id":"chgis-211265","name":"Chang Zhou","nameZh":"昌州","type":"Zhou","lat":29.57,"lng":105.704,"startYear":804,"endYear":884},{"id":"chgis-211266","name":"Chang Zhou","nameZh":"昌州","type":"Zhou","lat":29.701,"lng":105.717,"startYear":885,"endYear":1282},{"id":"chgis-211268","name":"Nan Zhou","nameZh":"南州","type":"Zhou","lat":29.034,"lng":106.65,"startYear":619,"endYear":1052},{"id":"chgis-211269","name":"Nanping Jun","nameZh":"南平军","type":"Jun","lat":28.743,"lng":106.714,"startYear":1074,"endYear":1238},{"id":"chgis-211270","name":"Nanping Jun","nameZh":"南平军","type":"Jun","lat":29.162,"lng":107.095,"startYear":1239,"endYear":1284},{"id":"chgis-211274","name":"He Zhou","nameZh":"合州","type":"Zhou","lat":30.002,"lng":106.267,"startYear":438,"endYear":1282},{"id":"chgis-211275","name":"Fu Zhou","nameZh":"涪州","type":"Zhou","lat":29.71,"lng":107.394,"startYear":618,"endYear":1278},{"id":"chgis-211276","name":"Wusheng Jun","nameZh":"武胜军","type":"Jun","lat":30.309,"lng":106.282,"startYear":1267,"endYear":1284},{"id":"chgis-211283","name":"Lang Zhou","nameZh":"阆州","type":"Zhou","lat":31.578,"lng":105.967,"startYear":201,"endYear":1453},{"id":"chgis-211287","name":"Xin'an Jun","nameZh":"新安郡","type":"Jun","lat":31.353,"lng":106.063,"startYear":554,"endYear":556},{"id":"chgis-211292","name":"Li Zhou","nameZh":"利州","type":"Zhou","lat":32.44,"lng":105.818,"startYear":498,"endYear":1375},{"id":"chgis-211299","name":"Ba Zhou","nameZh":"巴州","type":"Zhou","lat":31.853,"lng":106.76,"startYear":424,"endYear":1276},{"id":"chgis-211300","name":"Bi Zhou","nameZh":"壁州","type":"Zhou","lat":31.916,"lng":107.24,"startYear":625,"endYear":1071},{"id":"chgis-211303","name":"Ji Zhou","nameZh":"集州","type":"Zhou","lat":32.071,"lng":106.967,"startYear":570,"endYear":1071},{"id":"chgis-211310","name":"Jian Zhou","nameZh":"剑州","type":"Zhou","lat":31.954,"lng":105.469,"startYear":460,"endYear":1254},{"id":"chgis-211313","name":"Fujian Jun","nameZh":"辅剑郡","type":"Jun","lat":31.887,"lng":105.277,"startYear":428,"endYear":582},{"id":"chgis-211317","name":"Jianmenguan Dujian","nameZh":"剑门关都监","type":"Dujian","lat":32.004,"lng":105.491,"startYear":1006,"endYear":1284},{"id":"chgis-211318","name":"Yiyang Jun","nameZh":"义阳郡","type":"Jun","lat":31.792,"lng":106.626,"startYear":525,"endYear":582},{"id":"chgis-211320","name":"Qizhang Jun","nameZh":"其章郡","type":"Jun","lat":32.058,"lng":107.164,"startYear":570,"endYear":582},{"id":"chgis-211322","name":"Jing Zhou","nameZh":"静州","type":"Zhou","lat":32.252,"lng":106.454,"startYear":623,"endYear":642},{"id":"chgis-211323","name":"Beishui Jun","nameZh":"北水郡","type":"Jun","lat":32.068,"lng":106.719,"startYear":487,"endYear":582},{"id":"chgis-211324","name":"Suining Jun","nameZh":"遂宁郡","type":"Jun","lat":30.66,"lng":105.478,"startYear":413,"endYear":582},{"id":"chgis-211326","name":"Mulan Jun","nameZh":"木兰郡","type":"Jun","lat":31.589,"lng":105.738,"startYear":504,"endYear":552},{"id":"chgis-211327","name":"Nandangqu Jun","nameZh":"南宕渠郡","type":"Jun","lat":30.888,"lng":106.164,"startYear":431,"endYear":582},{"id":"chgis-211329","name":"Zitong Jun","nameZh":"梓潼郡","type":"Jun","lat":31.033,"lng":106.377,"startYear":507,"endYear":1285},{"id":"chgis-211332","name":"Longcheng Jun","nameZh":"隆城郡","type":"Jun","lat":31.52,"lng":106.401,"startYear":502,"endYear":582},{"id":"chgis-211333","name":"Guang'an Jun","nameZh":"广安军","type":"Jun","lat":30.472,"lng":106.637,"startYear":969,"endYear":1277},{"id":"chgis-211334","name":"Xiang Zhou","nameZh":"祥州","type":"Zhou","lat":28.443,"lng":104.518,"startYear":1113,"endYear":1120},{"id":"chgis-211335","name":"Luoyuan Jun","nameZh":"洛原郡","type":"Jun","lat":29.182,"lng":104.996,"startYear":563,"endYear":582},{"id":"chgis-211336","name":"Rong Zhou","nameZh":"戎州","type":"Zhou","lat":28.808,"lng":104.799,"startYear":632,"endYear":841},{"id":"chgis-211338","name":"Rong Zhou","nameZh":"戎州","type":"Zhou","lat":28.77,"lng":104.621,"startYear":618,"endYear":1453},{"id":"chgis-211339","name":"Changning Jun","nameZh":"长宁军","type":"Jun","lat":28.384,"lng":104.886,"startYear":1114,"endYear":1271},{"id":"chgis-211340","name":"Wan Zhou","nameZh":"万州","type":"Zhou","lat":31.189,"lng":108.414,"startYear":618,"endYear":618},{"id":"chgis-211347","name":"Long Zhou","nameZh":"龙州","type":"Zhou","lat":32.202,"lng":104.833,"startYear":533,"endYear":1257},{"id":"chgis-211350","name":"Long Zhou","nameZh":"龙州","type":"Zhou","lat":31.861,"lng":104.722,"startYear":1258,"endYear":1284},{"id":"chgis-211351","name":"Xinba Jun","nameZh":"新巴郡","type":"Jun","lat":32.219,"lng":105.194,"startYear":410,"endYear":582},{"id":"chgis-211352","name":"Yuexi Jun","nameZh":"越嶲郡","type":"Jun","lat":27.872,"lng":102.274,"startYear":-111,"endYear":480},{"id":"chgis-211353","name":"Yuexi Jun","nameZh":"越嶲郡","type":"Jun","lat":26.651,"lng":102.201,"startYear":281,"endYear":428},{"id":"chgis-211360","name":"Xi Zhou","nameZh":"巂州","type":"Zhou","lat":27.892,"lng":102.266,"startYear":537,"endYear":1453},{"id":"chgis-211362","name":"Xi Zhou","nameZh":"巂州","type":"Zhou","lat":28.294,"lng":102.2,"startYear":565,"endYear":873},{"id":"chgis-211367","name":"Dechang Lu","nameZh":"德昌路","type":"Lu","lat":27.255,"lng":102.138,"startYear":1275,"endYear":1381},{"id":"chgis-211368","name":"Dechang Fu","nameZh":"德昌府","type":"Fu","lat":27.407,"lng":102.178,"startYear":1382,"endYear":1391},{"id":"chgis-211374","name":"Songxi Jun","nameZh":"宋熙郡","type":"Jun","lat":32.209,"lng":106.215,"startYear":390,"endYear":582},{"id":"chgis-211378","name":"Changping Jun","nameZh":"昌平郡","type":"Jun","lat":40.095,"lng":116.369,"startYear":535,"endYear":582},{"id":"chgis-211380","name":"Zhuo Zhou","nameZh":"涿州","type":"Zhou","lat":39.482,"lng":115.977,"startYear":-117,"endYear":1262},{"id":"chgis-211383","name":"Yuyang Jun","nameZh":"渔阳郡","type":"Jun","lat":40.331,"lng":116.729,"startYear":-201,"endYear":240},{"id":"chgis-211384","name":"Yuyang Jun","nameZh":"渔阳郡","type":"Jun","lat":39.518,"lng":116.867,"startYear":537,"endYear":553},{"id":"chgis-211385","name":"Yuyang Jun","nameZh":"渔阳郡","type":"Jun","lat":39.905,"lng":116.789,"startYear":554,"endYear":582},{"id":"chgis-211390","name":"Yan Zhou","nameZh":"延州","type":"Zhou","lat":36.606,"lng":109.494,"startYear":608,"endYear":1046},{"id":"chgis-211392","name":"Yan'anfu","nameZh":"延安府","type":"Fu","lat":36.586,"lng":109.485,"startYear":1047,"endYear":1453},{"id":"chgis-211398","name":"Xia Zhou","nameZh":"夏州","type":"Zhou","lat":37.992,"lng":108.85,"startYear":446,"endYear":984},{"id":"chgis-211399","name":"Jinning Jun","nameZh":"晋宁军","type":"Jun","lat":38.023,"lng":110.496,"startYear":1099,"endYear":1217},{"id":"chgis-211404","name":"Yin Zhou","nameZh":"银州","type":"Zhou","lat":37.964,"lng":109.82,"startYear":562,"endYear":757},{"id":"chgis-211410","name":"Fu Zhou","nameZh":"鄜州","type":"Zhou","lat":35.996,"lng":109.367,"startYear":607,"endYear":1268},{"id":"chgis-211413","name":"Fang Zhou","nameZh":"坊州","type":"Zhou","lat":35.584,"lng":109.258,"startYear":619,"endYear":1268},{"id":"chgis-211417","name":"Sui Zhou","nameZh":"绥州","type":"Zhou","lat":37.501,"lng":110.256,"startYear":552,"endYear":1311},{"id":"chgis-211419","name":"Dingbian Jun","nameZh":"定边军","type":"Jun","lat":36.99,"lng":107.85,"startYear":1099,"endYear":1145},{"id":"chgis-211426","name":"Shang Zhou","nameZh":"商州","type":"Zhou","lat":33.87,"lng":109.932,"startYear":266,"endYear":1373},{"id":"chgis-211430","name":"Gan Zhou","nameZh":"乾州","type":"Zhou","lat":34.531,"lng":108.237,"startYear":894,"endYear":1263},{"id":"chgis-211432","name":"Xi'an Fu","nameZh":"西安府","type":"Fu","lat":34.26,"lng":108.94,"startYear":1369,"endYear":1453},{"id":"chgis-211441","name":"Tong Zhou","nameZh":"同州","type":"Zhou","lat":34.797,"lng":109.939,"startYear":220,"endYear":1278},{"id":"chgis-211449","name":"Hua Zhou","nameZh":"华州","type":"Zhou","lat":34.515,"lng":109.762,"startYear":440,"endYear":1311},{"id":"chgis-211453","name":"Fengxiang Fu","nameZh":"凤翔府","type":"Fu","lat":34.524,"lng":107.389,"startYear":436,"endYear":1453},{"id":"chgis-211455","name":"Long Zhou","nameZh":"陇州","type":"Zhou","lat":34.656,"lng":107.119,"startYear":575,"endYear":1271},{"id":"chgis-211458","name":"Xingyuanfu","nameZh":"兴元府","type":"Fu","lat":33.075,"lng":107.023,"startYear":784,"endYear":1453},{"id":"chgis-211463","name":"Yang Zhou","nameZh":"洋州","type":"Zhou","lat":33.222,"lng":107.543,"startYear":756,"endYear":1264},{"id":"chgis-211464","name":"Feng Zhou","nameZh":"凤州","type":"Zhou","lat":33.964,"lng":106.647,"startYear":477,"endYear":1267},{"id":"chgis-211467","name":"Jin Zhou","nameZh":"金州","type":"Zhou","lat":32.699,"lng":109.022,"startYear":215,"endYear":1272},{"id":"chgis-211470","name":"Bin Zhou","nameZh":"邠州","type":"Zhou","lat":35.04,"lng":108.078,"startYear":194,"endYear":1368},{"id":"chgis-211474","name":"Hong Zhou","nameZh":"鸿州","type":"Zhou","lat":34.477,"lng":109.363,"startYear":681,"endYear":699},{"id":"chgis-211475","name":"Fufeng Jun","nameZh":"扶风郡","type":"Jun","lat":34.263,"lng":108.509,"startYear":223,"endYear":582},{"id":"chgis-211476","name":"Fufeng Guo","nameZh":"扶风国","type":"Guo","lat":34.561,"lng":108.801,"startYear":269,"endYear":389},{"id":"chgis-211477","name":"Fufeng Jun","nameZh":"扶风郡","type":"Jun","lat":34.522,"lng":108.284,"startYear":390,"endYear":527},{"id":"chgis-211478","name":"Fufeng Jun","nameZh":"扶风郡","type":"Jun","lat":34.345,"lng":108.544,"startYear":529,"endYear":579},{"id":"chgis-211480","name":"Jianzhong Jun","nameZh":"建忠郡","type":"Jun","lat":34.804,"lng":108.682,"startYear":527,"endYear":527},{"id":"chgis-211481","name":"Jianzhong Jun","nameZh":"建忠郡","type":"Jun","lat":34.64,"lng":108.954,"startYear":528,"endYear":572},{"id":"chgis-211490","name":"Gua Zhou","nameZh":"瓜州","type":"Zhou","lat":40.245,"lng":96.203,"startYear":295,"endYear":1227},{"id":"chgis-211497","name":"Lan Zhou","nameZh":"兰州","type":"Zhou","lat":36.047,"lng":103.847,"startYear":607,"endYear":1368},{"id":"chgis-211499","name":"Jin Zhou","nameZh":"金州","type":"Zhou","lat":35.676,"lng":104.189,"startYear":1226,"endYear":1309},{"id":"chgis-211500","name":"Jin Zhou","nameZh":"金州","type":"Zhou","lat":35.757,"lng":104.138,"startYear":1310,"endYear":1368},{"id":"chgis-211502","name":"Hui Zhou","nameZh":"会州","type":"Zhou","lat":36.562,"lng":104.679,"startYear":555,"endYear":1453},{"id":"chgis-211505","name":"Hui Zhou","nameZh":"会州","type":"Zhou","lat":36.214,"lng":104.892,"startYear":1182,"endYear":1264},{"id":"chgis-211519","name":"Dingxi Zhou","nameZh":"定西州","type":"Zhou","lat":35.582,"lng":104.625,"startYear":1216,"endYear":1376},{"id":"chgis-211525","name":"Gong Zhou","nameZh":"巩州","type":"Zhou","lat":34.998,"lng":104.636,"startYear":742,"endYear":1453},{"id":"chgis-211527","name":"Min Zhou","nameZh":"岷州","type":"Zhou","lat":34.436,"lng":104.03,"startYear":445,"endYear":1453},{"id":"chgis-211539","name":"Tao Zhou","nameZh":"洮州","type":"Zhou","lat":34.688,"lng":103.351,"startYear":618,"endYear":1267},{"id":"chgis-211545","name":"Wei Zhou","nameZh":"渭州","type":"Zhou","lat":35.53,"lng":106.697,"startYear":803,"endYear":1453},{"id":"chgis-211547","name":"Zhenrong Jun","nameZh":"镇戎军","type":"Jun","lat":36.007,"lng":106.28,"startYear":-114,"endYear":1271},{"id":"chgis-211550","name":"Kaicheng Fu","nameZh":"开成府","type":"Fu","lat":35.832,"lng":106.27,"startYear":1273,"endYear":1369},{"id":"chgis-211554","name":"Qing Zhou","nameZh":"庆州","type":"Zhou","lat":36.009,"lng":107.875,"startYear":545,"endYear":1453},{"id":"chgis-211557","name":"Ling Zhou","nameZh":"灵州","type":"Zhou","lat":38.005,"lng":106.174,"startYear":436,"endYear":1001},{"id":"chgis-211559","name":"Xixiafu Lu","nameZh":"宁夏府路","type":"Lu","lat":38.467,"lng":106.274,"startYear":1271,"endYear":1453},{"id":"chgis-211564","name":"Gan Zhou","nameZh":"甘州","type":"Zhou","lat":38.932,"lng":100.453,"startYear":607,"endYear":1453},{"id":"chgis-211572","name":"Shandan Zhou","nameZh":"山丹州","type":"Zhou","lat":38.781,"lng":101.088,"startYear":1285,"endYear":1453},{"id":"chgis-211581","name":"Shan Zhou","nameZh":"鄯州","type":"Zhou","lat":36.481,"lng":102.398,"startYear":392,"endYear":1234},{"id":"chgis-211588","name":"Zhuangliang Wei","nameZh":"庄浪卫","type":"Wei","lat":36.735,"lng":103.257,"startYear":1377,"endYear":1453},{"id":"chgis-211591","name":"Jing Zhou","nameZh":"泾州","type":"Zhou","lat":35.35,"lng":107.352,"startYear":28,"endYear":1221},{"id":"chgis-211592","name":"Jing Zhou","nameZh":"泾州","type":"Zhou","lat":35.335,"lng":107.486,"startYear":1222,"endYear":1267},{"id":"chgis-211593","name":"Jing Zhou","nameZh":"泾州","type":"Zhou","lat":35.333,"lng":107.363,"startYear":1267,"endYear":1369},{"id":"chgis-211599","name":"Qin Zhou","nameZh":"秦州","type":"Zhou","lat":34.986,"lng":105.549,"startYear":734,"endYear":960},{"id":"chgis-211607","name":"Jie Zhou","nameZh":"阶州","type":"Zhou","lat":33.314,"lng":105.452,"startYear":892,"endYear":931},{"id":"chgis-211608","name":"Jie Zhou","nameZh":"阶州","type":"Zhou","lat":33.38,"lng":104.946,"startYear":444,"endYear":1267},{"id":"chgis-211609","name":"Dang Zhou","nameZh":"宕州","type":"Zhou","lat":33.798,"lng":104.285,"startYear":627,"endYear":764},{"id":"chgis-211611","name":"Beidi Jun","nameZh":"北地郡","type":"Jun","lat":35.709,"lng":107.538,"startYear":-271,"endYear":-202},{"id":"chgis-211612","name":"Beidi Jun","nameZh":"北地郡","type":"Jun","lat":36.218,"lng":107.644,"startYear":-203,"endYear":34},{"id":"chgis-211613","name":"Beidi Jun","nameZh":"北地郡","type":"Jun","lat":37.881,"lng":106.006,"startYear":35,"endYear":223},{"id":"chgis-211614","name":"Beidi Jun","nameZh":"北地郡","type":"Jun","lat":34.538,"lng":109.085,"startYear":224,"endYear":522},{"id":"chgis-211615","name":"Beidi Jun","nameZh":"北地郡","type":"Jun","lat":34.917,"lng":109.304,"startYear":392,"endYear":426},{"id":"chgis-211616","name":"Beidi Jun","nameZh":"北地郡","type":"Jun","lat":34.866,"lng":109.265,"startYear":427,"endYear":582},{"id":"chgis-211618","name":"Zhonghua Jun","nameZh":"中华郡","type":"Jun","lat":34.749,"lng":109.149,"startYear":557,"endYear":574},{"id":"chgis-211620","name":"Yu Zhou","nameZh":"裕州","type":"Zhou","lat":34.955,"lng":109.294,"startYear":905,"endYear":924},{"id":"chgis-211622","name":"Heng Zhou","nameZh":"恒州","type":"Zhou","lat":34.171,"lng":108.212,"startYear":574,"endYear":1234},{"id":"chgis-211624","name":"Ningyqin Jun","nameZh":"宁秦郡","type":"Jun","lat":34.494,"lng":108.423,"startYear":554,"endYear":574},{"id":"chgis-211625","name":"Beiyong Zhou","nameZh":"北雍州","type":"Zhou","lat":34.84,"lng":108.756,"startYear":528,"endYear":531},{"id":"chgis-211627","name":"Yi Zhou","nameZh":"宜州","type":"Zhou","lat":34.912,"lng":108.987,"startYear":532,"endYear":700},{"id":"chgis-211632","name":"Yao Zhou","nameZh":"耀州","type":"Zhou","lat":34.913,"lng":108.971,"startYear":906,"endYear":1311},{"id":"chgis-211633","name":"Biancheng Jun","nameZh":"徧城郡","type":"Jun","lat":36.708,"lng":109.812,"startYear":477,"endYear":576},{"id":"chgis-211634","name":"Biancheng Jun","nameZh":"徧城郡","type":"Jun","lat":36.681,"lng":109.632,"startYear":577,"endYear":587},{"id":"chgis-211636","name":"Nao'an Jun","nameZh":"保安军","type":"Jun","lat":36.822,"lng":108.764,"startYear":977,"endYear":1311},{"id":"chgis-211638","name":"Dingyang Jun","nameZh":"定阳郡","type":"Jun","lat":36.155,"lng":110.209,"startYear":474,"endYear":650},{"id":"chgis-211640","name":"Dan Zhou","nameZh":"丹州","type":"Zhou","lat":36.049,"lng":110.167,"startYear":651,"endYear":1311},{"id":"chgis-211641","name":"Wen'an Jun","nameZh":"文安郡","type":"Jun","lat":36.865,"lng":110.054,"startYear":537,"endYear":582},{"id":"chgis-211645","name":"You Zhou","nameZh":"宥州","type":"Zhou","lat":37.586,"lng":108.182,"startYear":487,"endYear":959},{"id":"chgis-211647","name":"Yan Zhou","nameZh":"盐州","type":"Zhou","lat":37.593,"lng":107.601,"startYear":481,"endYear":1214},{"id":"chgis-211650","name":"Mian Zhou","nameZh":"显州","type":"Zhou","lat":34.363,"lng":107.197,"startYear":568,"endYear":576},{"id":"chgis-211651","name":"Yun Zhou","nameZh":"云州","type":"Zhou","lat":34.275,"lng":107.847,"startYear":566,"endYear":619},{"id":"chgis-211653","name":"Mei Zhou","nameZh":"郿州","type":"Zhou","lat":34.278,"lng":107.747,"startYear":1215,"endYear":1311},{"id":"chgis-211654","name":"Fu Zhou","nameZh":"鄜州","type":"Zhou","lat":34.685,"lng":107.81,"startYear":617,"endYear":626},{"id":"chgis-211655","name":"Qianyang Jun","nameZh":"汧阳郡","type":"Jun","lat":34.658,"lng":107.107,"startYear":570,"endYear":574},{"id":"chgis-211659","name":"Fu Zhou","nameZh":"敷州","type":"Zhou","lat":35.469,"lng":109.241,"startYear":491,"endYear":757},{"id":"chgis-211662","name":"Dongqin Zhou","nameZh":"东秦州","type":"Zhou","lat":34.836,"lng":106.933,"startYear":532,"endYear":557},{"id":"chgis-211668","name":"Long Zhou","nameZh":"陇州","type":"Zhou","lat":34.895,"lng":106.854,"startYear":558,"endYear":1277},{"id":"chgis-211671","name":"Hanzhong Jun","nameZh":"汉中郡","type":"Jun","lat":32.705,"lng":109.011,"startYear":-202,"endYear":405},{"id":"chgis-211677","name":"Hanzhong Jun","nameZh":"汉中郡","type":"Jun","lat":33.073,"lng":107.036,"startYear":-312,"endYear":783},{"id":"chgis-211678","name":"Baozhong Jun","nameZh":"褒中郡","type":"Jun","lat":33.133,"lng":106.957,"startYear":406,"endYear":582},{"id":"chgis-211679","name":"Jinchang Jun","nameZh":"晋昌郡","type":"Jun","lat":33.211,"lng":107.65,"startYear":390,"endYear":582},{"id":"chgis-211682","name":"Gudao Jun","nameZh":"固道郡","type":"Jun","lat":33.79,"lng":106.097,"startYear":474,"endYear":476},{"id":"chgis-211685","name":"Huayang Jun","nameZh":"华阳郡","type":"Jun","lat":33.15,"lng":106.615,"startYear":263,"endYear":624},{"id":"chgis-211692","name":"Xing Zhou","nameZh":"兴州","type":"Zhou","lat":33.328,"lng":106.155,"startYear":245,"endYear":1276},{"id":"chgis-211694","name":"Hua Zhou","nameZh":"化州","type":"Zhou","lat":38.295,"lng":109.754,"startYear":633,"endYear":638},{"id":"chgis-211700","name":"Lin Zhou","nameZh":"麟州","type":"Zhou","lat":38.949,"lng":110.482,"startYear":727,"endYear":1113},{"id":"chgis-211701","name":"Fu Zhou","nameZh":"府州","type":"Zhou","lat":39.029,"lng":111.071,"startYear":911,"endYear":1147},{"id":"chgis-211710","name":"Liang Zhou","nameZh":"梁州","type":"Zhou","lat":33.144,"lng":107.384,"startYear":418,"endYear":433},{"id":"chgis-211712","name":"Xunyang Jun","nameZh":"洵阳郡","type":"Jun","lat":32.832,"lng":109.374,"startYear":552,"endYear":623},{"id":"chgis-211713","name":"Fengli Jun","nameZh":"丰利郡","type":"Jun","lat":32.806,"lng":110.127,"startYear":228,"endYear":624},{"id":"chgis-211714","name":"Jinchang Jun","nameZh":"晋昌郡","type":"Jun","lat":33.056,"lng":108.081,"startYear":347,"endYear":559},{"id":"chgis-211717","name":"Weichang Jun","nameZh":"魏昌郡","type":"Jun","lat":33.039,"lng":108.247,"startYear":539,"endYear":562},{"id":"chgis-211718","name":"Ankang Jun","nameZh":"安康郡","type":"Jun","lat":32.956,"lng":108.33,"startYear":478,"endYear":562},{"id":"chgis-211721","name":"Zhi Zhou","nameZh":"直州","type":"Zhou","lat":32.985,"lng":108.268,"startYear":563,"endYear":626},{"id":"chgis-211724","name":"Hua Zhou","nameZh":"华州","type":"Zhou","lat":34.999,"lng":109.858,"startYear":487,"endYear":509},{"id":"chgis-211729","name":"Chengcheng Jun","nameZh":"澄城郡","type":"Jun","lat":35.167,"lng":109.845,"startYear":447,"endYear":582},{"id":"chgis-211730","name":"Xihan Zhou","nameZh":"西韩州","type":"Zhou","lat":35.161,"lng":110.326,"startYear":620,"endYear":624},{"id":"chgis-211733","name":"Baishui Jun","nameZh":"白水郡","type":"Jun","lat":35.177,"lng":109.588,"startYear":479,"endYear":582},{"id":"chgis-211734","name":"Juyang Jun","nameZh":"拒阳郡","type":"Jun","lat":34.026,"lng":110.361,"startYear":564,"endYear":582},{"id":"chgis-211737","name":"Ji Zhou","nameZh":"稷州","type":"Zhou","lat":34.253,"lng":108.163,"startYear":618,"endYear":690},{"id":"chgis-211739","name":"Nanbin Zhou","nameZh":"南豳州","type":"Zhou","lat":34.969,"lng":108.036,"startYear":440,"endYear":724},{"id":"chgis-211740","name":"Zhaoping Jun","nameZh":"赵平郡","type":"Jun","lat":34.991,"lng":107.805,"startYear":344,"endYear":568},{"id":"chgis-211741","name":"Yijun Jun","nameZh":"宜君郡","type":"Jun","lat":35.334,"lng":108.923,"startYear":528,"endYear":582},{"id":"chgis-211742","name":"Shang Jun","nameZh":"上郡","type":"Jun","lat":37.991,"lng":109.847,"startYear":-221,"endYear":216},{"id":"chgis-211747","name":"Longxi Jun","nameZh":"陇西郡","type":"Jun","lat":35.377,"lng":103.859,"startYear":-272,"endYear":1453},{"id":"chgis-211752","name":"Jincheng Jun","nameZh":"金城郡","type":"Jun","lat":36.087,"lng":103.295,"startYear":-81,"endYear":223},{"id":"chgis-211753","name":"Jincheng Jun","nameZh":"金城郡","type":"Jun","lat":36.051,"lng":104.0,"startYear":224,"endYear":353},{"id":"chgis-211754","name":"Jincheng Jun","nameZh":"金城郡","type":"Jun","lat":36.062,"lng":103.816,"startYear":354,"endYear":582},{"id":"chgis-211757","name":"Wushi Jun","nameZh":"武始郡","type":"Jun","lat":35.592,"lng":103.793,"startYear":391,"endYear":537},{"id":"chgis-211760","name":"Weiyuan Jun","nameZh":"渭源郡","type":"Jun","lat":35.145,"lng":104.228,"startYear":551,"endYear":557},{"id":"chgis-211763","name":"Anding Jun","nameZh":"安定郡","type":"Jun","lat":35.52,"lng":107.289,"startYear":269,"endYear":582},{"id":"chgis-211764","name":"Wuwei Jun","nameZh":"武威郡","type":"Jun","lat":37.927,"lng":102.632,"startYear":-121,"endYear":1453},{"id":"chgis-211766","name":"Pingliang Jun","nameZh":"平凉郡","type":"Jun","lat":35.563,"lng":106.564,"startYear":358,"endYear":389},{"id":"chgis-211767","name":"Pingliang Jun","nameZh":"平凉郡","type":"Jun","lat":35.232,"lng":106.486,"startYear":390,"endYear":572},{"id":"chgis-211768","name":"Jinxing Jun","nameZh":"晋兴郡","type":"Jun","lat":36.344,"lng":102.783,"startYear":311,"endYear":490},{"id":"chgis-211769","name":"Xinjin Jun","nameZh":"兴晋郡","type":"Jun","lat":35.512,"lng":103.098,"startYear":344,"endYear":1277},{"id":"chgis-211774","name":"Tianshui Jun","nameZh":"天水郡","type":"Jun","lat":35.217,"lng":105.183,"startYear":-114,"endYear":63},{"id":"chgis-211775","name":"Hanyang Jun","nameZh":"汉阳郡","type":"Jun","lat":34.738,"lng":105.448,"startYear":64,"endYear":281},{"id":"chgis-211779","name":"Longxi Jun","nameZh":"陇西郡","type":"Jun","lat":34.989,"lng":104.64,"startYear":224,"endYear":741},{"id":"chgis-211781","name":"Yongyang Jun","nameZh":"永阳郡","type":"Jun","lat":35.216,"lng":106.215,"startYear":193,"endYear":213},{"id":"chgis-211783","name":"Lueyang Jun","nameZh":"略阳郡","type":"Jun","lat":34.57,"lng":105.969,"startYear":214,"endYear":416},{"id":"chgis-211784","name":"Lueyang Jun","nameZh":"略阳郡","type":"Jun","lat":35.002,"lng":105.942,"startYear":417,"endYear":438},{"id":"chgis-211785","name":"Lueyang Jun","nameZh":"略阳郡","type":"Jun","lat":35.033,"lng":106.087,"startYear":439,"endYear":582},{"id":"chgis-211786","name":"Guangning Jun","nameZh":"广宁郡","type":"Jun","lat":34.729,"lng":104.237,"startYear":385,"endYear":562},{"id":"chgis-211788","name":"Nan'an Jun","nameZh":"南安郡","type":"Jun","lat":34.623,"lng":105.009,"startYear":188,"endYear":213},{"id":"chgis-211790","name":"Wudu Jun","nameZh":"武都郡","type":"Jun","lat":33.964,"lng":105.094,"startYear":-111,"endYear":41},{"id":"chgis-211791","name":"Wudu Jun","nameZh":"武都郡","type":"Jun","lat":33.849,"lng":105.655,"startYear":42,"endYear":553},{"id":"chgis-211798","name":"Honghe Jun","nameZh":"洪和郡","type":"Jun","lat":34.669,"lng":103.547,"startYear":445,"endYear":1453},{"id":"chgis-211799","name":"He Zhou","nameZh":"河州","type":"Zhou","lat":35.424,"lng":103.346,"startYear":1076,"endYear":1141},{"id":"chgis-211804","name":"Yining Jun","nameZh":"义宁军","type":"Jun","lat":35.217,"lng":106.647,"startYear":773,"endYear":1071},{"id":"chgis-211807","name":"Deshun Zhou","nameZh":"德顺州","type":"Zhou","lat":35.521,"lng":105.727,"startYear":1043,"endYear":1369},{"id":"chgis-211815","name":"Huan Zhou","nameZh":"环州","type":"Zhou","lat":36.574,"lng":107.299,"startYear":939,"endYear":1368},{"id":"chgis-211816","name":"Xian Zhou","nameZh":"显州","type":"Zhou","lat":35.32,"lng":108.311,"startYear":550,"endYear":556},{"id":"chgis-211821","name":"Ning Zhou","nameZh":"宁州","type":"Zhou","lat":35.501,"lng":107.923,"startYear":441,"endYear":1368},{"id":"chgis-211824","name":"Zhangye Jun","nameZh":"张掖郡","type":"Jun","lat":38.992,"lng":100.331,"startYear":-111,"endYear":606},{"id":"chgis-211831","name":"Fanhe Jun","nameZh":"番和郡","type":"Jun","lat":38.246,"lng":101.969,"startYear":387,"endYear":1453},{"id":"chgis-211832","name":"Wu'an Jun","nameZh":"武安郡","type":"Jun","lat":38.513,"lng":102.965,"startYear":481,"endYear":539},{"id":"chgis-211833","name":"Wei'an Jun","nameZh":"魏安郡","type":"Jun","lat":37.611,"lng":103.23,"startYear":337,"endYear":562},{"id":"chgis-211836","name":"Changsong Jun","nameZh":"昌松郡","type":"Jun","lat":37.637,"lng":102.818,"startYear":387,"endYear":562},{"id":"chgis-211837","name":"Wuxing Jun","nameZh":"武兴郡","type":"Jun","lat":38.131,"lng":102.379,"startYear":337,"endYear":562},{"id":"chgis-211838","name":"Xi Jun","nameZh":"西郡","type":"Jun","lat":38.352,"lng":101.572,"startYear":229,"endYear":553},{"id":"chgis-211839","name":"Linsong Jun","nameZh":"临松郡","type":"Jun","lat":38.537,"lng":100.494,"startYear":366,"endYear":562},{"id":"chgis-211840","name":"Guangwu Jun","nameZh":"广武郡","type":"Jun","lat":36.688,"lng":103.29,"startYear":332,"endYear":582},{"id":"chgis-211841","name":"Xiping Jun","nameZh":"西平郡","type":"Jun","lat":36.618,"lng":101.785,"startYear":207,"endYear":1453},{"id":"chgis-211849","name":"Jiaohe Jun","nameZh":"浇河郡","type":"Jun","lat":36.042,"lng":101.411,"startYear":389,"endYear":617},{"id":"chgis-211856","name":"Kuo Zhou","nameZh":"廓州","type":"Zhou","lat":36.123,"lng":101.828,"startYear":539,"endYear":960},{"id":"chgis-211857","name":"Kuo Zhou","nameZh":"廓州","type":"Zhou","lat":36.034,"lng":101.986,"startYear":335,"endYear":1233},{"id":"chgis-211861","name":"Qingshui Jun","nameZh":"清水郡","type":"Jun","lat":34.833,"lng":105.993,"startYear":464,"endYear":622},{"id":"chgis-211863","name":"Hanyang Jun","nameZh":"汉阳郡","type":"Jun","lat":34.191,"lng":105.177,"startYear":444,"endYear":552},{"id":"chgis-211864","name":"Changdao Jun","nameZh":"长道郡","type":"Jun","lat":34.205,"lng":105.326,"startYear":553,"endYear":582},{"id":"chgis-211865","name":"Guanghua Jun","nameZh":"光华郡","type":"Jun","lat":33.804,"lng":106.04,"startYear":487,"endYear":582},{"id":"chgis-211866","name":"Hui Zhou","nameZh":"徽州","type":"Zhou","lat":33.767,"lng":106.082,"startYear":1240,"endYear":1376},{"id":"chgis-211867","name":"Wujie Jun","nameZh":"武阶郡","type":"Jun","lat":33.294,"lng":105.118,"startYear":390,"endYear":582},{"id":"chgis-211869","name":"Jie Zhou","nameZh":"阶州","type":"Zhou","lat":33.565,"lng":104.642,"startYear":1268,"endYear":1370},{"id":"chgis-211871","name":"Yinping Jun","nameZh":"阴平郡","type":"Jun","lat":33.099,"lng":104.426,"startYear":224,"endYear":307},{"id":"chgis-211873","name":"Wen Zhou","nameZh":"文州","type":"Zhou","lat":32.947,"lng":104.664,"startYear":558,"endYear":781},{"id":"chgis-211876","name":"Wen Zhou","nameZh":"文州","type":"Zhou","lat":32.948,"lng":104.678,"startYear":782,"endYear":1276},{"id":"chgis-211877","name":"Guangye Jun","nameZh":"广业郡","type":"Jun","lat":33.741,"lng":105.727,"startYear":444,"endYear":1376},{"id":"chgis-211880","name":"Cheng Zhou","nameZh":"成州","type":"Zhou","lat":34.092,"lng":105.122,"startYear":923,"endYear":1224},{"id":"chgis-211883","name":"Dang Zhou","nameZh":"宕州","type":"Zhou","lat":33.963,"lng":104.637,"startYear":566,"endYear":626},{"id":"chgis-211885","name":"Jiuquan Jun","nameZh":"酒泉郡","type":"Jun","lat":39.744,"lng":98.511,"startYear":-121,"endYear":1453},{"id":"chgis-211893","name":"Dunhuang Jun","nameZh":"敦煌郡","type":"Jun","lat":40.052,"lng":94.525,"startYear":-111,"endYear":1034},{"id":"chgis-211907","name":"Shazhou Lu","nameZh":"沙州路","type":"Lu","lat":40.141,"lng":94.651,"startYear":1277,"endYear":1404},{"id":"chgis-211908","name":"Anding Wei","nameZh":"安定卫","type":"Wei","lat":39.112,"lng":94.267,"startYear":1375,"endYear":1453},{"id":"chgis-211909","name":"Puding Wei","nameZh":"普定卫","type":"Wei","lat":26.243,"lng":105.928,"startYear":1390,"endYear":1453},{"id":"chgis-211916","name":"Pingyue Wei","nameZh":"平越卫","type":"Wei","lat":26.701,"lng":107.513,"startYear":1392,"endYear":1453},{"id":"chgis-211919","name":"Pingxi Wei","nameZh":"平溪卫","type":"Wei","lat":27.24,"lng":108.912,"startYear":1390,"endYear":1453},{"id":"chgis-211920","name":"Wuluo Fu","nameZh":"乌罗府","type":"Fu","lat":28.094,"lng":108.791,"startYear":1414,"endYear":1437},{"id":"chgis-211923","name":"Jianwei Nanbuduwei","nameZh":"犍为南部都尉","type":"Nanbuduwei","lat":26.662,"lng":104.84,"startYear":-126,"endYear":106},{"id":"chgis-211925","name":"Gou Zhou","nameZh":"鉤州","type":"Zhou","lat":24.672,"lng":102.593,"startYear":637,"endYear":749},{"id":"chgis-211930","name":"Luchuan Lu","nameZh":"麓川路","type":"Lu","lat":24.004,"lng":97.821,"startYear":1276,"endYear":1441},{"id":"chgis-211932","name":"Luowu Fu","nameZh":"罗婺府","type":"Wanhufu","lat":25.887,"lng":102.404,"startYear":1257,"endYear":1273},{"id":"chgis-211936","name":"Nandian Lu","nameZh":"南甸路","type":"Lu","lat":24.881,"lng":98.369,"startYear":1289,"endYear":1413},{"id":"chgis-211939","name":"Shanchan Fu","nameZh":"善阐府","type":"Fu","lat":25.043,"lng":102.711,"startYear":765,"endYear":1453},{"id":"chgis-211940","name":"Shipingyi","nameZh":"石坪邑","type":"Yi","lat":23.718,"lng":102.491,"startYear":748,"endYear":1269},{"id":"chgis-211942","name":"Tengchong Fu","nameZh":"腾冲府","type":"Fu","lat":25.028,"lng":98.495,"startYear":1274,"endYear":1453},{"id":"chgis-211944","name":"Wandian Zhou","nameZh":"湾甸州","type":"Zhou","lat":24.474,"lng":99.344,"startYear":1405,"endYear":1453},{"id":"chgis-211951","name":"Yao'an Fu","nameZh":"姚安府","type":"Fu","lat":25.51,"lng":101.239,"startYear":1394,"endYear":1453},{"id":"chgis-211953","name":"Yinshaluo Fu","nameZh":"银沙罗府","type":"Fu","lat":23.048,"lng":99.833,"startYear":1329,"endYear":1381},{"id":"chgis-211954","name":"Yongchang Jun","nameZh":"永昌郡","type":"Jun","lat":25.154,"lng":99.253,"startYear":76,"endYear":547},{"id":"chgis-211955","name":"Yunlong dianjunminzongguan Fu","nameZh":"云龙甸军民总管府","type":"Fu","lat":25.753,"lng":99.227,"startYear":1289,"endYear":1383},{"id":"chgis-211959","name":"Zhenyuan Fu","nameZh":"镇沅府","type":"Fu","lat":23.857,"lng":100.888,"startYear":1402,"endYear":1453},{"id":"chgis-211962","name":"Dongheyang Jun","nameZh":"东河阳郡","type":"Jun","lat":25.585,"lng":100.313,"startYear":311,"endYear":1256},{"id":"chgis-211966","name":"Xiheyang Jun","nameZh":"西河阳郡","type":"Jun","lat":25.933,"lng":99.377,"startYear":342,"endYear":548},{"id":"chgis-211967","name":"Xingning Jun","nameZh":"兴宁郡","type":"Jun","lat":25.738,"lng":101.317,"startYear":330,"endYear":480},{"id":"chgis-211969","name":"Yunnan Jun","nameZh":"云南郡","type":"Jun","lat":25.425,"lng":100.69,"startYear":224,"endYear":547},{"id":"chgis-211970","name":"Guangxi Lu","nameZh":"广西路","type":"Lu","lat":24.53,"lng":103.763,"startYear":1275,"endYear":1453},{"id":"chgis-211976","name":"Dali Lu","nameZh":"大理路","type":"Lu","lat":25.695,"lng":100.16,"startYear":1270,"endYear":1453},{"id":"chgis-211978","name":"Xinggu Jun","nameZh":"兴古郡","type":"Jun","lat":24.035,"lng":103.58,"startYear":275,"endYear":310},{"id":"chgis-211979","name":"Xinggu Jun","nameZh":"兴古郡","type":"Jun","lat":24.404,"lng":102.801,"startYear":265,"endYear":274},{"id":"chgis-211981","name":"Chengjiang Fu","nameZh":"澂江路","type":"Lu","lat":24.673,"lng":102.916,"startYear":1266,"endYear":1453},{"id":"chgis-211983","name":"Guangnanxi Lu","nameZh":"广南西路","type":"Xuanweisi","lat":24.05,"lng":105.063,"startYear":1278,"endYear":1453},{"id":"chgis-211985","name":"Qujing Lu","nameZh":"曲靖路","type":"Lu","lat":25.495,"lng":103.796,"startYear":1276,"endYear":1453},{"id":"chgis-211989","name":"Cheli Lu","nameZh":"车里路","type":"Lu","lat":22.013,"lng":100.794,"startYear":1301,"endYear":1453},{"id":"chgis-211995","name":"Yuanjiang Lu","nameZh":"元江路","type":"Lu","lat":23.597,"lng":102.003,"startYear":1288,"endYear":1453},{"id":"chgis-212004","name":"Yongning Fu","nameZh":"永宁府","type":"Fu","lat":27.76,"lng":100.659,"startYear":1406,"endYear":1453},{"id":"chgis-212006","name":"Menglong Lu","nameZh":"孟隆路","type":"Lu","lat":21.582,"lng":100.679,"startYear":1326,"endYear":1453},{"id":"chgis-212007","name":"Mengqing Fu","nameZh":"蒙庆府","type":"Fu","lat":21.457,"lng":100.474,"startYear":1327,"endYear":1340},{"id":"chgis-212008","name":"Mengwu Lu","nameZh":"蒙兀路","type":"Lu","lat":22.281,"lng":101.648,"startYear":1327,"endYear":1402},{"id":"chgis-212009","name":"Ningyuan Zhou","nameZh":"宁远州","type":"Zhou","lat":22.193,"lng":102.908,"startYear":1327,"endYear":1402},{"id":"chgis-212010","name":"Heni Lu","nameZh":"和泥路","type":"Lu","lat":23.296,"lng":102.305,"startYear":1327,"endYear":1382},{"id":"chgis-212011","name":"Mubang Lu","nameZh":"木邦路","type":"Lu","lat":23.049,"lng":98.426,"startYear":1330,"endYear":1381},{"id":"chgis-212014","name":"Xingning Jun","nameZh":"兴宁郡","type":"Jun","lat":25.726,"lng":101.322,"startYear":481,"endYear":554},{"id":"chgis-212015","name":"Ningbei Jiedu","nameZh":"宁北节度","type":"Jiedu","lat":26.056,"lng":100.041,"startYear":738,"endYear":793},{"id":"chgis-212019","name":"Ning Zhou","nameZh":"宁州","type":"Zhou","lat":25.031,"lng":103.664,"startYear":428,"endYear":505},{"id":"chgis-212026","name":"Wusa Lu","nameZh":"乌撒路","type":"Lu","lat":26.862,"lng":104.287,"startYear":1278,"endYear":1453},{"id":"chgis-212028","name":"Bijie Wei","nameZh":"毕节卫","type":"Wei","lat":27.304,"lng":105.283,"startYear":1384,"endYear":1453},{"id":"chgis-212029","name":"Chishui Wei","nameZh":"赤水卫","type":"Wei","lat":27.727,"lng":105.579,"startYear":1388,"endYear":1453},{"id":"chgis-212030","name":"Pushi Suo","nameZh":"普市所","type":"Qianhusuo","lat":28.004,"lng":105.556,"startYear":1389,"endYear":1453},{"id":"chgis-212035","name":"Bafanshunyuan Xuanweisi","nameZh":"八番顺元宣慰司","type":"Xuanweisi","lat":26.581,"lng":106.709,"startYear":1280,"endYear":1453},{"id":"chgis-212037","name":"Xintiangeman Anfusi","nameZh":"新添葛蛮安抚司","type":"Anfusi","lat":26.622,"lng":107.237,"startYear":1279,"endYear":1453},{"id":"chgis-212038","name":"Zhenning Zhou","nameZh":"镇宁州","type":"Zhou","lat":26.11,"lng":105.796,"startYear":1438,"endYear":1453},{"id":"chgis-212040","name":"Annan Wei","nameZh":"安南卫","type":"Wei","lat":25.836,"lng":105.215,"startYear":1391,"endYear":1453},{"id":"chgis-212041","name":"Yongning Zhou","nameZh":"永宁州","type":"Zhou","lat":25.91,"lng":105.486,"startYear":1438,"endYear":1453},{"id":"chgis-212043","name":"Anshun Zhou","nameZh":"安顺州","type":"Zhou","lat":26.255,"lng":106.136,"startYear":1385,"endYear":1453},{"id":"chgis-212044","name":"Pu'an Wei","nameZh":"普安卫","type":"Wei","lat":25.786,"lng":104.652,"startYear":1390,"endYear":1453},{"id":"chgis-212046","name":"Mangbu Lu","nameZh":"茫部路","type":"Lu","lat":27.62,"lng":104.859,"startYear":1273,"endYear":1453},{"id":"chgis-212048","name":"Yongning Wei","nameZh":"永宁卫","type":"Wei","lat":28.169,"lng":105.432,"startYear":1371,"endYear":1453},{"id":"chgis-212049","name":"Qinglang Wei","nameZh":"清浪卫","type":"Wei","lat":27.127,"lng":108.739,"startYear":1371,"endYear":1453},{"id":"chgis-212050","name":"Pianqiao Wei","nameZh":"偏桥卫","type":"Wei","lat":27.038,"lng":108.12,"startYear":1390,"endYear":1453},{"id":"chgis-212051","name":"Zhenyuan Wei","nameZh":"镇远卫","type":"Wei","lat":27.053,"lng":108.413,"startYear":1389,"endYear":1453},{"id":"chgis-212052","name":"Zhenyuan Fu","nameZh":"镇远府","type":"Fu","lat":27.052,"lng":108.417,"startYear":1330,"endYear":1453},{"id":"chgis-212053","name":"Shiqian Fu","nameZh":"石阡府","type":"Fu","lat":27.521,"lng":108.227,"startYear":1413,"endYear":1453},{"id":"chgis-212056","name":"Pingchadong Si","nameZh":"平茶洞司","type":"Zhangguansi","lat":28.47,"lng":108.961,"startYear":1375,"endYear":1453},{"id":"chgis-212057","name":"Xidangqu Jun","nameZh":"西宕渠郡","type":"Jun","lat":31.397,"lng":105.252,"startYear":442,"endYear":509},{"id":"chgis-212058","name":"Fuyv Jun","nameZh":"伏虞郡","type":"Jun","lat":31.538,"lng":106.73,"startYear":535,"endYear":582},{"id":"chgis-212059","name":"Jingyang Jun","nameZh":"景阳郡","type":"Jun","lat":31.115,"lng":106.769,"startYear":547,"endYear":582},{"id":"chgis-212060","name":"Guang'an Jun","nameZh":"广安军","type":"Jun","lat":30.568,"lng":106.88,"startYear":1243,"endYear":1274},{"id":"chgis-212063","name":"Xin'an Jun","nameZh":"新安郡","type":"Jun","lat":31.098,"lng":107.375,"startYear":536,"endYear":582},{"id":"chgis-212067","name":"Bing Zhou","nameZh":"并州","type":"Zhou","lat":31.765,"lng":108.125,"startYear":536,"endYear":584},{"id":"chgis-212068","name":"Yi Zhou","nameZh":"义州","type":"Zhou","lat":29.769,"lng":103.476,"startYear":719,"endYear":719},{"id":"chgis-212069","name":"Longshan Jun","nameZh":"隆山郡","type":"Jun","lat":30.197,"lng":103.875,"startYear":561,"endYear":582},{"id":"chgis-212076","name":"Ningfan Wei","nameZh":"宁番卫","type":"Wei","lat":28.551,"lng":102.168,"startYear":1388,"endYear":1453},{"id":"chgis-212077","name":"Baixing Fu","nameZh":"柏兴府","type":"Fu","lat":27.425,"lng":101.509,"startYear":1290,"endYear":1453},{"id":"chgis-212079","name":"Qiongbu Jun","nameZh":"邛部郡","type":"Jun","lat":28.717,"lng":102.594,"startYear":565,"endYear":582},{"id":"chgis-212080","name":"Yuexi Wei","nameZh":"越嶲卫","type":"Wei","lat":28.645,"lng":102.51,"startYear":1392,"endYear":1453},{"id":"chgis-212082","name":"Junlian Zhou","nameZh":"筠连州","type":"Zhou","lat":28.166,"lng":104.506,"startYear":1278,"endYear":1370},{"id":"chgis-212084","name":"Gong Zhou","nameZh":"巩州","type":"Zhou","lat":28.091,"lng":104.823,"startYear":677,"endYear":1082},{"id":"chgis-212086","name":"Yan Zhou","nameZh":"晏州","type":"Zhou","lat":28.336,"lng":105.096,"startYear":742,"endYear":1082},{"id":"chgis-212088","name":"Shunyuan Xuanweisi","nameZh":"顺元宣慰司","type":"Xuanweisi","lat":27.033,"lng":106.028,"startYear":1280,"endYear":1370},{"id":"chgis-212092","name":"Hanzhong Wei","nameZh":"汉中卫","type":"Wei","lat":33.073,"lng":107.007,"startYear":1371,"endYear":1453},{"id":"chgis-212094","name":"Pantou Jun","nameZh":"槃头郡","type":"Jun","lat":33.586,"lng":106.058,"startYear":506,"endYear":582},{"id":"chgis-212096","name":"Weiyang Jun","nameZh":"洧阳郡","type":"Jun","lat":32.937,"lng":109.698,"startYear":552,"endYear":561},{"id":"chgis-212101","name":"Baoding Jun","nameZh":"保定军","type":"Jun","lat":39.003,"lng":116.357,"startYear":981,"endYear":1128},{"id":"chgis-212103","name":"Xin'an Jun","nameZh":"信安军","type":"Jun","lat":39.146,"lng":116.644,"startYear":981,"endYear":1166},{"id":"chgis-212104","name":"Ba Zhou","nameZh":"霸州","type":"Zhou","lat":39.102,"lng":116.395,"startYear":959,"endYear":1167},{"id":"chgis-212106","name":"Shen Zhou","nameZh":"深州","type":"Zhou","lat":37.721,"lng":115.606,"startYear":1224,"endYear":1234},{"id":"chgis-212108","name":"Zhi Zhou","nameZh":"泜州","type":"Zhou","lat":38.305,"lng":114.364,"startYear":578,"endYear":773},{"id":"chgis-212110","name":"En Zhou","nameZh":"恩州","type":"Zhou","lat":37.213,"lng":116.073,"startYear":1265,"endYear":1368},{"id":"chgis-212115","name":"Zhuanglang Zhou","nameZh":"庄浪州","type":"Zhou","lat":35.389,"lng":106.186,"startYear":1267,"endYear":1369},{"id":"chgis-212119","name":"Zhenyuan Zhou","nameZh":"镇原州","type":"Zhou","lat":35.678,"lng":107.194,"startYear":808,"endYear":1369},{"id":"chgis-212120","name":"Long Zhou","nameZh":"陇州","type":"Zhou","lat":34.89,"lng":106.858,"startYear":522,"endYear":1368},{"id":"chgis-212122","name":"Hui Zhou","nameZh":"会州","type":"Zhou","lat":35.694,"lng":105.056,"startYear":1320,"endYear":1376},{"id":"chgis-212123","name":"Ningxiazhong Wei","nameZh":"宁夏中卫","type":"Wei","lat":37.515,"lng":105.185,"startYear":1403,"endYear":1453},{"id":"chgis-212124","name":"Hami Wei","nameZh":"哈密卫","type":"Wei","lat":42.822,"lng":93.511,"startYear":1406,"endYear":1453},{"id":"chgis-212125","name":"Shazhou Wei","nameZh":"沙州卫","type":"Wei","lat":40.36,"lng":95.937,"startYear":1405,"endYear":1445},{"id":"chgis-212127","name":"Zhenyi Suo","nameZh":"镇夷所","type":"Suo","lat":39.906,"lng":99.393,"startYear":1397,"endYear":1453},{"id":"chgis-212129","name":"Zhenfan Wei","nameZh":"镇番卫","type":"Wei","lat":38.623,"lng":103.09,"startYear":1382,"endYear":1453},{"id":"chgis-212134","name":"Malongtalangdian Si","nameZh":"马龙他郎甸司","type":"Zhangguansi","lat":24.141,"lng":102.053,"startYear":1384,"endYear":1453},{"id":"chgis-212139","name":"Dahou Zhou","nameZh":"大侯州","type":"Zhou","lat":24.442,"lng":100.137,"startYear":1403,"endYear":1453},{"id":"chgis-212148","name":"Xundian Fu","nameZh":"仁德府","type":"Fu","lat":25.563,"lng":103.283,"startYear":1276,"endYear":1453},{"id":"chgis-212149","name":"Duyun Junminzhihuishisi","nameZh":"都匀军民指挥使司","type":"Zhihuisi","lat":26.245,"lng":107.514,"startYear":1287,"endYear":1453},{"id":"chgis-212153","name":"Xinghe Lu","nameZh":"兴和路","type":"Lu","lat":41.157,"lng":114.708,"startYear":1312,"endYear":1369},{"id":"chgis-212154","name":"Jining Lu","nameZh":"集宁路","type":"Lu","lat":40.953,"lng":113.371,"startYear":1240,"endYear":1367},{"id":"chgis-212156","name":"Shangdu Lu","nameZh":"上都路","type":"Lu","lat":42.52,"lng":116.077,"startYear":1263,"endYear":1380},{"id":"chgis-212165","name":"He Zhou","nameZh":"贺州","type":"Zhou","lat":24.417,"lng":111.535,"startYear":1276,"endYear":1368},{"id":"chgis-212176","name":"Sicheng Zhou","nameZh":"泗城州","type":"Zhou","lat":24.349,"lng":106.576,"startYear":1374,"endYear":1453},{"id":"chgis-212179","name":"Tianzhou Fu","nameZh":"田州府","type":"Fu","lat":23.654,"lng":106.949,"startYear":727,"endYear":1453},{"id":"chgis-212181","name":"Si'en Fu","nameZh":"思恩府","type":"Fu","lat":23.638,"lng":108.109,"startYear":1442,"endYear":1453},{"id":"chgis-212186","name":"Xiangwu Zhou","nameZh":"向武州","type":"Zhou","lat":23.234,"lng":106.96,"startYear":1400,"endYear":1453},{"id":"chgis-212187","name":"Dukang Zhou","nameZh":"都康州","type":"Zhou","lat":23.108,"lng":107.084,"startYear":1399,"endYear":1453},{"id":"chgis-212188","name":"Long Zhou","nameZh":"龙州","type":"Zhou","lat":22.352,"lng":106.85,"startYear":1301,"endYear":1453},{"id":"chgis-212190","name":"Siling Zhou","nameZh":"思陵州","type":"Zhou","lat":21.846,"lng":107.127,"startYear":1388,"endYear":1453},{"id":"chgis-212193","name":"Siming Fu","nameZh":"思明府","type":"Fu","lat":22.12,"lng":107.133,"startYear":1287,"endYear":1453},{"id":"chgis-212195","name":"Zhen'an Fu","nameZh":"镇安府","type":"Fu","lat":23.332,"lng":106.608,"startYear":1369,"endYear":1453},{"id":"chgis-212197","name":"Zhao Zhou","nameZh":"昭州","type":"Zhou","lat":24.636,"lng":110.646,"startYear":1064,"endYear":1453},{"id":"chgis-212202","name":"Kelan Jun","nameZh":"岢岚军","type":"Jun","lat":38.704,"lng":111.57,"startYear":980,"endYear":1220},{"id":"chgis-212210","name":"Suihua Jun","nameZh":"绥化郡","type":"Jun","lat":34.953,"lng":110.508,"startYear":560,"endYear":560},{"id":"chgis-212218","name":"Zuo Zhou","nameZh":"胙州","type":"Zhou","lat":35.304,"lng":114.303,"startYear":619,"endYear":620},{"id":"chgis-212219","name":"Wangwu Jun","nameZh":"王屋郡","type":"Jun","lat":35.114,"lng":112.269,"startYear":559,"endYear":582},{"id":"chgis-212220","name":"Wude Jun","nameZh":"武德郡","type":"Jun","lat":35.031,"lng":113.136,"startYear":534,"endYear":582},{"id":"chgis-212221","name":"Yangxia Jun","nameZh":"阳夏郡","type":"Jun","lat":34.549,"lng":114.776,"startYear":528,"endYear":626},{"id":"chgis-212224","name":"Wushan Jun","nameZh":"武山郡","type":"Jun","lat":33.659,"lng":113.11,"startYear":557,"endYear":582},{"id":"chgis-212225","name":"Xinyang Jun","nameZh":"信阳军","type":"Jun","lat":32.128,"lng":114.072,"startYear":417,"endYear":1370},{"id":"chgis-212226","name":"Beilang Zhou","nameZh":"北朗州","type":"Zhou","lat":32.802,"lng":114.023,"startYear":621,"endYear":626},{"id":"chgis-212227","name":"Yu Zhou","nameZh":"舆州","type":"Zhou","lat":32.957,"lng":114.629,"startYear":617,"endYear":623},{"id":"chgis-212229","name":"Huangchuan Jun","nameZh":"黄川郡","type":"Jun","lat":31.925,"lng":114.698,"startYear":477,"endYear":501},{"id":"chgis-212230","name":"Changling Jun","nameZh":"长陵郡","type":"Jun","lat":32.38,"lng":115.106,"startYear":529,"endYear":582},{"id":"chgis-212234","name":"Yangcheng Jun","nameZh":"阳城郡","type":"Jun","lat":34.399,"lng":113.14,"startYear":526,"endYear":628},{"id":"chgis-212236","name":"Wenxiang Jun","nameZh":"阌乡郡","type":"Jun","lat":34.572,"lng":110.626,"startYear":558,"endYear":582},{"id":"chgis-212239","name":"Yiyang Jun","nameZh":"邑阳郡","type":"Jun","lat":34.197,"lng":110.282,"startYear":542,"endYear":582},{"id":"chgis-212241","name":"Nanxiangcheng Jun","nameZh":"南襄城郡","type":"Jun","lat":33.498,"lng":113.286,"startYear":567,"endYear":582},{"id":"chgis-212243","name":"Shengping Jun","nameZh":"升平郡","type":"Jun","lat":32.408,"lng":112.747,"startYear":532,"endYear":582},{"id":"chgis-212244","name":"Li Zhou","nameZh":"郦州","type":"Zhou","lat":32.844,"lng":111.911,"startYear":619,"endYear":624},{"id":"chgis-212245","name":"Qicheng Jun","nameZh":"期城郡","type":"Jun","lat":32.732,"lng":113.197,"startYear":526,"endYear":582},{"id":"chgis-212246","name":"Badong Jun","nameZh":"巴东郡","type":"Jun","lat":31.042,"lng":109.571,"startYear":194,"endYear":1284},{"id":"chgis-212247","name":"Jianping Jun","nameZh":"建平郡","type":"Jun","lat":31.074,"lng":109.882,"startYear":260,"endYear":582},{"id":"chgis-212248","name":"Wanshi Jun","nameZh":"万世郡","type":"Jun","lat":31.376,"lng":108.506,"startYear":566,"endYear":582},{"id":"chgis-212249","name":"Nandu Jun","nameZh":"南都郡","type":"Jun","lat":30.506,"lng":108.254,"startYear":561,"endYear":582},{"id":"chgis-212255","name":"Heren Jun","nameZh":"和仁郡","type":"Jun","lat":30.158,"lng":104.318,"startYear":555,"endYear":582},{"id":"chgis-212256","name":"Ningshu Jun","nameZh":"宁蜀郡","type":"Jun","lat":30.576,"lng":103.919,"startYear":352,"endYear":559},{"id":"chgis-212258","name":"Ba Jun","nameZh":"巴郡","type":"Jun","lat":29.56,"lng":106.557,"startYear":201,"endYear":1453},{"id":"chgis-212259","name":"Qimen Jun","nameZh":"七门郡","type":"Jun","lat":29.273,"lng":106.379,"startYear":557,"endYear":582},{"id":"chgis-212263","name":"Nanlin Zhou","nameZh":"南潾州","type":"Zhou","lat":30.011,"lng":107.279,"startYear":619,"endYear":625},{"id":"chgis-212267","name":"Mumen Jun","nameZh":"木门郡","type":"Jun","lat":32.113,"lng":106.522,"startYear":525,"endYear":622},{"id":"chgis-212268","name":"Airong Jun","nameZh":"哀戎郡","type":"Jun","lat":31.877,"lng":106.941,"startYear":525,"endYear":582},{"id":"chgis-212269","name":"Jinqian Jun","nameZh":"金迁郡","type":"Jun","lat":31.486,"lng":105.752,"startYear":554,"endYear":582},{"id":"chgis-212275","name":"Jingzhao Yin","nameZh":"京兆尹","type":"Yin","lat":34.318,"lng":108.937,"startYear":-379,"endYear":1368},{"id":"chgis-212276","name":"Shouchang Jun","nameZh":"寿昌郡","type":"Jun","lat":39.911,"lng":94.109,"startYear":460,"endYear":557},{"id":"chgis-212277","name":"Xiaogu Jun","nameZh":"效谷郡","type":"Jun","lat":40.505,"lng":95.672,"startYear":460,"endYear":557},{"id":"chgis-212283","name":"Zhongxiang Jun","nameZh":"中乡郡","type":"Jun","lat":38.353,"lng":110.048,"startYear":562,"endYear":580},{"id":"chgis-212285","name":"Huaiyuan Jun","nameZh":"怀远郡","type":"Jun","lat":38.465,"lng":106.409,"startYear":574,"endYear":582},{"id":"chgis-212291","name":"Kelian Zhou","nameZh":"牁连州","type":"Zhou","lat":26.413,"lng":103.294,"startYear":672,"endYear":1453},{"id":"chgis-212292","name":"Kuang Zhou","nameZh":"匡州","type":"Zhou","lat":25.231,"lng":100.308,"startYear":634,"endYear":1453},{"id":"chgis-212293","name":"Liangshui Jun","nameZh":"梁水郡","type":"Jun","lat":23.723,"lng":103.243,"startYear":311,"endYear":548},{"id":"chgis-212296","name":"Ning Zhou","nameZh":"宁州","type":"Zhou","lat":24.197,"lng":102.928,"startYear":606,"endYear":1265},{"id":"chgis-212298","name":"Shanju Jun","nameZh":"善巨郡","type":"Jun","lat":26.689,"lng":100.745,"startYear":936,"endYear":1453},{"id":"chgis-212299","name":"Xi’a Jun","nameZh":"西阿郡","type":"Jun","lat":25.855,"lng":100.13,"startYear":420,"endYear":548},{"id":"chgis-212376","name":"Dengchuan Zhou","nameZh":"邓川州","type":"Zhou","lat":25.991,"lng":100.04,"startYear":1384,"endYear":1453},{"id":"chgis-212381","name":"Zhao Guo","nameZh":"赵国","type":"Guo","lat":36.591,"lng":114.516,"startYear":-221,"endYear":231},{"id":"chgis-212387","name":"Zhending Guo","nameZh":"真定国","type":"Guo","lat":38.153,"lng":114.594,"startYear":-187,"endYear":612},{"id":"chgis-212417","name":"Yun Zhou","nameZh":"郓州","type":"Zhou","lat":35.602,"lng":116.099,"startYear":590,"endYear":633},{"id":"chgis-212459","name":"Fang Zhou","nameZh":"方州","type":"Zhou","lat":37.874,"lng":111.236,"startYear":619,"endYear":619},{"id":"chgis-212460","name":"Pu Zhou","nameZh":"蒲州","type":"Zhou","lat":35.077,"lng":110.7,"startYear":617,"endYear":619},{"id":"chgis-212466","name":"Xiangcheng Jun","nameZh":"襄城郡","type":"Jun","lat":34.165,"lng":112.877,"startYear":606,"endYear":633},{"id":"chgis-212483","name":"Ze Zhou","nameZh":"泽州","type":"Zhou","lat":35.491,"lng":112.418,"startYear":618,"endYear":624},{"id":"chgis-212491","name":"Wei Zhou","nameZh":"洧州","type":"Zhou","lat":34.41,"lng":114.187,"startYear":619,"endYear":626},{"id":"chgis-212493","name":"Ze Zhou","nameZh":"泽州","type":"Zhou","lat":35.675,"lng":112.52,"startYear":625,"endYear":626},{"id":"chgis-212494","name":"Rui Zhou","nameZh":"芮州","type":"Zhou","lat":34.697,"lng":110.688,"startYear":619,"endYear":626},{"id":"chgis-212495","name":"Jian Zhou","nameZh":"犍州","type":"Zhou","lat":29.8,"lng":103.487,"startYear":626,"endYear":626},{"id":"chgis-212497","name":"Beilian Zhou","nameZh":"北连州","type":"Zhou","lat":36.579,"lng":110.005,"startYear":619,"endYear":627},{"id":"chgis-212506","name":"Bing Zhou","nameZh":"井州","type":"Zhou","lat":38.187,"lng":114.051,"startYear":596,"endYear":642},{"id":"chgis-212507","name":"Han Zhou","nameZh":"韩州","type":"Zhou","lat":36.535,"lng":113.041,"startYear":618,"endYear":642},{"id":"chgis-212508","name":"Yun Zhou","nameZh":"云州","type":"Zhou","lat":40.097,"lng":113.151,"startYear":467,"endYear":681},{"id":"chgis-212510","name":"Ji Zhou","nameZh":"稷州","type":"Zhou","lat":34.281,"lng":108.165,"startYear":622,"endYear":700},{"id":"chgis-212511","name":"Gui Zhou","nameZh":"妫州","type":"Zhou","lat":39.47,"lng":115.971,"startYear":634,"endYear":701},