[
  {
    "id": "darmc-port-thul-baltia-6327--1476",
    "name": "Thulé, Baltia",
    "lat": 63.2748,
    "lng": -14.7613,
    "placeType": "anchorage",
    "startYear": null,
    "endYear": null,
    "description": "Ancient anchorage: Thulé, Baltia. (Iceland ?). Sources: Polybius, Hist, 34, 5 ; Pliny, Hist Nat, 2, 77 & 99 & 4, 27",
    "source": "DARMC"
  },
  {
    "id": "darmc-port-mararmano-manarmani-5304-483",
    "name": "Mararmano, Manarmani",
    "lat": 53.0415,
    "lng": 4.8252,
    "placeType": "anchorage",
    "startYear": null,
    "endYear": null,
    "description": "Ancient anchorage: Mararmano, Manarmani. (Netherlands). Sources: Marcian, Peripl, 2, 32",
    "source": "DARMC"
  },
  {
    "id": "darmc-port-flevum-5246-467",
    "name": "Flevum",
    "lat": 52.4589,
    "lng": 4.6667,
    "placeType": "anchorage",
    "startYear": null,
    "endYear": null,
    "description": "Ancient anchorage: Flevum. (Netherlands)",
    "source": "DARMC"
  },
  {
    "id": "darmc-port-lugdunum-batavorum-brittenburg-5221-439",
    "name": "Lugdunum Batavorum, Brittenburg",
    "lat": 52.2135,
    "lng": 4.3932,
    "placeType": "anchorage",
    "startYear": null,
    "endYear": null,
    "description": "Ancient anchorage: Lugdunum Batavorum, Brittenburg. (Netherlands)",
    "source": "DARMC"
  },
  {
    "id": "darmc-port-forum-hadriani-5206-435",
    "name": "Forum Hadriani",
    "lat": 52.059,
    "lng": 4.3486,
    "placeType": "anchorage",
    "startYear": null,
    "endYear": null,
    "description": "Ancient anchorage: Forum Hadriani. (Netherlands)",
    "source": "DARMC"
  },
  {
    "id": "darmc-port-helinio-5191-403",
    "name": "Helinio",
    "lat": 51.9086,
    "lng": 4.0349,
    "placeType": "anchorage",
    "startYear": null,
    "endYear": null,
    "description": "Ancient anchorage: Helinio. (Netherlands)",
    "source": "DARMC"
  },
  {
    "id": "darmc-port-ganuenta-5161-384",
    "name": "Ganuenta",
    "lat": 51.6122,
    "lng": 3.8373,
    "placeType": "anchorage",
    "startYear": null,
    "endYear": null,
    "description": "Ancient anchorage: Ganuenta. (Netherlands)",
    "source": "DARMC"
  },
  {
    "id": "darmc-port-rodanum-5127-345",
    "name": "Rodanum ?",
    "lat": 51.2742,
    "lng": 3.4482,
    "placeType": "anchorage",
    "startYear": null,
    "endYear": null,
    "description": "Ancient anchorage: Rodanum ?. (Netherlands)",
    "source": "DARMC"
  },
  {
    "id": "darmc-port-aldenburgensis-5118-300",
    "name": "Aldenburgensis",
    "lat": 51.1841,
    "lng": 3.0032,
    "placeType": "anchorage",
    "startYear": null,
    "endYear": null,
    "description": "Ancient anchorage: Aldenburgensis. (Flanders)",
    "source": "DARMC"
  },
  {
    "id": "darmc-port-albion-britannia-5110-0",
    "name": "Albion, Britannia",
    "lat": 51.1,
    "lng": 0,
    "placeType": "anchorage",
    "startYear": null,
    "endYear": null,
    "description": "Ancient anchorage: Albion, Britannia. (UK). Sources: Pliny, Hist Nat, 4, 30 ; Caesar, Guerre des Gaules, 5, 1 & 2, & 8 to 11",
    "source": "DARMC"
  },
  {
    "id": "darmc-port-orcades-5907--320",
    "name": "Orcades",
    "lat": 59.0744,
    "lng": -3.1968,
    "placeType": "anchorage",
    "startYear": null,
    "endYear": null,
    "description": "Ancient anchorage: Orcades. (UK). Sources: Antonine, Itin Mar",
    "source": "DARMC"
  },
  {
    "id": "darmc-port-velunia-veluniate-5601--356",
    "name": "Velunia, Veluniate",
    "lat": 56.0138,
    "lng": -3.5617,
    "placeType": "anchorage",
    "startYear": null,
    "endYear": null,
    "description": "Ancient anchorage: Velunia, Veluniate. (UK)",
    "source": "DARMC"
  },
  {
    "id": "darmc-port-segedunum-5499--153",
    "name": "Segedunum",
    "lat": 54.9876,
    "lng": -1.5321,
    "placeType": "anchorage",
    "startYear": null,
    "endYear": null,
    "description": "Ancient anchorage: Segedunum. (UK)",
    "source": "DARMC"
  },
  {
    "id": "darmc-port-arbeia-5500--143",
    "name": "Arbeia",
    "lat": 55.0048,
    "lng": -1.4316,
    "placeType": "anchorage",
    "startYear": null,
    "endYear": null,
    "description": "Ancient anchorage: Arbeia. (UK)",
    "source": "DARMC"
  },
  {
    "id": "darmc-port-possible-lighthouse-5459--96",
    "name": "possible lighthouse",
    "lat": 54.5938,
    "lng": -0.9588,
    "placeType": "anchorage",
    "startYear": null,
    "endYear": null,
    "description": "Ancient anchorage: possible lighthouse. (UK)",
    "source": "DARMC"
  },
  {
    "id": "darmc-port-possible-lighthouse-5454--72",
    "name": "possible lighthouse",
    "lat": 54.5397,
    "lng": -0.7246,
    "placeType": "anchorage",
    "startYear": null,
    "endYear": null,
    "description": "Ancient anchorage: possible lighthouse. (UK)",
    "source": "DARMC"
  },
  {
    "id": "darmc-port-possible-lighthouse-5442--49",
    "name": "possible lighthouse",
    "lat": 54.417,
    "lng": -0.4942,
    "placeType": "anchorage",
    "startYear": null,
    "endYear": null,
    "description": "Ancient anchorage: possible lighthouse. (UK)",
    "source": "DARMC"
  },
  {
    "id": "darmc-port-possible-lighthouse-5428--37",
    "name": "possible lighthouse",
    "lat": 54.276,
    "lng": -0.3728,
    "placeType": "anchorage",
    "startYear": null,
    "endYear": null,
    "description": "Ancient anchorage: possible lighthouse. (UK)",
    "source": "DARMC"
  },
  {
    "id": "darmc-port-portus-felix-with-possible-lighthouse-5420--26",
    "name": "Portus Felix, with possible lighthouse",
    "lat": 54.2031,
    "lng": -0.2644,
    "placeType": "anchorage",
    "startYear": null,
    "endYear": null,
    "description": "Ancient anchorage: Portus Felix, with possible lighthouse. (UK)",
    "source": "DARMC"
  },
  {
    "id": "darmc-port-gabrantiucorum-portuosus-sinus-5408--16",
    "name": "Gabrantiucorum portuosus sinus",
    "lat": 54.0831,
    "lng": -0.1598,
    "placeType": "anchorage",
    "startYear": null,
    "endYear": null,
    "description": "Ancient anchorage: Gabrantiucorum portuosus sinus. (UK). Sources: Ptol, Geogr, 2, 3",
    "source": "DARMC"
  },
  {
    "id": "darmc-port-petuaria-5372--59",
    "name": "Petuaria",
    "lat": 53.7178,
    "lng": -0.591,
    "placeType": "anchorage",
    "startYear": null,
    "endYear": null,
    "description": "Ancient anchorage: Petuaria. (UK)",
    "source": "DARMC"
  },
  {
    "id": "darmc-port-branodunum-5299-63",
    "name": "Branodunum",
    "lat": 52.994,
    "lng": 0.6334,
    "placeType": "anchorage",
    "startYear": null,
    "endYear": null,
    "description": "Ancient anchorage: Branodunum. (UK)",
    "source": "DARMC"
  },
  {
    "id": "darmc-port-gariannonum-5258-165",
    "name": "Gariannonum",
    "lat": 52.5825,
    "lng": 1.6515,
    "placeType": "anchorage",
    "startYear": null,
    "endYear": null,
    "description": "Ancient anchorage: Gariannonum. (UK)",
    "source": "DARMC"
  },
  {
    "id": "darmc-port-port-of-camulodunum-5187-94",
    "name": "port of Camulodunum",
    "lat": 51.8674,
    "lng": 0.943,
    "placeType": "anchorage",
    "startYear": null,
    "endYear": null,
    "description": "Ancient anchorage: port of Camulodunum. (UK)",
    "source": "DARMC"
  },
  {
    "id": "darmc-port-othona-portus-5173-87",
    "name": "Othona Portus",
    "lat": 51.7285,
    "lng": 0.8735,
    "placeType": "anchorage",
    "startYear": null,
    "endYear": null,
    "description": "Ancient anchorage: Othona Portus. (UK)",
    "source": "DARMC"
  },
  {
    "id": "darmc-port-londinium-5151--9",
    "name": "Londinium",
    "lat": 51.5071,
    "lng": -0.0857,
    "placeType": "anchorage",
    "startYear": null,
    "endYear": null,
    "description": "Ancient anchorage: Londinium. (UK)",
    "source": "DARMC"
  },
  {
    "id": "darmc-port-durobrivae-5140-55",
    "name": "Durobrivae",
    "lat": 51.4035,
    "lng": 0.5538,
    "placeType": "anchorage",
    "startYear": null,
    "endYear": null,
    "description": "Ancient anchorage: Durobrivae. (UK)",
    "source": "DARMC"
  },
  {
    "id": "darmc-port-regulbium-5138-120",
    "name": "Regulbium",
    "lat": 51.3807,
    "lng": 1.1952,
    "placeType": "anchorage",
    "startYear": null,
    "endYear": null,
    "description": "Ancient anchorage: Regulbium. (UK)",
    "source": "DARMC"
  },
  {
    "id": "darmc-port-rutupiae-ritupium-5131-135",
    "name": "Rutupiae, Ritupium",
    "lat": 51.3059,
    "lng": 1.3531,
    "placeType": "anchorage",
    "startYear": null,
    "endYear": null,
    "description": "Ancient anchorage: Rutupiae, Ritupium. (UK). Sources: Antonine, Itin Mar",
    "source": "DARMC"
  },
  {
    "id": "darmc-port-portus-dubris-and-its-famous-ancient-lighthouse-5113-132",
    "name": "Portus Dubris and its famous ancient lighthouse",
    "lat": 51.1284,
    "lng": 1.3229,
    "placeType": "anchorage",
    "startYear": null,
    "endYear": null,
    "description": "Ancient anchorage: Portus Dubris and its famous ancient lighthouse. (UK)",
    "source": "DARMC"
  },
  {
    "id": "darmc-port-portus-lemanus-5094-75",
    "name": "Portus Lemanus",
    "lat": 50.9419,
    "lng": 0.7548,
    "placeType": "anchorage",
    "startYear": null,
    "endYear": null,
    "description": "Ancient anchorage: Portus Lemanus. (UK)",
    "source": "DARMC"
  },
  {
    "id": "darmc-port-anderidos-anderitum-5081-35",
    "name": "Anderidos, Anderitum",
    "lat": 50.8077,
    "lng": 0.3545,
    "placeType": "anchorage",
    "startYear": null,
    "endYear": null,
    "description": "Ancient anchorage: Anderidos, Anderitum. (UK)",
    "source": "DARMC"
  },
  {
    "id": "darmc-port-novus-portus-5082--24",
    "name": "Novus Portus",
    "lat": 50.8213,
    "lng": -0.2419,
    "placeType": "anchorage",
    "startYear": null,
    "endYear": null,
    "description": "Ancient anchorage: Novus Portus. (UK). Sources: Ptol, Geogr, 2, 3",
    "source": "DARMC"
  },
  {
    "id": "darmc-port-port-of-noviomagus-regnorum-5083--82",
    "name": "port of Noviomagus Regnorum",
    "lat": 50.8294,
    "lng": -0.8164,
    "placeType": "anchorage",
    "startYear": null,
    "endYear": null,
    "description": "Ancient anchorage: port of Noviomagus Regnorum. (UK)",
    "source": "DARMC"
  },
  {
    "id": "darmc-port-magnus-portus-5083--100",
    "name": "Magnus Portus",
    "lat": 50.827,
    "lng": -0.9965,
    "placeType": "anchorage",
    "startYear": null,
    "endYear": null,
    "description": "Ancient anchorage: Magnus Portus. (UK). Sources: Ptol, Geogr, 2, 3",
    "source": "DARMC"
  },
  {
    "id": "darmc-port-portus-adurni-ardaoni-5084--111",
    "name": "Portus Adurni, Ardaoni,",
    "lat": 50.8386,
    "lng": -1.1124,
    "placeType": "anchorage",
    "startYear": null,
    "endYear": null,
    "description": "Ancient anchorage: Portus Adurni, Ardaoni,. (UK)",
    "source": "DARMC"
  },
  {
    "id": "darmc-port-vecta-5077--129",
    "name": "Vecta",
    "lat": 50.7696,
    "lng": -1.2912,
    "placeType": "anchorage",
    "startYear": null,
    "endYear": null,
    "description": "Ancient anchorage: Vecta. (UK). Sources: Antonine, Itin Mar",
    "source": "DARMC"
  },
  {
    "id": "darmc-port-clausentum-5091--138",
    "name": "Clausentum",
    "lat": 50.9121,
    "lng": -1.3751,
    "placeType": "anchorage",
    "startYear": null,
    "endYear": null,
    "description": "Ancient anchorage: Clausentum. (UK)",
    "source": "DARMC"
  },
  {
    "id": "darmc-port-isca-dumnoniorum-5067--346",
    "name": "Isca Dumnoniorum",
    "lat": 50.6749,
    "lng": -3.4638,
    "placeType": "anchorage",
    "startYear": null,
    "endYear": null,
    "description": "Ancient anchorage: Isca Dumnoniorum. (UK)",
    "source": "DARMC"
  },
  {
    "id": "darmc-port-sicdelis-4993--632",
    "name": "Sicdelis",
    "lat": 49.9298,
    "lng": -6.3216,
    "placeType": "anchorage",
    "startYear": null,
    "endYear": null,
    "description": "Ancient anchorage: Sicdelis. (UK). Sources: Antonine, Itin Mar",
    "source": "DARMC"
  },
  {
    "id": "darmc-port-abona-5148--265",
    "name": "Abona",
    "lat": 51.4809,
    "lng": -2.6495,
    "placeType": "anchorage",
    "startYear": null,
    "endYear": null,
    "description": "Ancient anchorage: Abona. (UK)",
    "source": "DARMC"
  },
  {
    "id": "darmc-port-venta-silurum-5161--278",
    "name": "Venta Silurum",
    "lat": 51.6099,
    "lng": -2.7765,
    "placeType": "anchorage",
    "startYear": null,
    "endYear": null,
    "description": "Ancient anchorage: Venta Silurum. (UK)",
    "source": "DARMC"
  },
  {
    "id": "darmc-port-tamion-5144--313",
    "name": "Tamion",
    "lat": 51.4449,
    "lng": -3.1295,
    "placeType": "anchorage",
    "startYear": null,
    "endYear": null,
    "description": "Ancient anchorage: Tamion. (UK)",
    "source": "DARMC"
  },
  {
    "id": "darmc-port-nido-nidum-5166--383",
    "name": "Nido, Nidum",
    "lat": 51.664,
    "lng": -3.8295,
    "placeType": "anchorage",
    "startYear": null,
    "endYear": null,
    "description": "Ancient anchorage: Nido, Nidum. (UK)",
    "source": "DARMC"
  },
  {
    "id": "darmc-port-moridunum-5186--430",
    "name": "Moridunum",
    "lat": 51.855,
    "lng": -4.3035,
    "placeType": "anchorage",
    "startYear": null,
    "endYear": null,
    "description": "Ancient anchorage: Moridunum. (UK)",
    "source": "DARMC"
  },
  {
    "id": "darmc-port-segontium-with-two-lighthouses-holyhead-mountain-and-dinas-dinlle-5314--427",
    "name": "Segontium, with two lighthouses: Holyhead Mountain (around 30 km NW) and Dinas Dinlle (7.5 km SW)",
    "lat": 53.1379,
    "lng": -4.2657,
    "placeType": "anchorage",
    "startYear": null,
    "endYear": null,
    "description": "Ancient anchorage: Segontium, with two lighthouses: Holyhead Mountain (around 30 km NW) and Dinas Dinlle (7.5 km SW). (UK)",
    "source": "DARMC"
  },
  {
    "id": "darmc-port-canovium-conovium-5322--383",
    "name": "Canovium, Conovium",
    "lat": 53.2175,
    "lng": -3.8321,
    "placeType": "anchorage",
    "startYear": null,
    "endYear": null,
    "description": "Ancient anchorage: Canovium, Conovium. (UK)",
    "source": "DARMC"
  },
  {
    "id": "darmc-port-port-of-deva-victrix-5325--313",
    "name": "port of Deva Victrix",
    "lat": 53.2527,
    "lng": -3.1294,
    "placeType": "anchorage",
    "startYear": null,
    "endYear": null,
    "description": "Ancient anchorage: port of Deva Victrix. (UK)",
    "source": "DARMC"
  },
  {
    "id": "darmc-port-setantiorum-portus-5392--300",
    "name": "Setantiorum Portus",
    "lat": 53.9153,
    "lng": -3.0023,
    "placeType": "anchorage",
    "startYear": null,
    "endYear": null,
    "description": "Ancient anchorage: Setantiorum Portus. (UK). Sources: Ptol, Geogr, 2, 3",
    "source": "DARMC"
  },
  {
    "id": "darmc-port-calunium-5405--281",
    "name": "Calunium",
    "lat": 54.0542,
    "lng": -2.8052,
    "placeType": "anchorage",
    "startYear": null,
    "endYear": null,
    "description": "Ancient anchorage: Calunium. (UK)",
    "source": "DARMC"
  },
  {
    "id": "darmc-port-monaoeda-monobia-manavia-5408--444",
    "name": "Monaoeda, Monobia, Manavia",
    "lat": 54.0834,
    "lng": -4.4386,
    "placeType": "anchorage",
    "startYear": null,
    "endYear": null,
    "description": "Ancient anchorage: Monaoeda, Monobia, Manavia. (UK)",
    "source": "DARMC"
  },
  {
    "id": "darmc-port-glannoventa-5435--342",
    "name": "Glannoventa",
    "lat": 54.3526,
    "lng": -3.4157,
    "placeType": "anchorage",
    "startYear": null,
    "endYear": null,
    "description": "Ancient anchorage: Glannoventa. (UK)",
    "source": "DARMC"
  },
  {
    "id": "darmc-port-gabrosentum-5457--359",
    "name": "Gabrosentum",
    "lat": 54.5731,
    "lng": -3.5909,
    "placeType": "anchorage",
    "startYear": null,
    "endYear": null,
    "description": "Ancient anchorage: Gabrosentum. (UK)",
    "source": "DARMC"
  },
  {
    "id": "darmc-port-magis-5466--357",
    "name": "Magis",
    "lat": 54.6602,
    "lng": -3.5716,
    "placeType": "anchorage",
    "startYear": null,
    "endYear": null,
    "description": "Ancient anchorage: Magis. (UK)",
    "source": "DARMC"
  },
  {
    "id": "darmc-port-alauna-alione-5472--349",
    "name": "Alauna, Alione",
    "lat": 54.7207,
    "lng": -3.4939,
    "placeType": "anchorage",
    "startYear": null,
    "endYear": null,
    "description": "Ancient anchorage: Alauna, Alione. (UK)",
    "source": "DARMC"
  },
  {
    "id": "darmc-port-bibra-bribra-5481--344",
    "name": "Bibra, Bribra",
    "lat": 54.8138,
    "lng": -3.443,
    "placeType": "anchorage",
    "startYear": null,
    "endYear": null,
    "description": "Ancient anchorage: Bibra, Bribra. (UK)",
    "source": "DARMC"
  },
  {
    "id": "darmc-port-maia-5496--321",
    "name": "Maia",
    "lat": 54.9552,
    "lng": -3.2123,
    "placeType": "anchorage",
    "startYear": null,
    "endYear": null,
    "description": "Ancient anchorage: Maia. (UK)",
    "source": "DARMC"
  },
  {
    "id": "darmc-port-congavata-5493--313",
    "name": "Congavata ?",
    "lat": 54.9338,
    "lng": -3.1349,
    "placeType": "anchorage",
    "startYear": null,
    "endYear": null,
    "description": "Ancient anchorage: Congavata ?. (UK)",
    "source": "DARMC"
  },
  {
    "id": "darmc-port-clota-in-hiverione-5561--526",
    "name": "Clota in Hiverione",
    "lat": 55.6125,
    "lng": -5.2584,
    "placeType": "anchorage",
    "startYear": null,
    "endYear": null,
    "description": "Ancient anchorage: Clota in Hiverione. (UK). Sources: Antonine, Itin Mar",
    "source": "DARMC"
  },
  {
    "id": "darmc-port-oiasso-olarso-oeason-oyarzun-4334--179",
    "name": "Oiasso, Olarso, Oeason, Oyarzun",
    "lat": 43.34,
    "lng": -1.7879,
    "placeType": "anchorage",
    "startYear": null,
    "endYear": null,
    "description": "Ancient anchorage: Oiasso, Olarso, Oeason, Oyarzun. (Spain North). Sources: Strabo, Geogr, 3, 4",
    "source": "DARMC"
  },
  {
    "id": "darmc-port-flaviobriga-portus-amanum-port-of-the-amanes-4338--321",
    "name": "Flaviobriga, Portus Amanum, Port of the Amanes",
    "lat": 43.3822,
    "lng": -3.2066,
    "placeType": "anchorage",
    "startYear": null,
    "endYear": null,
    "description": "Ancient anchorage: Flaviobriga, Portus Amanum, Port of the Amanes. (Spain North). Sources: Pliny, Hist Nat, 4, 34",
    "source": "DARMC"
  },
  {
    "id": "darmc-port-portus-victrix-portus-victoriae-iuliobrigensium-port-of-juliobrigiens-victory-4345--383",
    "name": "Portus Victrix, Portus Victoriae Iuliobrigensium, Port of Juliobrigiens' Victory",
    "lat": 43.4481,
    "lng": -3.8267,
    "placeType": "anchorage",
    "startYear": null,
    "endYear": null,
    "description": "Ancient anchorage: Portus Victrix, Portus Victoriae Iuliobrigensium, Port of Juliobrigiens' Victory. (Spain North). Sources: Pliny, Hist Nat, 4, 34",
    "source": "DARMC"
  },
  {
    "id": "darmc-port-portus-blendium-4344--404",
    "name": "Portus Blendium",
    "lat": 43.4427,
    "lng": -4.0374,
    "placeType": "anchorage",
    "startYear": null,
    "endYear": null,
    "description": "Ancient anchorage: Portus Blendium. (Spain North). Sources: Pliny, Hist Nat, 4, 34",
    "source": "DARMC"
  },
  {
    "id": "darmc-port-portus-veseasueca-4340--438",
    "name": "Portus Veseasueca",
    "lat": 43.395,
    "lng": -4.3808,
    "placeType": "anchorage",
    "startYear": null,
    "endYear": null,
    "description": "Ancient anchorage: Portus Veseasueca. (Spain North). Sources: Pliny, Hist Nat, 4, 34",
    "source": "DARMC"
  },
  {
    "id": "darmc-port-gigia-4354--565",
    "name": "Gigia",
    "lat": 43.5444,
    "lng": -5.652,
    "placeType": "anchorage",
    "startYear": null,
    "endYear": null,
    "description": "Ancient anchorage: Gigia. (Spain North)",
    "source": "DARMC"
  },
  {
    "id": "darmc-port-noega-with-lighthouse-torre-augusto-4357--570",
    "name": "Noega, with lighthouse Torre Augusto",
    "lat": 43.5702,
    "lng": -5.7031,
    "placeType": "anchorage",
    "startYear": null,
    "endYear": null,
    "description": "Ancient anchorage: Noega, with lighthouse Torre Augusto. (Spain North)",
    "source": "DARMC"
  },
  {
    "id": "darmc-port-flavionavia-4351--610",
    "name": "Flavionavia",
    "lat": 43.5053,
    "lng": -6.0972,
    "placeType": "anchorage",
    "startYear": null,
    "endYear": null,
    "description": "Ancient anchorage: Flavionavia. (Spain North)",
    "source": "DARMC"
  },
  {
    "id": "darmc-port-starbanhom-4369--758",
    "name": "Starbanhom",
    "lat": 43.6923,
    "lng": -7.5829,
    "placeType": "anchorage",
    "startYear": null,
    "endYear": null,
    "description": "Ancient anchorage: Starbanhom. (Spain North)",
    "source": "DARMC"
  },
  {
    "id": "darmc-port-portus-artaboi-port-of-the-artabres-4374--770",
    "name": "Portus Artaboi, Port of the Artabres",
    "lat": 43.7355,
    "lng": -7.6998,
    "placeType": "anchorage",
    "startYear": null,
    "endYear": null,
    "description": "Ancient anchorage: Portus Artaboi, Port of the Artabres. (Spain North). Sources: Strabo, Geogr, 3, 3 ; Ptol, Geogr, 2, 6",
    "source": "DARMC"
  },
  {
    "id": "darmc-port-brigantum-and-its-famous-ancient-lighthouse-torre-hercules-4337--840",
    "name": "Brigantum and its famous ancient lighthouse Torre Hercules",
    "lat": 43.3682,
    "lng": -8.3969,
    "placeType": "anchorage",
    "startYear": null,
    "endYear": null,
    "description": "Ancient anchorage: Brigantum and its famous ancient lighthouse Torre Hercules. (Spain North)",
    "source": "DARMC"
  },
  {
    "id": "darmc-port-castellum-aviliobris-4325--890",
    "name": "Castellum Aviliobris",
    "lat": 43.2511,
    "lng": -8.9033,
    "placeType": "anchorage",
    "startYear": null,
    "endYear": null,
    "description": "Ancient anchorage: Castellum Aviliobris. (Spain North)",
    "source": "DARMC"
  },
  {
    "id": "darmc-port-portus-artaboi-port-of-the-artabres-4292--925",
    "name": "Portus Artaboi, Port of the Artabres",
    "lat": 42.9175,
    "lng": -9.2516,
    "placeType": "anchorage",
    "startYear": null,
    "endYear": null,
    "description": "Ancient anchorage: Portus Artaboi, Port of the Artabres. (Spain North). Sources: Strabo, Geogr, 3, 3 ; Ptol, Geogr, 2, 6",
    "source": "DARMC"
  },
  {
    "id": "darmc-port-portus-ebora-noouion-4278--889",
    "name": "Portus Ebora, Noouion",
    "lat": 42.7814,
    "lng": -8.8917,
    "placeType": "anchorage",
    "startYear": null,
    "endYear": null,
    "description": "Ancient anchorage: Portus Ebora, Noouion. (Spain North). Sources: Mela, Geogr, 3, 2",
    "source": "DARMC"
  },
  {
    "id": "darmc-port-turris-augusti-torres-del-oeste-4268--873",
    "name": "Turris Augusti, Torres del Oeste",
    "lat": 42.6757,
    "lng": -8.7267,
    "placeType": "anchorage",
    "startYear": null,
    "endYear": null,
    "description": "Ancient anchorage: Turris Augusti, Torres del Oeste. (Spain North)",
    "source": "DARMC"
  },
  {
    "id": "darmc-port-turoqua-4244--865",
    "name": "Turoqua",
    "lat": 42.4361,
    "lng": -8.6471,
    "placeType": "port",
    "startYear": null,
    "endYear": null,
    "description": "Ancient port: Turoqua. (Spain North)",
    "source": "DARMC"
  },
  {
    "id": "darmc-port-vicus-spacorum-4225--872",
    "name": "Vicus Spacorum",
    "lat": 42.2474,
    "lng": -8.7178,
    "placeType": "anchorage",
    "startYear": null,
    "endYear": null,
    "description": "Ancient anchorage: Vicus Spacorum. (Spain North)",
    "source": "DARMC"
  },
  {
    "id": "darmc-port-estuary-of-r-mino-4188--886",
    "name": "estuary of R Mino",
    "lat": 41.8809,
    "lng": -8.8558,
    "placeType": "anchorage",
    "startYear": null,
    "endYear": null,
    "description": "Ancient anchorage: estuary of R Mino. (Spain North). Sources: Strabo, Geogr, 3, 3",
    "source": "DARMC"
  },
  {
    "id": "darmc-port-r-baenis-minius-navigable-4187--885",
    "name": "R Baenis, Minius, navigable",
    "lat": 41.8686,
    "lng": -8.8521,
    "placeType": "port",
    "startYear": null,
    "endYear": null,
    "description": "Ancient port: R Baenis, Minius, navigable. (Portugal). Sources: Strabo, Geogr, 3, 3",
    "source": "DARMC"
  },
  {
    "id": "darmc-port-r-lethe-r-limeas-r-oblivio-4169--883",
    "name": "R Lethe, R Limeas, R Oblivio",
    "lat": 41.6885,
    "lng": -8.8343,
    "placeType": "port",
    "startYear": null,
    "endYear": null,
    "description": "Ancient port: R Lethe, R Limeas, R Oblivio. (Portugal)",
    "source": "DARMC"
  },
  {
    "id": "darmc-port-portus-galum-portus-cale-estuary-of-r-douro-4114--866",
    "name": "Portus Galum, Portus Cale, estuary of R Douro",
    "lat": 41.1418,
    "lng": -8.6587,
    "placeType": "anchorage",
    "startYear": null,
    "endYear": null,
    "description": "Ancient anchorage: Portus Galum, Portus Cale, estuary of R Douro. (Portugal)",
    "source": "DARMC"
  },
  {
    "id": "darmc-port-r-durius-navigable-4115--864",
    "name": "R Durius, navigable",
    "lat": 41.1465,
    "lng": -8.6374,
    "placeType": "anchorage",
    "startYear": null,
    "endYear": null,
    "description": "Ancient anchorage: R Durius, navigable. (Portugal). Sources: Strabo, Geogr, 3, 3",
    "source": "DARMC"
  },
  {
    "id": "darmc-port-talabriga-4063--847",
    "name": "Talabriga",
    "lat": 40.6332,
    "lng": -8.47,
    "placeType": "anchorage",
    "startYear": null,
    "endYear": null,
    "description": "Ancient anchorage: Talabriga. (Portugal)",
    "source": "DARMC"
  },
  {
    "id": "darmc-port-aeminium-on-the-r-mondego-4021--843",
    "name": "Aeminium on the R Mondego",
    "lat": 40.2053,
    "lng": -8.4298,
    "placeType": "anchorage",
    "startYear": null,
    "endYear": null,
    "description": "Ancient anchorage: Aeminium on the R Mondego. (Portugal)",
    "source": "DARMC"
  },
  {
    "id": "darmc-port-conimbriga-4010--849",
    "name": "Conimbriga",
    "lat": 40.0997,
    "lng": -8.4946,
    "placeType": "anchorage",
    "startYear": null,
    "endYear": null,
    "description": "Ancient anchorage: Conimbriga. (Portugal)",
    "source": "DARMC"
  },
  {
    "id": "darmc-port-eburobrittium-3941--921",
    "name": "Eburobrittium",
    "lat": 39.407,
    "lng": -9.2089,
    "placeType": "anchorage",
    "startYear": null,
    "endYear": null,
    "description": "Ancient anchorage: Eburobrittium. (Portugal)",
    "source": "DARMC"
  },
  {
    "id": "darmc-port-olisipo-oliosipon-3870--912",
    "name": "Olisipo, Oliosipon",
    "lat": 38.7025,
    "lng": -9.1222,
    "placeType": "port",
    "startYear": null,
    "endYear": null,
    "description": "Ancient port: Olisipo, Oliosipon. (Portugal). Sources: Strabo, Geogr, 3, 3",
    "source": "DARMC"
  },
  {
    "id": "darmc-port-abona-aquabona-3861--905",
    "name": "Abona, Aquabona",
    "lat": 38.6112,
    "lng": -9.0536,
    "placeType": "anchorage",
    "startYear": null,
    "endYear": null,
    "description": "Ancient anchorage: Abona, Aquabona. (Portugal)",
    "source": "DARMC"
  },
  {
    "id": "darmc-port-promontorium-barbarium-pirgo-barbarion-and-its-ancient-lighthouse-3842--922",
    "name": "Promontorium Barbarium, Pirgo Barbarion and its ancient lighthouse",
    "lat": 38.4161,
    "lng": -9.2162,
    "placeType": "anchorage",
    "startYear": null,
    "endYear": null,
    "description": "Ancient anchorage: Promontorium Barbarium, Pirgo Barbarion and its ancient lighthouse. (Portugal)",
    "source": "DARMC"
  },
  {
    "id": "darmc-port-caetobriga-3851--889",
    "name": "Caetobriga",
    "lat": 38.5112,
    "lng": -8.8915,
    "placeType": "port",
    "startYear": null,
    "endYear": null,
    "description": "Ancient port: Caetobriga. (Portugal)",
    "source": "DARMC"
  },
  {
    "id": "darmc-port-salacia-abul-3837--851",
    "name": "Salacia, Abul",
    "lat": 38.3679,
    "lng": -8.5143,
    "placeType": "anchorage",
    "startYear": null,
    "endYear": null,
    "description": "Ancient anchorage: Salacia, Abul. (Portugal). Sources: Strabo, Geogr, 3, 3",
    "source": "DARMC"
  },
  {
    "id": "darmc-port-sinus-3795--887",
    "name": "Sinus",
    "lat": 37.9525,
    "lng": -8.8705,
    "placeType": "port",
    "startYear": null,
    "endYear": null,
    "description": "Ancient port: Sinus. (Portugal)",
    "source": "DARMC"
  },
  {
    "id": "darmc-port-patulus-portus-3772--879",
    "name": "Patulus portus",
    "lat": 37.7214,
    "lng": -8.7864,
    "placeType": "port",
    "startYear": null,
    "endYear": null,
    "description": "Ancient port: Patulus portus. (Portugal)",
    "source": "DARMC"
  },
  {
    "id": "darmc-port-paetanion-paetion-anion-3710--908",
    "name": "Paetanion, Paetion, Anion",
    "lat": 37.1033,
    "lng": -9.0835,
    "placeType": "anchorage",
    "startYear": null,
    "endYear": null,
    "description": "Ancient anchorage: Paetanion, Paetion, Anion. (Portugal). Sources: Avienus, Ora Maritima",
    "source": "DARMC"
  },
  {
    "id": "darmc-port-atlantis-atlantide-3701--912",
    "name": "Atlantis, Atlantide",
    "lat": 37.0123,
    "lng": -9.1191,
    "placeType": "anchorage",
    "startYear": null,
    "endYear": null,
    "description": "Ancient anchorage: Atlantis, Atlantide. (Portugal). Sources: Solon mentioned by Plato, Timée & Critias ; Diodorus, Hist, 5, 15",
    "source": "DARMC"
  },
  {
    "id": "darmc-port-sacred-promontary-3700--894",
    "name": "Sacred Promontary",
    "lat": 36.9951,
    "lng": -8.9419,
    "placeType": "anchorage",
    "startYear": null,
    "endYear": null,
    "description": "Ancient anchorage: Sacred Promontary. (Portugal). Sources: Strabo, Geogr, 3, 1",
    "source": "DARMC"
  },
  {
    "id": "darmc-port-lacobriga-3709--866",
    "name": "Lacobriga",
    "lat": 37.0944,
    "lng": -8.6614,
    "placeType": "port",
    "startYear": null,
    "endYear": null,
    "description": "Ancient port: Lacobriga. (Portugal)",
    "source": "DARMC"
  },
  {
    "id": "darmc-port-ipses-portus-hannibalis-3713--860",
    "name": "Ipses, Portus Hannibalis ?",
    "lat": 37.1294,
    "lng": -8.5985,
    "placeType": "port",
    "startYear": null,
    "endYear": null,
    "description": "Ancient port: Ipses, Portus Hannibalis ?. (Portugal)",
    "source": "DARMC"
  },
  {
    "id": "darmc-port-portus-hannibalis-port-of-annibal-3712--853",
    "name": "Portus Hannibalis, Port of Annibal",
    "lat": 37.1231,
    "lng": -8.5251,
    "placeType": "port",
    "startYear": null,
    "endYear": null,
    "description": "Ancient port: Portus Hannibalis, Port of Annibal. (Portugal). Sources: Mela, Geogr, 3, 1",
    "source": "DARMC"
  },
  {
    "id": "darmc-port-ossonoba-3701--794",
    "name": "Ossonoba",
    "lat": 37.0127,
    "lng": -7.9368,
    "placeType": "port",
    "startYear": null,
    "endYear": null,
    "description": "Ancient port: Ossonoba. (Portugal). Sources: Strabo, Geogr, 3, 2",
    "source": "DARMC"
  },
  {
    "id": "darmc-port-balsa-3708--771",
    "name": "Balsa",
    "lat": 37.0765,
    "lng": -7.7071,
    "placeType": "anchorage",
    "startYear": null,
    "endYear": null,
    "description": "Ancient anchorage: Balsa. (Portugal)",
    "source": "DARMC"
  },
  {
    "id": "darmc-port-baesuris-esuris-3722--744",
    "name": "Baesuris, Esuris",
    "lat": 37.2189,
    "lng": -7.4415,
    "placeType": "anchorage",
    "startYear": null,
    "endYear": null,
    "description": "Ancient anchorage: Baesuris, Esuris. (Portugal). Sources: Strabo, Geogr, 3, 2",
    "source": "DARMC"
  },
  {
    "id": "darmc-port-onuba-tartessos-3725--696",
    "name": "Onuba, Tartessos?",
    "lat": 37.2542,
    "lng": -6.9632,
    "placeType": "anchorage",
    "startYear": null,
    "endYear": null,
    "description": "Ancient anchorage: Onuba, Tartessos?. (Spain South). Sources: Strabo, Geogr, 3, 2",
    "source": "DARMC"
  },
  {
    "id": "darmc-port-ilipula-ilipla-minor-3736--668",
    "name": "Ilipula, Ilipla minor",
    "lat": 37.363,
    "lng": -6.6804,
    "placeType": "anchorage",
    "startYear": null,
    "endYear": null,
    "description": "Ancient anchorage: Ilipula, Ilipla minor. (Spain South)",
    "source": "DARMC"
  },
  {
    "id": "darmc-port-olontigi-3731--626",
    "name": "Olontigi",
    "lat": 37.3084,
    "lng": -6.2553,
    "placeType": "anchorage",
    "startYear": null,
    "endYear": null,
    "description": "Ancient anchorage: Olontigi. (Spain South)",
    "source": "DARMC"
  },
  {
    "id": "darmc-port-caura-3729--605",
    "name": "Caura",
    "lat": 37.2905,
    "lng": -6.0545,
    "placeType": "anchorage",
    "startYear": null,
    "endYear": null,
    "description": "Ancient anchorage: Caura. (Spain South)",
    "source": "DARMC"
  },
  {
    "id": "darmc-port-osset-3736--604",
    "name": "Osset",
    "lat": 37.3568,
    "lng": -6.0419,
    "placeType": "anchorage",
    "startYear": null,
    "endYear": null,
    "description": "Ancient anchorage: Osset. (Spain South)",
    "source": "DARMC"
  },
  {
    "id": "darmc-port-hispalis-3739--599",
    "name": "Hispalis",
    "lat": 37.3882,
    "lng": -5.9905,
    "placeType": "anchorage",
    "startYear": null,
    "endYear": null,
    "description": "Ancient anchorage: Hispalis. (Spain South). Sources: Strabo, Geogr, 3, 2",
    "source": "DARMC"
  },
  {
    "id": "darmc-port-italica-3744--605",
    "name": "Italica",
    "lat": 37.4413,
    "lng": -6.0464,
    "placeType": "anchorage",
    "startYear": null,
    "endYear": null,
    "description": "Ancient anchorage: Italica. (Spain South)",
    "source": "DARMC"
  },
  {
    "id": "darmc-port-ilipa-magna-3752--598",
    "name": "Ilipa magna",
    "lat": 37.5171,
    "lng": -5.9762,
    "placeType": "anchorage",
    "startYear": null,
    "endYear": null,
    "description": "Ancient anchorage: Ilipa magna. (Spain South). Sources: Strabo, Geogr, 3, 2",
    "source": "DARMC"
  },
  {
    "id": "darmc-port-orippo-3727--600",
    "name": "Orippo",
    "lat": 37.2741,
    "lng": -6.0043,
    "placeType": "anchorage",
    "startYear": null,
    "endYear": null,
    "description": "Ancient anchorage: Orippo. (Spain South)",
    "source": "DARMC"
  },
  {
    "id": "darmc-port-nabrissa-veneria-3693--608",
    "name": "Nabrissa Veneria",
    "lat": 36.9314,
    "lng": -6.0793,
    "placeType": "anchorage",
    "startYear": null,
    "endYear": null,
    "description": "Ancient anchorage: Nabrissa Veneria. (Spain South). Sources: Strabo, Geogr, 3, 1 & 3.2",
    "source": "DARMC"
  },
  {
    "id": "darmc-port-conobaria-colobana-3689--629",
    "name": "Conobaria, Colobana",
    "lat": 36.8884,
    "lng": -6.2886,
    "placeType": "anchorage",
    "startYear": null,
    "endYear": null,
    "description": "Ancient anchorage: Conobaria, Colobana. (Spain South)",
    "source": "DARMC"
  },
  {
    "id": "darmc-port-asta-regia-3679--618",
    "name": "Asta Regia",
    "lat": 36.7878,
    "lng": -6.1773,
    "placeType": "anchorage",
    "startYear": null,
    "endYear": null,
    "description": "Ancient anchorage: Asta Regia. (Spain South). Sources: Strabo, Geogr, 3, 1 & 3, 2",
    "source": "DARMC"
  },
  {
    "id": "darmc-port-aipora-ebora-3678--637",
    "name": "Aipora, Ebora",
    "lat": 36.7837,
    "lng": -6.366,
    "placeType": "anchorage",
    "startYear": null,
    "endYear": null,
    "description": "Ancient anchorage: Aipora, Ebora. (Spain South)",
    "source": "DARMC"
  },
  {
    "id": "darmc-port-pirgo-caepino-tower-3674--644",
    "name": "Pirgo Caepino, Tower (ancient lighthouse ?)",
    "lat": 36.738,
    "lng": -6.4424,
    "placeType": "anchorage",
    "startYear": null,
    "endYear": null,
    "description": "Ancient anchorage: Pirgo Caepino, Tower (ancient lighthouse ?). (Spain South). Sources: Strabo, Geogr, 3, 1 ; Mela, Geogr, 3, 1",
    "source": "DARMC"
  },
  {
    "id": "darmc-port-astaroth-speculum-rotae-3662--635",
    "name": "Astaroth, Speculum Rotae",
    "lat": 36.6194,
    "lng": -6.3513,
    "placeType": "anchorage",
    "startYear": null,
    "endYear": null,
    "description": "Ancient anchorage: Astaroth, Speculum Rotae. (Spain South)",
    "source": "DARMC"
  },
  {
    "id": "darmc-port-cimbis-cimbios-3661--646",
    "name": "Cimbis, Cimbios",
    "lat": 36.6077,
    "lng": -6.4623,
    "placeType": "anchorage",
    "startYear": null,
    "endYear": null,
    "description": "Ancient anchorage: Cimbis, Cimbios. (Spain South). Sources: Livy, Hist, 28, 37",
    "source": "DARMC"
  },
  {
    "id": "darmc-port-portus-menesthei-portus-menesteus-port-of-m-n-sth-e-3659--623",
    "name": "Portus Menesthei, Portus Menesteus, port of Ménésthée",
    "lat": 36.5932,
    "lng": -6.2259,
    "placeType": "anchorage",
    "startYear": null,
    "endYear": null,
    "description": "Ancient anchorage: Portus Menesthei, Portus Menesteus, port of Ménésthée. (Spain South). Sources: Strabo, Geogr, 3, 1 ; Ptol, Geogr, 2, 4 ; Marcian, Peripl, 2, 9",
    "source": "DARMC"
  },
  {
    "id": "darmc-port-portus-gaditanus-3663--616",
    "name": "Portus Gaditanus",
    "lat": 36.6272,
    "lng": -6.1599,
    "placeType": "anchorage",
    "startYear": null,
    "endYear": null,
    "description": "Ancient anchorage: Portus Gaditanus. (Spain South). Sources: Mela, Geogr, 3, 1",
    "source": "DARMC"
  },
  {
    "id": "darmc-port-chantier-naval-de-puerto-real-3653--620",
    "name": "Chantier naval de Puerto Real",
    "lat": 36.5301,
    "lng": -6.1998,
    "placeType": "anchorage",
    "startYear": null,
    "endYear": null,
    "description": "Ancient anchorage: Chantier naval de Puerto Real. (Spain South)",
    "source": "DARMC"
  },
  {
    "id": "darmc-port-tartessos-tartessus-tarsis-3647--622",
    "name": "Tartessos, Tartessus  , Tarsis",
    "lat": 36.4723,
    "lng": -6.2174,
    "placeType": "anchorage",
    "startYear": null,
    "endYear": null,
    "description": "Ancient anchorage: Tartessos, Tartessus  , Tarsis. (Spain South). Sources: Herodotus, Hist, 1, 163 & 4, 152 ; Avienus, Ora Maritima ; Bible, Isaïe, 60,9",
    "source": "DARMC"
  },
  {
    "id": "darmc-port-gadir-gadira-gad-s-erytheia-eriteia-and-its-ancient-lighthouse-3653--629",
    "name": "Gadir, Gadira, Gadès, Erytheia, Eriteia and its ancient lighthouse",
    "lat": 36.5321,
    "lng": -6.2901,
    "placeType": "anchorage",
    "startYear": null,
    "endYear": null,
    "description": "Ancient anchorage: Gadir, Gadira, Gadès, Erytheia, Eriteia and its ancient lighthouse. (Spain South). Sources: Caesar, Guerre d’Espagne, 37 ; Strabo, Geogr, 3, 5 ; Diodorus, Hist, 25 ; Avienus, Ora Maritima ; Scylax, Peripl",
    "source": "DARMC"
  },
  {
    "id": "darmc-port-mercablum-merifabion-3628--611",
    "name": "Mercablum, Merifabion",
    "lat": 36.2765,
    "lng": -6.1127,
    "placeType": "anchorage",
    "startYear": null,
    "endYear": null,
    "description": "Ancient anchorage: Mercablum, Merifabion. (Spain South)",
    "source": "DARMC"
  },
  {
    "id": "darmc-port-ancient-lighthouse-of-promontorium-junonis-promontory-of-juno-3618--604",
    "name": "ancient lighthouse of Promontorium Junonis, Promontory of Juno",
    "lat": 36.1832,
    "lng": -6.0352,
    "placeType": "anchorage",
    "startYear": null,
    "endYear": null,
    "description": "Ancient anchorage: ancient lighthouse of Promontorium Junonis, Promontory of Juno. (Spain South)",
    "source": "DARMC"
  },
  {
    "id": "darmc-port-baesippo-port-besippon-3619--591",
    "name": "Baesippo, Port Besippon",
    "lat": 36.1909,
    "lng": -5.9142,
    "placeType": "anchorage",
    "startYear": null,
    "endYear": null,
    "description": "Ancient anchorage: Baesippo, Port Besippon. (Spain South). Sources: Pliny, Hist Nat, 3, 3",
    "source": "DARMC"
  },
  {
    "id": "darmc-port-baelo-claudia-belone-3609--577",
    "name": "Baelo Claudia, Belone",
    "lat": 36.0908,
    "lng": -5.7739,
    "placeType": "anchorage",
    "startYear": null,
    "endYear": null,
    "description": "Ancient anchorage: Baelo Claudia, Belone. (Spain South). Sources: Strabo, Geogr, 3, 1 ; Antonine, Itin Mar",
    "source": "DARMC"
  },
  {
    "id": "darmc-port-mellaria-menlaria-3607--569",
    "name": "Mellaria, Menlaria",
    "lat": 36.0707,
    "lng": -5.6898,
    "placeType": "anchorage",
    "startYear": null,
    "endYear": null,
    "description": "Ancient anchorage: Mellaria, Menlaria. (Spain South). Sources: Strabo, Geogr, 3, 1",
    "source": "DARMC"
  },
  {
    "id": "darmc-port-iulia-traducta-or-transducta-iulia-ioza-tingentera-3601--561",
    "name": "Iulia Traducta or Transducta, Iulia Ioza, Tingentera",
    "lat": 36.0058,
    "lng": -5.6063,
    "placeType": "anchorage",
    "startYear": null,
    "endYear": null,
    "description": "Ancient anchorage: Iulia Traducta or Transducta, Iulia Ioza, Tingentera. (Spain South). Sources: Mela, Geogr, 2, 6",
    "source": "DARMC"
  },
  {
    "id": "darmc-port-cetaria-3609--544",
    "name": "Cetaria",
    "lat": 36.091,
    "lng": -5.4384,
    "placeType": "anchorage",
    "startYear": null,
    "endYear": null,
    "description": "Ancient anchorage: Cetaria. (Spain South)",
    "source": "DARMC"
  },
  {
    "id": "darmc-port-portus-albus-3613--544",
    "name": "Portus Albus",
    "lat": 36.1273,
    "lng": -5.4433,
    "placeType": "anchorage",
    "startYear": null,
    "endYear": null,
    "description": "Ancient anchorage: Portus Albus. (Spain South)",
    "source": "DARMC"
  },
  {
    "id": "darmc-port-carteia-calpe-karpessos-3618--541",
    "name": "Carteia, Calpe, Karpessos",
    "lat": 36.1832,
    "lng": -5.4103,
    "placeType": "anchorage",
    "startYear": null,
    "endYear": null,
    "description": "Ancient anchorage: Carteia, Calpe, Karpessos. (Spain South). Sources: Strabo, Geogr, 3, 1 ; Livy, Hist, 28, 30 ; Avienus, Ora Maritima",
    "source": "DARMC"
  },
  {
    "id": "darmc-port-barbesula-barbariana-3629--529",
    "name": "Barbesula, Barbariana",
    "lat": 36.2869,
    "lng": -5.2869,
    "placeType": "anchorage",
    "startYear": null,
    "endYear": null,
    "description": "Ancient anchorage: Barbesula, Barbariana. (Spain South)",
    "source": "DARMC"
  },
  {
    "id": "darmc-port-lacipo-3637--522",
    "name": "Lacipo",
    "lat": 36.3715,
    "lng": -5.2204,
    "placeType": "anchorage",
    "startYear": null,
    "endYear": null,
    "description": "Ancient anchorage: Lacipo. (Spain South)",
    "source": "DARMC"
  },
  {
    "id": "darmc-port-salduba-saltum-3645--506",
    "name": "Salduba, Saltum",
    "lat": 36.4491,
    "lng": -5.0557,
    "placeType": "anchorage",
    "startYear": null,
    "endYear": null,
    "description": "Ancient anchorage: Salduba, Saltum. (Spain South)",
    "source": "DARMC"
  },
  {
    "id": "darmc-port-cilniana-3647--499",
    "name": "Cilniana",
    "lat": 36.4721,
    "lng": -4.9902,
    "placeType": "anchorage",
    "startYear": null,
    "endYear": null,
    "description": "Ancient anchorage: Cilniana. (Spain South)",
    "source": "DARMC"
  },
  {
    "id": "darmc-port-suel-3653--463",
    "name": "Suel",
    "lat": 36.5257,
    "lng": -4.6289,
    "placeType": "anchorage",
    "startYear": null,
    "endYear": null,
    "description": "Ancient anchorage: Suel. (Spain South)",
    "source": "DARMC"
  },
  {
    "id": "darmc-port-cerro-del-villar-3667--445",
    "name": "Cerro del Villar",
    "lat": 36.6668,
    "lng": -4.4469,
    "placeType": "anchorage",
    "startYear": null,
    "endYear": null,
    "description": "Ancient anchorage: Cerro del Villar. (Spain South)",
    "source": "DARMC"
  },
  {
    "id": "darmc-port-malaga-3671--443",
    "name": "Malaga",
    "lat": 36.7073,
    "lng": -4.4258,
    "placeType": "anchorage",
    "startYear": null,
    "endYear": null,
    "description": "Ancient anchorage: Malaga. (Spain South). Sources: Avienus, Ora Maritima",
    "source": "DARMC"
  },
  {
    "id": "darmc-port-mainake-moenace-maenac-3674--411",
    "name": "Mainake, Moenace, Maenacé",
    "lat": 36.7364,
    "lng": -4.1147,
    "placeType": "anchorage",
    "startYear": null,
    "endYear": null,
    "description": "Ancient anchorage: Mainake, Moenace, Maenacé. (Spain South). Sources: Avienus, Ora Maritima",
    "source": "DARMC"
  },
  {
    "id": "darmc-port-maenoba-mainobora-3674--405",
    "name": "Maenoba, Mainobora",
    "lat": 36.743,
    "lng": -4.0509,
    "placeType": "anchorage",
    "startYear": null,
    "endYear": null,
    "description": "Ancient anchorage: Maenoba, Mainobora. (Spain South). Sources: Strabo, Geogr, 3, 2",
    "source": "DARMC"
  },
  {
    "id": "darmc-port-caviclum-3672--396",
    "name": "Caviclum ?",
    "lat": 36.7225,
    "lng": -3.9563,
    "placeType": "anchorage",
    "startYear": null,
    "endYear": null,
    "description": "Ancient anchorage: Caviclum ?. (Spain South)",
    "source": "DARMC"
  },
  {
    "id": "darmc-port-ex-sexi-saxetanum-3673--369",
    "name": "Ex, Sexi, Saxetanum",
    "lat": 36.7265,
    "lng": -3.6914,
    "placeType": "anchorage",
    "startYear": null,
    "endYear": null,
    "description": "Ancient anchorage: Ex, Sexi, Saxetanum. (Spain South)",
    "source": "DARMC"
  },
  {
    "id": "darmc-port-selambina-salmbina-3673--360",
    "name": "Selambina, Salmbina",
    "lat": 36.7336,
    "lng": -3.5951,
    "placeType": "anchorage",
    "startYear": null,
    "endYear": null,
    "description": "Ancient anchorage: Selambina, Salmbina. (Spain South)",
    "source": "DARMC"
  },
  {
    "id": "darmc-port-abdera-abdara-3674--301",
    "name": "Abdera, Abdara",
    "lat": 36.7403,
    "lng": -3.0148,
    "placeType": "anchorage",
    "startYear": null,
    "endYear": null,
    "description": "Ancient anchorage: Abdera, Abdara. (Spain South)",
    "source": "DARMC"
  },
  {
    "id": "darmc-port-erroris-3595--303",
    "name": "Erroris",
    "lat": 35.949,
    "lng": -3.0325,
    "placeType": "anchorage",
    "startYear": null,
    "endYear": null,
    "description": "Ancient anchorage: Erroris. (Spain South). Sources: Antonine, Itin Mar",
    "source": "DARMC"
  },
  {
    "id": "darmc-port-tauria-3594--291",
    "name": "Tauria",
    "lat": 35.9424,
    "lng": -2.9093,
    "placeType": "anchorage",
    "startYear": null,
    "endYear": null,
    "description": "Ancient anchorage: Tauria. (Spain South). Sources: Antonine, Itin Mar",
    "source": "DARMC"
  },
  {
    "id": "darmc-port-murgi-3674--259",
    "name": "Murgi",
    "lat": 36.7442,
    "lng": -2.5933,
    "placeType": "anchorage",
    "startYear": null,
    "endYear": null,
    "description": "Ancient anchorage: Murgi. (Spain South)",
    "source": "DARMC"
  },
  {
    "id": "darmc-port-portos-magnos-port-of-urci-3682--247",
    "name": "Portos Magnos, port of Urci",
    "lat": 36.8165,
    "lng": -2.4745,
    "placeType": "anchorage",
    "startYear": null,
    "endYear": null,
    "description": "Ancient anchorage: Portos Magnos, port of Urci. (Spain South). Sources: Ptol, Geogr, 2, 4",
    "source": "DARMC"
  },
  {
    "id": "darmc-port-baria-3724--177",
    "name": "Baria",
    "lat": 37.2426,
    "lng": -1.7719,
    "placeType": "anchorage",
    "startYear": null,
    "endYear": null,
    "description": "Ancient anchorage: Baria. (Spain East)",
    "source": "DARMC"
  },
  {
    "id": "darmc-port-longuntica-3740--157",
    "name": "Longuntica",
    "lat": 37.3974,
    "lng": -1.5695,
    "placeType": "anchorage",
    "startYear": null,
    "endYear": null,
    "description": "Ancient anchorage: Longuntica. (Spain East). Sources: Livy, Hist, 22, 20",
    "source": "DARMC"
  },
  {
    "id": "darmc-port-ficariensis-locus-3756--130",
    "name": "Ficariensis Locus",
    "lat": 37.5555,
    "lng": -1.2984,
    "placeType": "anchorage",
    "startYear": null,
    "endYear": null,
    "description": "Ancient anchorage: Ficariensis Locus. (Spain East)",
    "source": "DARMC"
  },
  {
    "id": "darmc-port-carthagine-spartaria-cartago-nova-carthage-la-neuve-3760--100",
    "name": "Carthagine Spartaria, Cartago Nova, Carthage la neuve",
    "lat": 37.599,
    "lng": -0.9994,
    "placeType": "anchorage",
    "startYear": null,
    "endYear": null,
    "description": "Ancient anchorage: Carthagine Spartaria, Cartago Nova, Carthage la neuve. (Spain East). Sources: Appian, Ibérique, 4 ; Livy, Hist, 26, 42-43 & 28, 17 ; Polybius, Hist, 10, 2 ; Strabo, Geogr, 3, 4 ; Antonine, Itin Mar",
    "source": "DARMC"
  },
  {
    "id": "darmc-port-portus-magnus-onusa-3758--84",
    "name": "Portus Magnus, Onusa ?",
    "lat": 37.5797,
    "lng": -0.8443,
    "placeType": "anchorage",
    "startYear": null,
    "endYear": null,
    "description": "Ancient anchorage: Portus Magnus, Onusa ?. (Spain East). Sources: Livy, Hist, 22, 20",
    "source": "DARMC"
  },
  {
    "id": "darmc-port-thiar-3788--74",
    "name": "Thiar",
    "lat": 37.8766,
    "lng": -0.7434,
    "placeType": "anchorage",
    "startYear": null,
    "endYear": null,
    "description": "Ancient anchorage: Thiar. (Spain East)",
    "source": "DARMC"
  },
  {
    "id": "darmc-port-herna-port-of-rojales-3811--63",
    "name": "Herna, port of Rojales",
    "lat": 38.1092,
    "lng": -0.6346,
    "placeType": "anchorage",
    "startYear": null,
    "endYear": null,
    "description": "Ancient anchorage: Herna, port of Rojales. (Spain East). Sources: Avienus, Ora Maritima",
    "source": "DARMC"
  },
  {
    "id": "darmc-port-portus-illicitanus-illici-ilice-elia-3819--56",
    "name": "Portus Illicitanus, Illici, Ilice, Elia",
    "lat": 38.1949,
    "lng": -0.559,
    "placeType": "anchorage",
    "startYear": null,
    "endYear": null,
    "description": "Ancient anchorage: Portus Illicitanus, Illici, Ilice, Elia. (Spain East)",
    "source": "DARMC"
  },
  {
    "id": "darmc-port-lucentum-akra-leuke-castrum-album-3834--47",
    "name": "Lucentum, Akra Leuke, Castrum Album",
    "lat": 38.3431,
    "lng": -0.4739,
    "placeType": "anchorage",
    "startYear": null,
    "endYear": null,
    "description": "Ancient anchorage: Lucentum, Akra Leuke, Castrum Album. (Spain East)",
    "source": "DARMC"
  },
  {
    "id": "darmc-port-alonae-3853--13",
    "name": "Alonae",
    "lat": 38.5257,
    "lng": -0.1322,
    "placeType": "anchorage",
    "startYear": null,
    "endYear": null,
    "description": "Ancient anchorage: Alonae. (Spain East)",
    "source": "DARMC"
  },
  {
    "id": "darmc-port-hemeroscopion-and-dianium-3884-13",
    "name": "Hemeroscopion and Dianium",
    "lat": 38.8401,
    "lng": 0.1288,
    "placeType": "anchorage",
    "startYear": null,
    "endYear": null,
    "description": "Ancient anchorage: Hemeroscopion and Dianium. (Spain East). Sources: Strabo, Geogr, 3, 4",
    "source": "DARMC"
  },
  {
    "id": "darmc-port-portus-sucrone-3915--23",
    "name": "Portus Sucrone",
    "lat": 39.1489,
    "lng": -0.2315,
    "placeType": "anchorage",
    "startYear": null,
    "endYear": null,
    "description": "Ancient anchorage: Portus Sucrone. (Spain East)",
    "source": "DARMC"
  },
  {
    "id": "darmc-port-valentia-3942--29",
    "name": "Valentia",
    "lat": 39.4247,
    "lng": -0.2911,
    "placeType": "anchorage",
    "startYear": null,
    "endYear": null,
    "description": "Ancient anchorage: Valentia. (Spain East)",
    "source": "DARMC"
  },
  {
    "id": "darmc-port-saguntum-sagonte-3963--24",
    "name": "Saguntum, Sagonte",
    "lat": 39.6347,
    "lng": -0.2391,
    "placeType": "anchorage",
    "startYear": null,
    "endYear": null,
    "description": "Ancient anchorage: Saguntum, Sagonte. (Spain East)",
    "source": "DARMC"
  },
  {
    "id": "darmc-port-port-of-sebelaci-3985--8",
    "name": "Port of Sebelaci",
    "lat": 39.8536,
    "lng": -0.0752,
    "placeType": "anchorage",
    "startYear": null,
    "endYear": null,
    "description": "Ancient anchorage: Port of Sebelaci. (Spain East)",
    "source": "DARMC"
  },
  {
    "id": "darmc-port-etobesa-etouissa-4007-15",
    "name": "Etobesa, Etouissa ?",
    "lat": 40.0739,
    "lng": 0.1454,
    "placeType": "anchorage",
    "startYear": null,
    "endYear": null,
    "description": "Ancient anchorage: Etobesa, Etouissa ?. (Spain East)",
    "source": "DARMC"
  },
  {
    "id": "darmc-port-indibilis-4041-44",
    "name": "Indibilis",
    "lat": 40.4139,
    "lng": 0.4417,
    "placeType": "anchorage",
    "startYear": null,
    "endYear": null,
    "description": "Ancient anchorage: Indibilis. (Spain East)",
    "source": "DARMC"
  },
  {
    "id": "darmc-port-adeba-4047-49",
    "name": "Adeba",
    "lat": 40.4708,
    "lng": 0.4875,
    "placeType": "anchorage",
    "startYear": null,
    "endYear": null,
    "description": "Ancient anchorage: Adeba. (Spain East)",
    "source": "DARMC"
  },
  {
    "id": "darmc-port-tenebrius-portus-4063-85",
    "name": "Tenebrius Portus",
    "lat": 40.6255,
    "lng": 0.8498,
    "placeType": "anchorage",
    "startYear": null,
    "endYear": null,
    "description": "Ancient anchorage: Tenebrius Portus. (Spain East). Sources: Ptol, Geogr, 2, 6",
    "source": "DARMC"
  },
  {
    "id": "darmc-port-dertosa-4081-52",
    "name": "Dertosa",
    "lat": 40.8144,
    "lng": 0.521,
    "placeType": "anchorage",
    "startYear": null,
    "endYear": null,
    "description": "Ancient anchorage: Dertosa. (Spain East). Sources: Suetonius, Galba,10",
    "source": "DARMC"
  },
  {
    "id": "darmc-port-tria-capita-4080-73",
    "name": "Tria Capita",
    "lat": 40.8045,
    "lng": 0.7269,
    "placeType": "anchorage",
    "startYear": null,
    "endYear": null,
    "description": "Ancient anchorage: Tria Capita. (Spain East)",
    "source": "DARMC"
  },
  {
    "id": "darmc-port-sub-saltu-4090-83",
    "name": "Sub Saltu",
    "lat": 40.896,
    "lng": 0.8285,
    "placeType": "anchorage",
    "startYear": null,
    "endYear": null,
    "description": "Ancient anchorage: Sub Saltu. (Spain East)",
    "source": "DARMC"
  },
  {
    "id": "darmc-port-oleastrum-4098-93",
    "name": "Oleastrum",
    "lat": 40.9819,
    "lng": 0.9307,
    "placeType": "anchorage",
    "startYear": null,
    "endYear": null,
    "description": "Ancient anchorage: Oleastrum. (Spain East)",
    "source": "DARMC"
  },
  {
    "id": "darmc-port-kissa-cissis-4107-119",
    "name": "Kissa, Cissis",
    "lat": 41.0719,
    "lng": 1.1887,
    "placeType": "anchorage",
    "startYear": null,
    "endYear": null,
    "description": "Ancient anchorage: Kissa, Cissis. (Spain East)",
    "source": "DARMC"
  },
  {
    "id": "darmc-port-taracco-tarracon-4112-126",
    "name": "Taracco, Tarracon",
    "lat": 41.1152,
    "lng": 1.2574,
    "placeType": "anchorage",
    "startYear": null,
    "endYear": null,
    "description": "Ancient anchorage: Taracco, Tarracon. (Spain East). Sources: Strabo, Geogr, 3, 4 ; Livy, Hist, 22, 19 & 25, 22 ; Avienus, Ora Maritima",
    "source": "DARMC"
  },
  {
    "id": "darmc-port-barcino-4138-218",
    "name": "Barcino",
    "lat": 41.381,
    "lng": 2.1832,
    "placeType": "anchorage",
    "startYear": null,
    "endYear": null,
    "description": "Ancient anchorage: Barcino. (Spain East)",
    "source": "DARMC"
  },
  {
    "id": "darmc-port-baetulo-4142-224",
    "name": "Baetulo",
    "lat": 41.4248,
    "lng": 2.2439,
    "placeType": "anchorage",
    "startYear": null,
    "endYear": null,
    "description": "Ancient anchorage: Baetulo. (Spain East)",
    "source": "DARMC"
  },
  {
    "id": "darmc-port-iluro-port-d-ilduro-4152-244",
    "name": "Iluro, port d’Ilduro",
    "lat": 41.5188,
    "lng": 2.4352,
    "placeType": "anchorage",
    "startYear": null,
    "endYear": null,
    "description": "Ancient anchorage: Iluro, port d’Ilduro. (Spain East)",
    "source": "DARMC"
  },
  {
    "id": "darmc-port-blanda-4167-280",
    "name": "Blanda",
    "lat": 41.6703,
    "lng": 2.7957,
    "placeType": "anchorage",
    "startYear": null,
    "endYear": null,
    "description": "Ancient anchorage: Blanda. (Spain East)",
    "source": "DARMC"
  },
  {
    "id": "darmc-port-turissa-4172-294",
    "name": "Turissa",
    "lat": 41.7181,
    "lng": 2.9378,
    "placeType": "anchorage",
    "startYear": null,
    "endYear": null,
    "description": "Ancient anchorage: Turissa. (Spain East)",
    "source": "DARMC"
  },
  {
    "id": "darmc-port-castell-de-la-fosca-4186-316",
    "name": "Castell de la Fosca",
    "lat": 41.859,
    "lng": 3.1554,
    "placeType": "anchorage",
    "startYear": null,
    "endYear": null,
    "description": "Ancient anchorage: Castell de la Fosca. (Spain East)",
    "source": "DARMC"
  },
  {
    "id": "darmc-port-lounarion-4189-320",
    "name": "Lounarion",
    "lat": 41.8915,
    "lng": 3.1953,
    "placeType": "anchorage",
    "startYear": null,
    "endYear": null,
    "description": "Ancient anchorage: Lounarion. (Spain East)",
    "source": "DARMC"
  },
  {
    "id": "darmc-port-indike-4212-314",
    "name": "Indike",
    "lat": 42.1234,
    "lng": 3.1425,
    "placeType": "anchorage",
    "startYear": null,
    "endYear": null,
    "description": "Ancient anchorage: Indike. (Spain East)",
    "source": "DARMC"
  },
  {
    "id": "darmc-port-emporium-emporia-cypsela-4214-312",
    "name": "Emporium, Emporia, Cypsela ?",
    "lat": 42.1368,
    "lng": 3.1216,
    "placeType": "anchorage",
    "startYear": null,
    "endYear": null,
    "description": "Ancient anchorage: Emporium, Emporia, Cypsela ?. (Spain East). Sources: Strabo, Geogr, 3, 4 ; Livy, Hist, 29, 25 & 38, 8 ; Polybius, Hist, 3, 16 ; Avienus, Ora Maritima ; Scylax, Peripl",
    "source": "DARMC"
  },
  {
    "id": "darmc-port-rhoda-rhode-rhodope-4226-317",
    "name": "Rhoda, Rhode, Rhodope",
    "lat": 42.2552,
    "lng": 3.1709,
    "placeType": "anchorage",
    "startYear": null,
    "endYear": null,
    "description": "Ancient anchorage: Rhoda, Rhode, Rhodope. (Spain East)",
    "source": "DARMC"
  },
  {
    "id": "darmc-port-mont-malodes-4229-329",
    "name": "Mont Malodes",
    "lat": 42.2924,
    "lng": 3.2889,
    "placeType": "anchorage",
    "startYear": null,
    "endYear": null,
    "description": "Ancient anchorage: Mont Malodes. (Spain East). Sources: Avienus, Ora Maritima",
    "source": "DARMC"
  },
  {
    "id": "darmc-port-gymnesias-3990-352",
    "name": "Gymnesias",
    "lat": 39.8987,
    "lng": 3.5159,
    "placeType": "anchorage",
    "startYear": null,
    "endYear": null,
    "description": "Ancient anchorage: Gymnesias. (Spain Baleares). Sources: Diodorus, Hist, 5, 14 ; Livy, Hist, 28, 37 ; Strabo, Geogr, 3, 5 ; Antonine, Itin Mar",
    "source": "DARMC"
  },
  {
    "id": "darmc-port-columba-balearis-maior-3959-300",
    "name": "Columba, Balearis Maior",
    "lat": 39.5854,
    "lng": 2.9986,
    "placeType": "anchorage",
    "startYear": null,
    "endYear": null,
    "description": "Ancient anchorage: Columba, Balearis Maior. (Spain Mallorca). Sources: Antonine, Itin Mar",
    "source": "DARMC"
  },
  {
    "id": "darmc-port-palmeria-3956-265",
    "name": "Palmeria",
    "lat": 39.5615,
    "lng": 2.645,
    "placeType": "port",
    "startYear": null,
    "endYear": null,
    "description": "Ancient port: Palmeria. (Spain Mallorca)",
    "source": "DARMC"
  },
  {
    "id": "darmc-port-buccorum-bocchori-3991-309",
    "name": "Buccorum, Bocchori",
    "lat": 39.9073,
    "lng": 3.091,
    "placeType": "anchorage",
    "startYear": null,
    "endYear": null,
    "description": "Ancient anchorage: Buccorum, Bocchori. (Spain Mallorca)",
    "source": "DARMC"
  },
  {
    "id": "darmc-port-pollentia-3983-313",
    "name": "Pollentia",
    "lat": 39.8318,
    "lng": 3.1288,
    "placeType": "anchorage",
    "startYear": null,
    "endYear": null,
    "description": "Ancient anchorage: Pollentia. (Spain Mallorca)",
    "source": "DARMC"
  },
  {
    "id": "darmc-port-na-guardis-port-of-guium-3931-300",
    "name": "Na Guardis, port of Guium ?",
    "lat": 39.3111,
    "lng": 3.0013,
    "placeType": "anchorage",
    "startYear": null,
    "endYear": null,
    "description": "Ancient anchorage: Na Guardis, port of Guium ?. (Spain Mallorca)",
    "source": "DARMC"
  },
  {
    "id": "darmc-port-nura-balearis-minor-3998-406",
    "name": "Nura, Balearis Minor",
    "lat": 39.9829,
    "lng": 4.0573,
    "placeType": "anchorage",
    "startYear": null,
    "endYear": null,
    "description": "Ancient anchorage: Nura, Balearis Minor. (Spain Minorca). Sources: Antonine, Itin Mar",
    "source": "DARMC"
  },
  {
    "id": "darmc-port-yamma-iamon-iamna-iamnona-3999-382",
    "name": "Yamma, Iamon, Iamna, Iamnona",
    "lat": 39.9947,
    "lng": 3.8244,
    "placeType": "port",
    "startYear": null,
    "endYear": null,
    "description": "Ancient port: Yamma, Iamon, Iamna, Iamnona. (Spain Minorca)",
    "source": "DARMC"
  },
  {
    "id": "darmc-port-sanisera-4007-409",
    "name": "Sanisera",
    "lat": 40.0745,
    "lng": 4.0864,
    "placeType": "anchorage",
    "startYear": null,
    "endYear": null,
    "description": "Ancient anchorage: Sanisera. (Spain Minorca)",
    "source": "DARMC"
  },
  {
    "id": "darmc-port-mago-portus-magonis-3989-428",
    "name": "Mago, Portus Magonis",
    "lat": 39.8879,
    "lng": 4.2801,
    "placeType": "port",
    "startYear": null,
    "endYear": null,
    "description": "Ancient port: Mago, Portus Magonis. (Spain Minorca)",
    "source": "DARMC"
  },
  {
    "id": "darmc-port-cala-coves-3986-414",
    "name": "Cala Coves",
    "lat": 39.8606,
    "lng": 4.1437,
    "placeType": "anchorage",
    "startYear": null,
    "endYear": null,
    "description": "Ancient anchorage: Cala Coves. (Spain Minorca)",
    "source": "DARMC"
  },
  {
    "id": "darmc-port-pityusa-pytyuse-pitiusas-pittecusa-3877-133",
    "name": "Pityusa, Pytyuse, Pitiusas, Pittecusa",
    "lat": 38.7742,
    "lng": 1.3314,
    "placeType": "anchorage",
    "startYear": null,
    "endYear": null,
    "description": "Ancient anchorage: Pityusa, Pytyuse, Pitiusas, Pittecusa. (Spain Baleares). Sources: Diodorus, Hist, 5, 13 ; Livy, Hist, 28, 37 ; Scylax, Peripl",
    "source": "DARMC"
  },
  {
    "id": "darmc-port-ebusus-ebysos-3891-144",
    "name": "Ebusus, Ebysos",
    "lat": 38.9103,
    "lng": 1.4395,
    "placeType": "port",
    "startYear": null,
    "endYear": null,
    "description": "Ancient port: Ebusus, Ebysos. (Spain Ibiza). Sources: Livy, Hist, 22, 20 ; Antonine, Itin Mar",
    "source": "DARMC"
  },
  {
    "id": "darmc-port-ophioussa-3878-143",
    "name": "Ophioussa",
    "lat": 38.7787,
    "lng": 1.4257,
    "placeType": "port",
    "startYear": null,
    "endYear": null,
    "description": "Ancient port: Ophioussa. (Spain Formentera)",
    "source": "DARMC"
  },
  {
    "id": "darmc-port-epatiacum-epatiaci-portus-5077-159",
    "name": "Epatiacum, Epatiaci portus",
    "lat": 50.7687,
    "lng": 1.5938,
    "placeType": "anchorage",
    "startYear": null,
    "endYear": null,
    "description": "Ancient anchorage: Epatiacum, Epatiaci portus. (France West)",
    "source": "DARMC"
  },
  {
    "id": "darmc-port-port-bononiensis-bononia-with-ancient-lighthouses-of-la-tour-dordre-and-la-tour-de-caligula-5073-160",
    "name": "Port Bononiensis, Bononia, with ancient lighthouses of La Tour d'Ordre and La Tour de Caligula (both eroded away by the sea)",
    "lat": 50.7275,
    "lng": 1.6008,
    "placeType": "anchorage",
    "startYear": null,
    "endYear": null,
    "description": "Ancient anchorage: Port Bononiensis, Bononia, with ancient lighthouses of La Tour d'Ordre and La Tour de Caligula (both eroded away by the sea). (France West)",
    "source": "DARMC"
  },
  {
    "id": "darmc-port-gesoriacum-portus-portu-gessoriacensi-5072-161",
    "name": "Gesoriacum Portus, Portu Gessoriacensi",
    "lat": 50.7153,
    "lng": 1.6126,
    "placeType": "anchorage",
    "startYear": null,
    "endYear": null,
    "description": "Ancient anchorage: Gesoriacum Portus, Portu Gessoriacensi. (France West). Sources: Ptol, Geogr, 2, 9 ; Mela, Geogr, 3, 2 ; Antonine, Itin Mar",
    "source": "DARMC"
  },
  {
    "id": "darmc-port-portus-paulo-infra-5071-156",
    "name": "Portus Paulo Infra",
    "lat": 50.7078,
    "lng": 1.5646,
    "placeType": "anchorage",
    "startYear": null,
    "endYear": null,
    "description": "Ancient anchorage: Portus Paulo Infra. (France West)",
    "source": "DARMC"
  },
  {
    "id": "darmc-port-port-itius-port-of-the-morins-5068-165",
    "name": "Port Itius, Port of the Morins",
    "lat": 50.6823,
    "lng": 1.6541,
    "placeType": "anchorage",
    "startYear": null,
    "endYear": null,
    "description": "Ancient anchorage: Port Itius, Port of the Morins. (France West). Sources: Caesar, Guerre des Gaules, 4, 28 & 5, 2 ; Pliny, Hist Nat, 4, 37 ; Strabo, Geogr, 4, 5",
    "source": "DARMC"
  },
  {
    "id": "darmc-port-portus-aepatiaci-5051-164",
    "name": "Portus Aepatiaci",
    "lat": 50.5139,
    "lng": 1.638,
    "placeType": "anchorage",
    "startYear": null,
    "endYear": null,
    "description": "Ancient anchorage: Portus Aepatiaci. (France West)",
    "source": "DARMC"
  },
  {
    "id": "darmc-port-lintomagus-5045-184",
    "name": "Lintomagus",
    "lat": 50.446,
    "lng": 1.8368,
    "placeType": "anchorage",
    "startYear": null,
    "endYear": null,
    "description": "Ancient anchorage: Lintomagus. (France West)",
    "source": "DARMC"
  },
  {
    "id": "darmc-port-catuslovius-5002-146",
    "name": "Catuslovius",
    "lat": 50.021,
    "lng": 1.4639,
    "placeType": "anchorage",
    "startYear": null,
    "endYear": null,
    "description": "Ancient anchorage: Catuslovius. (France West)",
    "source": "DARMC"
  },
  {
    "id": "darmc-port-port-cruciatonnon-caracotinum-4950-21",
    "name": "Port Cruciatonnon, Caracotinum",
    "lat": 49.5026,
    "lng": 0.2092,
    "placeType": "anchorage",
    "startYear": null,
    "endYear": null,
    "description": "Ancient anchorage: Port Cruciatonnon, Caracotinum. (France West)",
    "source": "DARMC"
  },
  {
    "id": "darmc-port-port-of-juliobana-4951-52",
    "name": "Port of Juliobana",
    "lat": 49.5139,
    "lng": 0.5188,
    "placeType": "anchorage",
    "startYear": null,
    "endYear": null,
    "description": "Ancient anchorage: Port of Juliobana. (France West)",
    "source": "DARMC"
  },
  {
    "id": "darmc-port-loium-4952-73",
    "name": "Loium",
    "lat": 49.5227,
    "lng": 0.725,
    "placeType": "anchorage",
    "startYear": null,
    "endYear": null,
    "description": "Ancient anchorage: Loium. (France West)",
    "source": "DARMC"
  },
  {
    "id": "darmc-port-aregenua-4910--40",
    "name": "Aregenua",
    "lat": 49.1045,
    "lng": -0.3989,
    "placeType": "anchorage",
    "startYear": null,
    "endYear": null,
    "description": "Ancient anchorage: Aregenua. (France West)",
    "source": "DARMC"
  },
  {
    "id": "darmc-port-crociatonum-crouciaconnum-4931--123",
    "name": "Crociatonum, Crouciaconnum",
    "lat": 49.3111,
    "lng": -1.2341,
    "placeType": "anchorage",
    "startYear": null,
    "endYear": null,
    "description": "Ancient anchorage: Crociatonum, Crouciaconnum. (France West)",
    "source": "DARMC"
  },
  {
    "id": "darmc-port-coriallum-coriovallum-4968--160",
    "name": "Coriallum, Coriovallum",
    "lat": 49.6829,
    "lng": -1.5989,
    "placeType": "anchorage",
    "startYear": null,
    "endYear": null,
    "description": "Ancient anchorage: Coriallum, Coriovallum. (France West)",
    "source": "DARMC"
  },
  {
    "id": "darmc-port-riduna-4971--220",
    "name": "Riduna",
    "lat": 49.7138,
    "lng": -2.1953,
    "placeType": "anchorage",
    "startYear": null,
    "endYear": null,
    "description": "Ancient anchorage: Riduna. (France West). Sources: Antonine, Itin Mar",
    "source": "DARMC"
  },
  {
    "id": "darmc-port-sarmia-4946--257",
    "name": "Sarmia",
    "lat": 49.4553,
    "lng": -2.5749,
    "placeType": "anchorage",
    "startYear": null,
    "endYear": null,
    "description": "Ancient anchorage: Sarmia. (France West). Sources: Antonine, Itin Mar",
    "source": "DARMC"
  },
  {
    "id": "darmc-port-lisia-lesia-4946--252",
    "name": "Lisia, Lesia",
    "lat": 49.4588,
    "lng": -2.5241,
    "placeType": "anchorage",
    "startYear": null,
    "endYear": null,
    "description": "Ancient anchorage: Lisia, Lesia. (France West). Sources: Antonine, Itin Mar",
    "source": "DARMC"
  },
  {
    "id": "darmc-port-barsa-4943--236",
    "name": "Barsa",
    "lat": 49.4314,
    "lng": -2.3599,
    "placeType": "anchorage",
    "startYear": null,
    "endYear": null,
    "description": "Ancient anchorage: Barsa. (France West). Sources: Antonine, Itin Mar",
    "source": "DARMC"
  },
  {
    "id": "darmc-port-caesarea-andium-4922--214",
    "name": "Caesarea,  Andium",
    "lat": 49.2182,
    "lng": -2.139,
    "placeType": "anchorage",
    "startYear": null,
    "endYear": null,
    "description": "Ancient anchorage: Caesarea,  Andium. (France West). Sources: Antonine, Itin Mar",
    "source": "DARMC"
  },
  {
    "id": "darmc-port-abrincas-ingena-4866--141",
    "name": "Abrincas, Ingena",
    "lat": 48.6596,
    "lng": -1.4125,
    "placeType": "anchorage",
    "startYear": null,
    "endYear": null,
    "description": "Ancient anchorage: Abrincas, Ingena. (France West)",
    "source": "DARMC"
  },
  {
    "id": "darmc-port-reginca-aletum-4863--203",
    "name": "Reginca, Aletum",
    "lat": 48.6319,
    "lng": -2.0287,
    "placeType": "anchorage",
    "startYear": null,
    "endYear": null,
    "description": "Ancient anchorage: Reginca, Aletum. (France West)",
    "source": "DARMC"
  },
  {
    "id": "darmc-port-port-saliocanus-staliocane-4865--388",
    "name": "Port Saliocanus, Staliocane",
    "lat": 48.6542,
    "lng": -3.8758,
    "placeType": "anchorage",
    "startYear": null,
    "endYear": null,
    "description": "Ancient anchorage: Port Saliocanus, Staliocane. (France West). Sources: Ptol, Geogr, 2, 8",
    "source": "DARMC"
  },
  {
    "id": "darmc-port-uxantis-portus-uxentinus-4846--509",
    "name": "Uxantis, Portus Uxentinus",
    "lat": 48.4602,
    "lng": -5.0864,
    "placeType": "anchorage",
    "startYear": null,
    "endYear": null,
    "description": "Ancient anchorage: Uxantis, Portus Uxentinus. (France West). Sources: Antonine, Itin Mar",
    "source": "DARMC"
  },
  {
    "id": "darmc-port-gesocribate-osismis-4833--449",
    "name": "Gesocribate, Osismis",
    "lat": 48.3346,
    "lng": -4.4933,
    "placeType": "anchorage",
    "startYear": null,
    "endYear": null,
    "description": "Ancient anchorage: Gesocribate, Osismis. (France West)",
    "source": "DARMC"
  },
  {
    "id": "darmc-port-sina-sena-4804--485",
    "name": "Sina, Sena",
    "lat": 48.0351,
    "lng": -4.8539,
    "placeType": "anchorage",
    "startYear": null,
    "endYear": null,
    "description": "Ancient anchorage: Sina, Sena. (France West). Sources: Antonine, Itin Mar",
    "source": "DARMC"
  },
  {
    "id": "darmc-port-port-vindana-ouidana-4772--336",
    "name": "Port Vindana, Ouidana",
    "lat": 47.7158,
    "lng": -3.3556,
    "placeType": "anchorage",
    "startYear": null,
    "endYear": null,
    "description": "Ancient anchorage: Port Vindana, Ouidana. (France West). Sources: Ptol, Geogr, 2, 8",
    "source": "DARMC"
  },
  {
    "id": "darmc-port-blabia-4780--328",
    "name": "Blabia",
    "lat": 47.7994,
    "lng": -3.2761,
    "placeType": "anchorage",
    "startYear": null,
    "endYear": null,
    "description": "Ancient anchorage: Blabia. (France West)",
    "source": "DARMC"
  },
  {
    "id": "darmc-port-vindilis-4732--319",
    "name": "Vindilis",
    "lat": 47.3227,
    "lng": -3.1854,
    "placeType": "anchorage",
    "startYear": null,
    "endYear": null,
    "description": "Ancient anchorage: Vindilis. (France West). Sources: Antonine, Itin Mar",
    "source": "DARMC"
  },
  {
    "id": "darmc-port-siata-4739--297",
    "name": "Siata",
    "lat": 47.3884,
    "lng": -2.9671,
    "placeType": "anchorage",
    "startYear": null,
    "endYear": null,
    "description": "Ancient anchorage: Siata. (France West). Sources: Antonine, Itin Mar",
    "source": "DARMC"
  },
  {
    "id": "darmc-port-arica-4734--287",
    "name": "Arica",
    "lat": 47.3364,
    "lng": -2.8733,
    "placeType": "anchorage",
    "startYear": null,
    "endYear": null,
    "description": "Ancient anchorage: Arica. (France West). Sources: Antonine, Itin Mar",
    "source": "DARMC"
  },
  {
    "id": "darmc-port-darioritum-benetis-4763--276",
    "name": "Darioritum, Benetis",
    "lat": 47.6265,
    "lng": -2.7623,
    "placeType": "anchorage",
    "startYear": null,
    "endYear": null,
    "description": "Ancient anchorage: Darioritum, Benetis. (France West)",
    "source": "DARMC"
  },
  {
    "id": "darmc-port-cassiterides-islands-4747--251",
    "name": "Cassiterides islands",
    "lat": 47.4703,
    "lng": -2.5121,
    "placeType": "anchorage",
    "startYear": null,
    "endYear": null,
    "description": "Ancient anchorage: Cassiterides islands. (France West). Sources: Strabo, Geogr, 3, 3-5 ; Pliny, Hist Nat, 4, 36",
    "source": "DARMC"
  },
  {
    "id": "darmc-port-port-brivates-blivida-4729--248",
    "name": "Port Brivates, Blivida ?",
    "lat": 47.2885,
    "lng": -2.4816,
    "placeType": "anchorage",
    "startYear": null,
    "endYear": null,
    "description": "Ancient anchorage: Port Brivates, Blivida ?. (France West). Sources: Ptol, Geogr, 2, 8",
    "source": "DARMC"
  },
  {
    "id": "darmc-port-corbilon-4725--221",
    "name": "Corbilon",
    "lat": 47.2526,
    "lng": -2.2079,
    "placeType": "anchorage",
    "startYear": null,
    "endYear": null,
    "description": "Ancient anchorage: Corbilon. (France West). Sources: Strabo, Geogr, 4, 2",
    "source": "DARMC"
  },
  {
    "id": "darmc-port-port-des-deux-corbeaux-4729--208",
    "name": "Port des Deux Corbeaux",
    "lat": 47.2904,
    "lng": -2.0823,
    "placeType": "anchorage",
    "startYear": null,
    "endYear": null,
    "description": "Ancient anchorage: Port des Deux Corbeaux. (France West). Sources: Strabo, Geogr, 4, 4",
    "source": "DARMC"
  },
  {
    "id": "darmc-port-portus-namnetum-port-des-namn-tes-4721--157",
    "name": "Portus Namnetum, Port des Namnètes",
    "lat": 47.2117,
    "lng": -1.5674,
    "placeType": "anchorage",
    "startYear": null,
    "endYear": null,
    "description": "Ancient anchorage: Portus Namnetum, Port des Namnètes. (France West)",
    "source": "DARMC"
  },
  {
    "id": "darmc-port-ratiatum-port-of-the-pictons-4719--157",
    "name": "Ratiatum, port of the Pictons",
    "lat": 47.1926,
    "lng": -1.5705,
    "placeType": "anchorage",
    "startYear": null,
    "endYear": null,
    "description": "Ancient anchorage: Ratiatum, port of the Pictons. (France West). Sources: Strabo and Ptol mention the city but not the port",
    "source": "DARMC"
  },
  {
    "id": "darmc-port-port-sicor-4711--211",
    "name": "Port Sicor",
    "lat": 47.1082,
    "lng": -2.1093,
    "placeType": "anchorage",
    "startYear": null,
    "endYear": null,
    "description": "Ancient anchorage: Port Sicor. (France West). Sources: Ptol, Geogr, 2, 8 ; Marcian, Peripl, 2, 21",
    "source": "DARMC"
  },
  {
    "id": "darmc-port-port-morinum-4694--223",
    "name": "Port Morinum",
    "lat": 46.9436,
    "lng": -2.2321,
    "placeType": "anchorage",
    "startYear": null,
    "endYear": null,
    "description": "Ancient anchorage: Port Morinum. (France West). Sources: Polybius, Hist, 34, 7",
    "source": "DARMC"
  },
  {
    "id": "darmc-port-port-of-the-santons-4600--108",
    "name": "port of the Santons",
    "lat": 46.0036,
    "lng": -1.0845,
    "placeType": "anchorage",
    "startYear": null,
    "endYear": null,
    "description": "Ancient anchorage: port of the Santons. (France West). Sources: Ptol, Geogr, 2, 7",
    "source": "DARMC"
  },
  {
    "id": "darmc-port-novioregum-4552--90",
    "name": "Novioregum",
    "lat": 45.5193,
    "lng": -0.8954,
    "placeType": "anchorage",
    "startYear": null,
    "endYear": null,
    "description": "Ancient anchorage: Novioregum. (France West)",
    "source": "DARMC"
  },
  {
    "id": "darmc-port-blauto-blavia-santorum-4512--67",
    "name": "Blauto, Blavia Santorum",
    "lat": 45.123,
    "lng": -0.671,
    "placeType": "anchorage",
    "startYear": null,
    "endYear": null,
    "description": "Ancient anchorage: Blauto, Blavia Santorum. (France West)",
    "source": "DARMC"
  },
  {
    "id": "darmc-port-burdigala-4484--57",
    "name": "Burdigala",
    "lat": 44.8397,
    "lng": -0.5653,
    "placeType": "anchorage",
    "startYear": null,
    "endYear": null,
    "description": "Ancient anchorage: Burdigala. (France West). Sources: Strabo, Geogr, 4, 2 ; Marcian, Peripl, 2, 21",
    "source": "DARMC"
  },
  {
    "id": "darmc-port-lapurdum-lapurdunum-lapurdo-baiona-4349--147",
    "name": "Lapurdum, Lapurdunum, Lapurdo, Baiona",
    "lat": 43.4929,
    "lng": -1.4743,
    "placeType": "anchorage",
    "startYear": null,
    "endYear": null,
    "description": "Ancient anchorage: Lapurdum, Lapurdunum, Lapurdo, Baiona. (France West)",
    "source": "DARMC"
  },
  {
    "id": "darmc-port-pyr-n-e-4234-320",
    "name": "Pyrénée",
    "lat": 42.3426,
    "lng": 3.195,
    "placeType": "anchorage",
    "startYear": null,
    "endYear": null,
    "description": "Ancient anchorage: Pyrénée. (France South). Sources: Livy, Hist, 34, 8",
    "source": "DARMC"
  },
  {
    "id": "darmc-port-cervaria-4244-317",
    "name": "Cervaria",
    "lat": 42.4445,
    "lng": 3.1735,
    "placeType": "anchorage",
    "startYear": null,
    "endYear": null,
    "description": "Ancient anchorage: Cervaria. (France South). Sources: Mela, Geogr, 2, 5",
    "source": "DARMC"
  },
  {
    "id": "darmc-port-port-de-venus-4252-311",
    "name": "Port de Venus",
    "lat": 42.5196,
    "lng": 3.1084,
    "placeType": "port",
    "startYear": null,
    "endYear": null,
    "description": "Ancient port: Port de Venus. (France South). Sources: Mela, Geogr, 2, 5",
    "source": "DARMC"
  },
  {
    "id": "darmc-port-illiberis-castrum-helenae-4261-305",
    "name": "Illiberis, Castrum Helenae",
    "lat": 42.6064,
    "lng": 3.046,
    "placeType": "anchorage",
    "startYear": null,
    "endYear": null,
    "description": "Ancient anchorage: Illiberis, Castrum Helenae. (France South)",
    "source": "DARMC"
  },
  {
    "id": "darmc-port-ruscino-4271-295",
    "name": "Ruscino",
    "lat": 42.7088,
    "lng": 2.9453,
    "placeType": "anchorage",
    "startYear": null,
    "endYear": null,
    "description": "Ancient anchorage: Ruscino. (France South)",
    "source": "DARMC"
  },
  {
    "id": "darmc-port-leuxos-4288-302",
    "name": "Leuxos",
    "lat": 42.8839,
    "lng": 3.0201,
    "placeType": "anchorage",
    "startYear": null,
    "endYear": null,
    "description": "Ancient anchorage: Leuxos. (France South)",
    "source": "DARMC"
  },
  {
    "id": "darmc-port-narbo-martius-4316-296",
    "name": "Narbo-Martius",
    "lat": 43.1635,
    "lng": 2.9637,
    "placeType": "anchorage",
    "startYear": null,
    "endYear": null,
    "description": "Ancient anchorage: Narbo-Martius. (France South). Sources: Strabo, Geogr, 4, 1 ; Ausonius, Ordo Urbium, 13 ; Apollinaris, Poésie 23",
    "source": "DARMC"
  },
  {
    "id": "darmc-port-port-de-cauqu-nes-kauco-4305-304",
    "name": "Port de Cauquènes, Kauco",
    "lat": 43.0497,
    "lng": 3.0418,
    "placeType": "anchorage",
    "startYear": null,
    "endYear": null,
    "description": "Ancient anchorage: Port de Cauquènes, Kauco. (France South)",
    "source": "DARMC"
  },
  {
    "id": "darmc-port-agathe-4331-347",
    "name": "Agathe",
    "lat": 43.3143,
    "lng": 3.4684,
    "placeType": "port",
    "startYear": null,
    "endYear": null,
    "description": "Ancient port: Agathe. (France South)",
    "source": "DARMC"
  },
  {
    "id": "darmc-port-embonne-4329-351",
    "name": "Embonne",
    "lat": 43.2872,
    "lng": 3.5134,
    "placeType": "anchorage",
    "startYear": null,
    "endYear": null,
    "description": "Ancient anchorage: Embonne. (France South)",
    "source": "DARMC"
  },
  {
    "id": "darmc-port-mesua-4342-361",
    "name": "Mesua",
    "lat": 43.4208,
    "lng": 3.6125,
    "placeType": "anchorage",
    "startYear": null,
    "endYear": null,
    "description": "Ancient anchorage: Mesua. (France South)",
    "source": "DARMC"
  },
  {
    "id": "darmc-port-setius-4340-370",
    "name": "Setius",
    "lat": 43.3977,
    "lng": 3.7019,
    "placeType": "anchorage",
    "startYear": null,
    "endYear": null,
    "description": "Ancient anchorage: Setius. (France South)",
    "source": "DARMC"
  },
  {
    "id": "darmc-port-magalona-4351-388",
    "name": "Magalona",
    "lat": 43.5133,
    "lng": 3.8835,
    "placeType": "anchorage",
    "startYear": null,
    "endYear": null,
    "description": "Ancient anchorage: Magalona. (France South)",
    "source": "DARMC"
  },
  {
    "id": "darmc-port-lattara-latera-and-its-ancient-lighthouse-4356-391",
    "name": "Lattara, Latera and its ancient lighthouse",
    "lat": 43.5646,
    "lng": 3.907,
    "placeType": "anchorage",
    "startYear": null,
    "endYear": null,
    "description": "Ancient anchorage: Lattara, Latera and its ancient lighthouse. (France South)",
    "source": "DARMC"
  },
  {
    "id": "darmc-port-saintes-maries-de-la-mer-4344-441",
    "name": "Saintes-Maries-de-la-Mer (also called Artémis because the saintes in question came from Ephesus where godin Artemis is worshiped)",
    "lat": 43.436,
    "lng": 4.4126,
    "placeType": "anchorage",
    "startYear": null,
    "endYear": null,
    "description": "Ancient anchorage: Saintes-Maries-de-la-Mer (also called Artémis because the saintes in question came from Ephesus where godin Artemis is worshiped). (France South)",
    "source": "DARMC"
  },
  {
    "id": "darmc-port-arelate-arelas-4368-462",
    "name": "Arelate, Arelas",
    "lat": 43.6772,
    "lng": 4.6211,
    "placeType": "anchorage",
    "startYear": null,
    "endYear": null,
    "description": "Ancient anchorage: Arelate, Arelas. (France South). Sources: Caesar, Guerre civile, 2, 5 ; Ausonius, Ordo Urbium, 8 ; Antonine, Itin Mar",
    "source": "DARMC"
  },
  {
    "id": "darmc-port-gradus-massilitanorum-at-about-18-nautical-miles-from-arelates-4343-473",
    "name": "Gradus Massilitanorum, at about 18 nautical miles from Arelates",
    "lat": 43.4294,
    "lng": 4.7342,
    "placeType": "anchorage",
    "startYear": null,
    "endYear": null,
    "description": "Ancient anchorage: Gradus Massilitanorum, at about 18 nautical miles from Arelates. (France South). Sources: Antonine, Itin Mar ; Polybius, Hist, 3, 16 ; Ammian, Hist, 15, 11",
    "source": "DARMC"
  },
  {
    "id": "darmc-port-marius-canal-fossa-mariana-fossae-marianae-fosses-mariannes-4350-482",
    "name": "Marius' canal, Fossa Mariana, Fossae Marianae, Fosses Mariannes",
    "lat": 43.4985,
    "lng": 4.8241,
    "placeType": "anchorage",
    "startYear": null,
    "endYear": null,
    "description": "Ancient anchorage: Marius' canal, Fossa Mariana, Fossae Marianae, Fosses Mariannes. (France South). Sources: Plutarch, Marius, 16 ; Strabo, Geogr, 4, 1 ; Mela, Geogr, 2, 5",
    "source": "DARMC"
  },
  {
    "id": "darmc-port-statio-fossae-marianae-near-stomalimne-4342-496",
    "name": "Statio Fossae Marianae ? Near Stomalimne",
    "lat": 43.424,
    "lng": 4.9613,
    "placeType": "anchorage",
    "startYear": null,
    "endYear": null,
    "description": "Ancient anchorage: Statio Fossae Marianae ? Near Stomalimne. (France South). Sources: Strabo, Geogr, 4, 1 ; Antonine, Itin Mar",
    "source": "DARMC"
  },
  {
    "id": "darmc-port-maritima-ciuitas-colonia-4335-502",
    "name": "Maritima Ciuitas Colonia",
    "lat": 43.3542,
    "lng": 5.0235,
    "placeType": "anchorage",
    "startYear": null,
    "endYear": null,
    "description": "Ancient anchorage: Maritima Ciuitas Colonia. (France South). Sources: Ptol, Geogr, 2, 10",
    "source": "DARMC"
  },
  {
    "id": "darmc-port-dilis-4333-505",
    "name": "Dilis",
    "lat": 43.3261,
    "lng": 5.0451,
    "placeType": "port",
    "startYear": null,
    "endYear": null,
    "description": "Ancient port: Dilis. (France South). Sources: Antonine, Itin Mar",
    "source": "DARMC"
  },
  {
    "id": "darmc-port-incaro-4333-515",
    "name": "Incaro",
    "lat": 43.326,
    "lng": 5.1543,
    "placeType": "anchorage",
    "startYear": null,
    "endYear": null,
    "description": "Ancient anchorage: Incaro. (France South). Sources: Antonine, Itin Mar",
    "source": "DARMC"
  },
  {
    "id": "darmc-port-massalia-graecorum-lacydon-4330-537",
    "name": "Massalia Graecorum, Lacydon",
    "lat": 43.2963,
    "lng": 5.3669,
    "placeType": "anchorage",
    "startYear": null,
    "endYear": null,
    "description": "Ancient anchorage: Massalia Graecorum, Lacydon. (France South). Sources: Caesar, Guerre civile, 1, 36 ; 2, 1 ; Mela, Geogr, 2, 5 ; Strabo, Geogr, 4, 1 ; Scylax, Peripl ; Antonine, Itin Mar",
    "source": "DARMC"
  },
  {
    "id": "darmc-port-massalia-graecorum-lacydon-4330-537",
    "name": "Massalia Graecorum, Lacydon",
    "lat": 43.2976,
    "lng": 5.3749,
    "placeType": "port",
    "startYear": null,
    "endYear": null,
    "description": "Ancient port: Massalia Graecorum, Lacydon. (France South). Sources: Caesar, Guerre civile, 1, 36 ; 2, 1 ; Mela, Geogr, 2, 5 ; Strabo, Geogr, 4, 1 ; Scylax, Peripl ; Antonine, Itin Mar",
    "source": "DARMC"
  },
  {
    "id": "darmc-port-inmandras-immandras-4322-534",
    "name": "Inmandras, Immandras",
    "lat": 43.2176,
    "lng": 5.3439,
    "placeType": "port",
    "startYear": null,
    "endYear": null,
    "description": "Ancient port: Inmandras, Immandras. (France South). Sources: Antonine, Itin Mar",
    "source": "DARMC"
  },
  {
    "id": "darmc-port-inmandras-immandras-4321-535",
    "name": "Inmandras, Immandras",
    "lat": 43.2111,
    "lng": 5.3524,
    "placeType": "anchorage",
    "startYear": null,
    "endYear": null,
    "description": "Ancient anchorage: Inmandras, Immandras. (France South). Sources: Antonine, Itin Mar",
    "source": "DARMC"
  },
  {
    "id": "darmc-port-aemines-hemines-mines-4321-542",
    "name": "Aemines, Hemines, Mines",
    "lat": 43.2096,
    "lng": 5.4226,
    "placeType": "anchorage",
    "startYear": null,
    "endYear": null,
    "description": "Ancient anchorage: Aemines, Hemines, Mines. (France South). Sources: Antonine, Itin Mar",
    "source": "DARMC"
  },
  {
    "id": "darmc-port-portus-milus-4321-552",
    "name": "Portus Milus",
    "lat": 43.2056,
    "lng": 5.5156,
    "placeType": "port",
    "startYear": null,
    "endYear": null,
    "description": "Ancient port: Portus Milus. (France South)",
    "source": "DARMC"
  },
  {
    "id": "darmc-port-carsicis-4321-554",
    "name": "Carsicis",
    "lat": 43.2141,
    "lng": 5.539,
    "placeType": "port",
    "startYear": null,
    "endYear": null,
    "description": "Ancient port: Carsicis. (France South). Sources: Antonine, Itin Mar",
    "source": "DARMC"
  },
  {
    "id": "darmc-port-citharista-kitharist-s-zao-4317-561",
    "name": "Citharista, Kitharistès, Zao",
    "lat": 43.1731,
    "lng": 5.6072,
    "placeType": "port",
    "startYear": null,
    "endYear": null,
    "description": "Ancient port: Citharista, Kitharistès, Zao. (France South). Sources: Pliny, Hist Nat, 3, 5 ; Antonine, Itin Mar",
    "source": "DARMC"
  },
  {
    "id": "darmc-port-tauroeis-taurento-tauroentum-4308-580",
    "name": "Tauroeis, Taurento, Tauroentum",
    "lat": 43.0803,
    "lng": 5.7999,
    "placeType": "anchorage",
    "startYear": null,
    "endYear": null,
    "description": "Ancient anchorage: Tauroeis, Taurento, Tauroentum. (France South). Sources: Caesar, Guerres civiles, 2, 4",
    "source": "DARMC"
  },
  {
    "id": "darmc-port-telone-martio-4311-592",
    "name": "Telone Martio",
    "lat": 43.1093,
    "lng": 5.9179,
    "placeType": "anchorage",
    "startYear": null,
    "endYear": null,
    "description": "Ancient anchorage: Telone Martio. (France South). Sources: Antonine, Itin Mar",
    "source": "DARMC"
  },
  {
    "id": "darmc-port-olbia-pomponiana-4308-612",
    "name": "Olbia, Pomponiana",
    "lat": 43.0789,
    "lng": 6.1232,
    "placeType": "anchorage",
    "startYear": null,
    "endYear": null,
    "description": "Ancient anchorage: Olbia, Pomponiana. (France South). Sources: Antonine, Itin Mar",
    "source": "DARMC"
  },
  {
    "id": "darmc-port-stoechadis-stoechades-stechades-4301-631",
    "name": "Stoechadis, Stoechades, Stechades",
    "lat": 43.0097,
    "lng": 6.3058,
    "placeType": "anchorage",
    "startYear": null,
    "endYear": null,
    "description": "Ancient anchorage: Stoechadis, Stoechades, Stechades. (France South). Sources: Strabo, Geogr, 4, 1 ; Tacitus, Hist, 3, 42 ; Antonine, Itin Mar",
    "source": "DARMC"
  },
  {
    "id": "darmc-port-pergantion-4310-632",
    "name": "Pergantion",
    "lat": 43.0957,
    "lng": 6.3218,
    "placeType": "anchorage",
    "startYear": null,
    "endYear": null,
    "description": "Ancient anchorage: Pergantion. (France South)",
    "source": "DARMC"
  },
  {
    "id": "darmc-port-alconis-4315-643",
    "name": "Alconis",
    "lat": 43.1476,
    "lng": 6.4336,
    "placeType": "anchorage",
    "startYear": null,
    "endYear": null,
    "description": "Ancient anchorage: Alconis. (France South). Sources: Antonine, Itin Mar",
    "source": "DARMC"
  },
  {
    "id": "darmc-port-heraclia-caccabaria-4317-654",
    "name": "Heraclia Caccabaria",
    "lat": 43.1745,
    "lng": 6.5424,
    "placeType": "anchorage",
    "startYear": null,
    "endYear": null,
    "description": "Ancient anchorage: Heraclia Caccabaria. (France South). Sources: Antonine, Itin Mar",
    "source": "DARMC"
  },
  {
    "id": "darmc-port-athenopolis-4327-663",
    "name": "Athenopolis",
    "lat": 43.2733,
    "lng": 6.6298,
    "placeType": "anchorage",
    "startYear": null,
    "endYear": null,
    "description": "Ancient anchorage: Athenopolis. (France South)",
    "source": "DARMC"
  },
  {
    "id": "darmc-port-sinus-sambracitanus-plagia-4327-659",
    "name": "Sinus Sambracitanus plagia",
    "lat": 43.2723,
    "lng": 6.5941,
    "placeType": "anchorage",
    "startYear": null,
    "endYear": null,
    "description": "Ancient anchorage: Sinus Sambracitanus plagia. (France South). Sources: Antonine, Itin Mar",
    "source": "DARMC"
  },
  {
    "id": "darmc-port-forum-julii-forum-julium-with-four-lighthouses-the-lanterne-dauguste-the-butte-st-antoine-the-monument-aux-tritons-and-the-lion-de-mer-islet-in-front-of-st-rapha-l-4343-674",
    "name": "Forum Julii, Forum Julium, with four lighthouses: the Lanterne d'Auguste, the Butte St Antoine, the Monument aux Tritons and the Lion de Mer islet in front of St Raphaël",
    "lat": 43.4296,
    "lng": 6.7439,
    "placeType": "anchorage",
    "startYear": null,
    "endYear": null,
    "description": "Ancient anchorage: Forum Julii, Forum Julium, with four lighthouses: the Lanterne d'Auguste, the Butte St Antoine, the Monument aux Tritons and the Lion de Mer islet in front of St Raphaël. (France South). Sources: Strabo, Geogr, 4, 1 ; Tacitus, Hist, 3, 42",
    "source": "DARMC"
  },
  {
    "id": "darmc-port-portus-oxybiorum-oxybius-4342-686",
    "name": "Portus Oxybiorum, Oxybius",
    "lat": 43.4223,
    "lng": 6.864,
    "placeType": "anchorage",
    "startYear": null,
    "endYear": null,
    "description": "Ancient anchorage: Portus Oxybiorum, Oxybius. (France South). Sources: Strabo, Geogr, 4, 1",
    "source": "DARMC"
  },
  {
    "id": "darmc-port-lero-with-ancient-lighthouse-4352-704",
    "name": "Lero, with ancient lighthouse",
    "lat": 43.5229,
    "lng": 7.0373,
    "placeType": "anchorage",
    "startYear": null,
    "endYear": null,
    "description": "Ancient anchorage: Lero, with ancient lighthouse. (France South). Sources: Antonine, Itin Mar",
    "source": "DARMC"
  },
  {
    "id": "darmc-port-lerina-4351-704",
    "name": "Lerina",
    "lat": 43.5097,
    "lng": 7.0449,
    "placeType": "anchorage",
    "startYear": null,
    "endYear": null,
    "description": "Ancient anchorage: Lerina. (France South). Sources: Antonine, Itin Mar",
    "source": "DARMC"
  },
  {
    "id": "darmc-port-antipolis-4359-712",
    "name": "Antipolis",
    "lat": 43.5893,
    "lng": 7.1245,
    "placeType": "anchorage",
    "startYear": null,
    "endYear": null,
    "description": "Ancient anchorage: Antipolis. (France South). Sources: Antonine, Itin Mar",
    "source": "DARMC"
  },
  {
    "id": "darmc-port-nicia-plagia-4369-727",
    "name": "Nicia plagia",
    "lat": 43.6906,
    "lng": 7.2693,
    "placeType": "anchorage",
    "startYear": null,
    "endYear": null,
    "description": "Ancient anchorage: Nicia plagia. (France South). Sources: Antonine, Itin Mar",
    "source": "DARMC"
  },
  {
    "id": "darmc-port-olivula-portus-4370-732",
    "name": "Olivula Portus",
    "lat": 43.6991,
    "lng": 7.3158,
    "placeType": "anchorage",
    "startYear": null,
    "endYear": null,
    "description": "Ancient anchorage: Olivula Portus. (France South). Sources: Antonine, Itin Mar",
    "source": "DARMC"
  },
  {
    "id": "darmc-port-anaone-4370-734",
    "name": "Anaone",
    "lat": 43.6993,
    "lng": 7.3368,
    "placeType": "anchorage",
    "startYear": null,
    "endYear": null,
    "description": "Ancient anchorage: Anaone. (France South). Sources: Antonine, Itin Mar",
    "source": "DARMC"
  },
  {
    "id": "darmc-port-avisione-avisio-4372-736",
    "name": "Avisione, Avisio",
    "lat": 43.7175,
    "lng": 7.3637,
    "placeType": "anchorage",
    "startYear": null,
    "endYear": null,
    "description": "Ancient anchorage: Avisione, Avisio. (France South). Sources: Antonine, Itin Mar",
    "source": "DARMC"
  },
  {
    "id": "darmc-port-hercle-manico-port-heracl-s-portus-herculis-monoeci-port-d-hercules-monoecus-monoecus-monoeque-4373-743",
    "name": "Hercle Manico, Port Heraclès, Portus Herculis Monoeci, Port d’Hercules Monoecus, Monoecus, Monoeque",
    "lat": 43.7346,
    "lng": 7.4328,
    "placeType": "anchorage",
    "startYear": null,
    "endYear": null,
    "description": "Ancient anchorage: Hercle Manico, Port Heraclès, Portus Herculis Monoeci, Port d’Hercules Monoecus, Monoecus, Monoeque. (France South). Sources: Tacitus, Hist, 3, 42 ; Pliny, Hist Nat, 3, 7 ; Strabo, Geogr, 4, 6 ; Ptol, Geogr, 3, 1  ; Antonine, Itin Mar",
    "source": "DARMC"
  },
  {
    "id": "darmc-port-cyrne-crinis-kurnos-korsika-4237-916",
    "name": "Cyrne, Crinis, Kurnos, Korsika",
    "lat": 42.369,
    "lng": 9.1555,
    "placeType": "anchorage",
    "startYear": null,
    "endYear": null,
    "description": "Ancient anchorage: Cyrne, Crinis, Kurnos, Korsika. (France Corsica). Sources: Diodorus, Hist, 5, 11 ; Livy, Hist, 30, 39 ; Scylax, Peripl ; Antonine, Itin Mar",
    "source": "DARMC"
  },
  {
    "id": "darmc-port-macinaggio-4296-945",
    "name": "Macinaggio",
    "lat": 42.9626,
    "lng": 9.4537,
    "placeType": "anchorage",
    "startYear": null,
    "endYear": null,
    "description": "Ancient anchorage: Macinaggio. (France Corsica)",
    "source": "DARMC"
  },
  {
    "id": "darmc-port-klounion-4277-948",
    "name": "Klounion",
    "lat": 42.7724,
    "lng": 9.4756,
    "placeType": "anchorage",
    "startYear": null,
    "endYear": null,
    "description": "Ancient anchorage: Klounion. (France Corsica)",
    "source": "DARMC"
  },
  {
    "id": "darmc-port-mantinon-porto-cardo-4269-946",
    "name": "Mantinon, Porto Cardo",
    "lat": 42.6931,
    "lng": 9.4559,
    "placeType": "port",
    "startYear": null,
    "endYear": null,
    "description": "Ancient port: Mantinon, Porto Cardo. (France Corsica)",
    "source": "DARMC"
  },
  {
    "id": "darmc-port-mariana-4258-950",
    "name": "Mariana",
    "lat": 42.5776,
    "lng": 9.4973,
    "placeType": "anchorage",
    "startYear": null,
    "endYear": null,
    "description": "Ancient anchorage: Mariana. (France Corsica)",
    "source": "DARMC"
  },
  {
    "id": "darmc-port-folleli-4245-954",
    "name": "Folleli",
    "lat": 42.4501,
    "lng": 9.5447,
    "placeType": "anchorage",
    "startYear": null,
    "endYear": null,
    "description": "Ancient anchorage: Folleli. (France Corsica)",
    "source": "DARMC"
  },
  {
    "id": "darmc-port-toutelas-bomos-4220-956",
    "name": "Toutelas Bomos",
    "lat": 42.2049,
    "lng": 9.5598,
    "placeType": "anchorage",
    "startYear": null,
    "endYear": null,
    "description": "Ancient anchorage: Toutelas Bomos. (France Corsica)",
    "source": "DARMC"
  },
  {
    "id": "darmc-port-diana-portus-port-d-artemis-diane-4214-955",
    "name": "Diana portus, Port d’Artemis/Diane",
    "lat": 42.1399,
    "lng": 9.5495,
    "placeType": "anchorage",
    "startYear": null,
    "endYear": null,
    "description": "Ancient anchorage: Diana portus, Port d’Artemis/Diane. (France Corsica). Sources: Ptol, Geogr, 3, 2",
    "source": "DARMC"
  },
  {
    "id": "darmc-port-alalia-valeria-4210-955",
    "name": "Alalia, Valeria",
    "lat": 42.1009,
    "lng": 9.5535,
    "placeType": "anchorage",
    "startYear": null,
    "endYear": null,
    "description": "Ancient anchorage: Alalia, Valeria. (France Corsica)",
    "source": "DARMC"
  },
  {
    "id": "darmc-port-portus-favonus-port-philonios-4178-940",
    "name": "Portus Favonus, Port Philonios",
    "lat": 41.7751,
    "lng": 9.4005,
    "placeType": "anchorage",
    "startYear": null,
    "endYear": null,
    "description": "Ancient anchorage: Portus Favonus, Port Philonios. (France Corsica). Sources: Ptol, Geogr, 3, 2",
    "source": "DARMC"
  },
  {
    "id": "darmc-port-portus-syracusanus-4159-929",
    "name": "Portus Syracusanus",
    "lat": 41.5909,
    "lng": 9.2892,
    "placeType": "port",
    "startYear": null,
    "endYear": null,
    "description": "Ancient port: Portus Syracusanus. (France Corsica). Sources: Ptol, Geogr, 3, 2",
    "source": "DARMC"
  },
  {
    "id": "darmc-port-rhoubra-4147-928",
    "name": "Rhoubra",
    "lat": 41.4677,
    "lng": 9.277,
    "placeType": "anchorage",
    "startYear": null,
    "endYear": null,
    "description": "Ancient anchorage: Rhoubra. (France Corsica)",
    "source": "DARMC"
  },
  {
    "id": "darmc-port-petit-sperone-4137-922",
    "name": "Petit Sperone",
    "lat": 41.3701,
    "lng": 9.2228,
    "placeType": "anchorage",
    "startYear": null,
    "endYear": null,
    "description": "Ancient anchorage: Petit Sperone. (France Corsica)",
    "source": "DARMC"
  },
  {
    "id": "darmc-port-pallas-4139-916",
    "name": "Pallas",
    "lat": 41.3883,
    "lng": 9.1634,
    "placeType": "port",
    "startYear": null,
    "endYear": null,
    "description": "Ancient port: Pallas. (France Corsica)",
    "source": "DARMC"
  },
  {
    "id": "darmc-port-marianon-4139-912",
    "name": "Marianon",
    "lat": 41.3942,
    "lng": 9.1235,
    "placeType": "anchorage",
    "startYear": null,
    "endYear": null,
    "description": "Ancient anchorage: Marianon. (France Corsica)",
    "source": "DARMC"
  },
  {
    "id": "darmc-port-phikaria-4147-908",
    "name": "Phikaria",
    "lat": 41.4741,
    "lng": 9.0752,
    "placeType": "port",
    "startYear": null,
    "endYear": null,
    "description": "Ancient port: Phikaria. (France Corsica)",
    "source": "DARMC"
  },
  {
    "id": "darmc-port-titianus-portus-4154-885",
    "name": "Titianus Portus",
    "lat": 41.5442,
    "lng": 8.851,
    "placeType": "anchorage",
    "startYear": null,
    "endYear": null,
    "description": "Ancient anchorage: Titianus Portus. (France Corsica). Sources: Ptol, Geogr, 3, 2",
    "source": "DARMC"
  },