[{"id":"idai-2043531","name":"'Ain Ghazal","lat":31.9877,"lng":35.9763,"siteType":"archaeological-site","description":"","startYear":0,"endYear":0,"source":"iDAI.gazetteer","territoryYear":117,"declineYear":null},{"id":"idai-2277690","name":"‘Ezbet Kôm el-Dahab","lat":30.516,"lng":30.2985,"siteType":"populated-place","description":"","startYear":0,"endYear":0,"source":"iDAI.gazetteer","territoryYear":-27,"declineYear":null},{"id":"idai-2299782","name":"‘Uyun al-Hammam","lat":32.5,"lng":35.7,"siteType":"archaeological-site","description":"","startYear":0,"endYear":0,"source":"iDAI.gazetteer","territoryYear":117,"declineYear":null},{"id":"idai-2326723","name":"‘Uyūn Mūsá","lat":29.8667,"lng":32.65,"siteType":"archaeological-site","description":"","startYear":0,"endYear":0,"source":"iDAI.gazetteer","territoryYear":-27,"declineYear":null},{"id":"idai-2092952","name":"“Skulpturengruppe”","lat":30.3333,"lng":35.4333,"siteType":"archaeological-site","description":"","startYear":0,"endYear":0,"source":"iDAI.gazetteer","territoryYear":117,"declineYear":null},{"id":"idai-2089298","name":"“Villa an der Straße”","lat":41.2563,"lng":13.6059,"siteType":"archaeological-site","description":"","startYear":0,"endYear":0,"source":"iDAI.gazetteer","territoryYear":-338,"declineYear":null},{"id":"idai-2075345","name":"A Coruña (Ciudad)","lat":43.3714,"lng":-8.396,"siteType":"archaeological-site","description":"","startYear":0,"endYear":0,"source":"iDAI.gazetteer","territoryYear":-133,"declineYear":476},{"id":"idai-2775406","name":"Ä95/6","lat":24.9,"lng":29.4,"siteType":"archaeological-site","description":"","startYear":0,"endYear":0,"source":"iDAI.gazetteer","territoryYear":-27,"declineYear":null},{"id":"idai-2775222","name":"Ä96/1","lat":25.4,"lng":27.1,"siteType":"archaeological-site","description":"","startYear":0,"endYear":0,"source":"iDAI.gazetteer","territoryYear":null,"declineYear":null},{"id":"idai-2775404","name":"Ä96/5","lat":24.8,"lng":29.4,"siteType":"archaeological-site","description":"","startYear":0,"endYear":0,"source":"iDAI.gazetteer","territoryYear":-27,"declineYear":null},{"id":"idai-2064025","name":"Aalborg","lat":57.0374,"lng":9.8858,"siteType":"populated-place","description":"","startYear":0,"endYear":0,"source":"iDAI.gazetteer","territoryYear":null,"declineYear":null},{"id":"idai-2104179","name":"Abai","lat":38.636,"lng":22.895,"siteType":"archaeological-site","description":"","startYear":0,"endYear":0,"source":"iDAI.gazetteer","territoryYear":-133,"declineYear":null},{"id":"idai-2042798","name":"Abdallah Nirqi","lat":22.4,"lng":31.7,"siteType":"archaeological-site","description":"","startYear":0,"endYear":0,"source":"iDAI.gazetteer","territoryYear":null,"declineYear":null},{"id":"idai-2070089","name":"Abdera","lat":40.95,"lng":24.9833,"siteType":"archaeological-site","description":"","startYear":0,"endYear":0,"source":"iDAI.gazetteer","territoryYear":47,"declineYear":null},{"id":"idai-2299708","name":"Abdul Hosein, Tepe","lat":33.8296,"lng":48.2577,"siteType":"archaeological-site","description":"","startYear":0,"endYear":0,"source":"iDAI.gazetteer","territoryYear":null,"declineYear":null},{"id":"idai-2338586","name":"Abellinum","lat":40.9,"lng":14.8,"siteType":"archaeological-site","description":"","startYear":0,"endYear":0,"source":"iDAI.gazetteer","territoryYear":-298,"declineYear":null},{"id":"idai-2047397","name":"Abensberg- Arnhofen","lat":48.8367,"lng":11.8777,"siteType":"populated-place","description":"","startYear":0,"endYear":0,"source":"iDAI.gazetteer","territoryYear":-1,"declineYear":400},{"id":"idai-2412478","name":"Abīdūs","lat":26.1845,"lng":31.9219,"siteType":"archaeological-site","description":"","startYear":0,"endYear":0,"source":"iDAI.gazetteer","territoryYear":-27,"declineYear":null},{"id":"idai-2299253","name":"Abschnitt A","lat":37.7,"lng":24.3,"siteType":"archaeological-site","description":"","startYear":0,"endYear":0,"source":"iDAI.gazetteer","territoryYear":null,"declineYear":null},{"id":"idai-2299254","name":"Abschnitt G","lat":37.7,"lng":24.3,"siteType":"archaeological-site","description":"","startYear":0,"endYear":0,"source":"iDAI.gazetteer","territoryYear":null,"declineYear":null},{"id":"idai-2299255","name":"Abschnitt J","lat":37.7,"lng":24.3,"siteType":"archaeological-site","description":"","startYear":0,"endYear":0,"source":"iDAI.gazetteer","territoryYear":null,"declineYear":null},{"id":"idai-2299256","name":"Abschnitt L","lat":37.7,"lng":24.3,"siteType":"archaeological-site","description":"","startYear":0,"endYear":0,"source":"iDAI.gazetteer","territoryYear":null,"declineYear":null},{"id":"idai-2299723","name":"Abu Gosh","lat":31.8059,"lng":35.1093,"siteType":"archaeological-site","description":"","startYear":0,"endYear":0,"source":"iDAI.gazetteer","territoryYear":-1,"declineYear":null},{"id":"idai-2043081","name":"Abu Hurayra","lat":35.8661,"lng":38.3999,"siteType":"archaeological-site","description":"","startYear":0,"endYear":0,"source":"iDAI.gazetteer","territoryYear":117,"declineYear":400},{"id":"idai-2299689","name":"Abu Hureyra, Tell","lat":35.873,"lng":38.5763,"siteType":"archaeological-site","description":"","startYear":0,"endYear":0,"source":"iDAI.gazetteer","territoryYear":117,"declineYear":400},{"id":"idai-2299734","name":"Abu Madi I","lat":28.5558,"lng":33.9761,"siteType":"landform","description":"","startYear":0,"endYear":0,"source":"iDAI.gazetteer","territoryYear":-27,"declineYear":null},{"id":"idai-2299796","name":"Abu Masiyad al-Gharbi","lat":32.1,"lng":37.4,"siteType":"archaeological-site","description":"","startYear":0,"endYear":0,"source":"iDAI.gazetteer","territoryYear":200,"declineYear":null},{"id":"idai-2299797","name":"Abu Masiyad al-Sharqi","lat":32,"lng":37.4,"siteType":"archaeological-site","description":"","startYear":0,"endYear":0,"source":"iDAI.gazetteer","territoryYear":200,"declineYear":null},{"id":"idai-2282610","name":"Abū Mīnā","lat":30.8485,"lng":29.6719,"siteType":"archaeological-site","description":"","startYear":0,"endYear":0,"source":"iDAI.gazetteer","territoryYear":-27,"declineYear":null},{"id":"idai-2103652","name":"Abū Qīr","lat":31.312,"lng":30.059,"siteType":"archaeological-site","description":"","startYear":0,"endYear":0,"source":"iDAI.gazetteer","territoryYear":-27,"declineYear":null},{"id":"idai-2299727","name":"Abu Salem (G 12)","lat":31.2092,"lng":34.2889,"siteType":"archaeological-site","description":"","startYear":0,"endYear":0,"source":"iDAI.gazetteer","territoryYear":117,"declineYear":null},{"id":"idai-2042801","name":"Abū Sinbal","lat":22.3373,"lng":31.6262,"siteType":"archaeological-site","description":"","startYear":0,"endYear":0,"source":"iDAI.gazetteer","territoryYear":null,"declineYear":null},{"id":"idai-2299754","name":"Abu Tulayha, Wadi","lat":30.5,"lng":36,"siteType":"archaeological-site","description":"","startYear":0,"endYear":0,"source":"iDAI.gazetteer","territoryYear":117,"declineYear":null},{"id":"idai-2074114","name":"Abul, Alcácer do Sal","lat":38.4283,"lng":-8.6817,"siteType":"archaeological-site","description":"","startYear":0,"endYear":0,"source":"iDAI.gazetteer","territoryYear":-27,"declineYear":476},{"id":"idai-2047393","name":"Abusina","lat":48.8501,"lng":11.7712,"siteType":"archaeological-site","description":"","startYear":0,"endYear":0,"source":"iDAI.gazetteer","territoryYear":-1,"declineYear":400},{"id":"idai-2042802","name":"Abusir","lat":29.8968,"lng":31.2021,"siteType":"archaeological-site","description":"","startYear":0,"endYear":0,"source":"iDAI.gazetteer","territoryYear":-27,"declineYear":null},{"id":"idai-2073051","name":"Accesa","lat":42.9667,"lng":10.9,"siteType":"archaeological-site","description":"","startYear":0,"endYear":0,"source":"iDAI.gazetteer","territoryYear":-264,"declineYear":null},{"id":"idai-2043768","name":"Acemhöyük","lat":37.5,"lng":29.8,"siteType":"archaeological-site","description":"","startYear":0,"endYear":0,"source":"iDAI.gazetteer","territoryYear":47,"declineYear":null},{"id":"idai-2290452","name":"Acharnes","lat":38.0833,"lng":23.7333,"siteType":"archaeological-site","description":"","startYear":0,"endYear":0,"source":"iDAI.gazetteer","territoryYear":-133,"declineYear":null},{"id":"idai-2068718","name":"Achilleion","lat":45.4417,"lng":36.7859,"siteType":"archaeological-site","description":"","startYear":0,"endYear":0,"source":"iDAI.gazetteer","territoryYear":null,"declineYear":null},{"id":"idai-2042740","name":"Acholla","lat":35.0819,"lng":11.0191,"siteType":"archaeological-site","description":"","startYear":0,"endYear":0,"source":"iDAI.gazetteer","territoryYear":-133,"declineYear":476},{"id":"idai-2176814","name":"Aci Catena","lat":37.605,"lng":15.1414,"siteType":"populated-place","description":"","startYear":0,"endYear":0,"source":"iDAI.gazetteer","territoryYear":-218,"declineYear":null},{"id":"idai-2101545","name":"Acilia","lat":41.7634,"lng":12.3308,"siteType":"populated-place","description":"","startYear":0,"endYear":0,"source":"iDAI.gazetteer","territoryYear":-500,"declineYear":null},{"id":"idai-2072823","name":"Acquarossa","lat":42.4743,"lng":12.1338,"siteType":"archaeological-site","description":"","startYear":0,"endYear":0,"source":"iDAI.gazetteer","territoryYear":-264,"declineYear":null},{"id":"idai-2108853","name":"Acquatraversa","lat":41.9568,"lng":12.4548,"siteType":"archaeological-site","description":"","startYear":0,"endYear":0,"source":"iDAI.gazetteer","territoryYear":-500,"declineYear":null},{"id":"idai-2088578","name":"Acropoli di Cuma","lat":40.8495,"lng":14.0517,"siteType":"archaeological-site","description":"","startYear":0,"endYear":0,"source":"iDAI.gazetteer","territoryYear":-338,"declineYear":null},{"id":"idai-2070092","name":"Actium","lat":38.95,"lng":20.7667,"siteType":"archaeological-site","description":"","startYear":0,"endYear":0,"source":"iDAI.gazetteer","territoryYear":null,"declineYear":null},{"id":"idai-2753613","name":"Acueducto romano de Riba-Roja","lat":39.5,"lng":-0.6,"siteType":"archaeological-site","description":"","startYear":0,"endYear":0,"source":"iDAI.gazetteer","territoryYear":-133,"declineYear":476},{"id":"idai-2067419","name":"Ad Mediam","lat":44.8786,"lng":22.4144,"siteType":"archaeological-site","description":"","startYear":0,"endYear":0,"source":"iDAI.gazetteer","territoryYear":117,"declineYear":300},{"id":"idai-2752359","name":"ad-Dana (al-Gharbiyya)","lat":35.6997,"lng":36.6874,"siteType":"archaeological-site","description":"","startYear":0,"endYear":0,"source":"iDAI.gazetteer","territoryYear":-60,"declineYear":null},{"id":"idai-2281621","name":"ad-Dana (ash-Shamaliyya)","lat":36.2144,"lng":36.7701,"siteType":"archaeological-site","description":"","startYear":0,"endYear":0,"source":"iDAI.gazetteer","territoryYear":-60,"declineYear":null},{"id":"idai-2338573","name":"ad-Dayr","lat":30.3,"lng":35.4,"siteType":"archaeological-site","description":"","startYear":0,"endYear":0,"source":"iDAI.gazetteer","territoryYear":117,"declineYear":null},{"id":"idai-2110510","name":"ad-dayr al-baḥrī","lat":25.7378,"lng":32.6077,"siteType":"archaeological-site","description":"","startYear":0,"endYear":0,"source":"iDAI.gazetteer","territoryYear":-27,"declineYear":null},{"id":"idai-2280262","name":"Adada","lat":37.5733,"lng":30.9822,"siteType":"archaeological-site","description":"","startYear":0,"endYear":0,"source":"iDAI.gazetteer","territoryYear":47,"declineYear":null},{"id":"idai-2284821","name":"Adamkayalar (bei Kizkalesi)","lat":36.5,"lng":34.1,"siteType":"archaeological-site","description":"","startYear":0,"endYear":0,"source":"iDAI.gazetteer","territoryYear":-60,"declineYear":null},{"id":"idai-2122269","name":"Addendan","lat":24.3947,"lng":32.9749,"siteType":"populated-place","description":"","startYear":0,"endYear":0,"source":"iDAI.gazetteer","territoryYear":-27,"declineYear":null},{"id":"idai-2733480","name":"Adjabshir","lat":37.4776,"lng":45.8943,"siteType":"populated-place","description":"","startYear":0,"endYear":0,"source":"iDAI.gazetteer","territoryYear":null,"declineYear":null},{"id":"idai-2061699","name":"Adony","lat":47.1192,"lng":18.8632,"siteType":"archaeological-site","description":"","startYear":0,"endYear":0,"source":"iDAI.gazetteer","territoryYear":14,"declineYear":476},{"id":"idai-1006832","name":"Adrar'N Kiffi N1N3","lat":20.3,"lng":9,"siteType":"archaeological-site","description":"","startYear":0,"endYear":0,"source":"iDAI.gazetteer","territoryYear":null,"declineYear":null},{"id":"idai-1006833","name":"Adrar'N Kiffi S1","lat":20.3,"lng":9,"siteType":"archaeological-site","description":"","startYear":0,"endYear":0,"source":"iDAI.gazetteer","territoryYear":null,"declineYear":null},{"id":"idai-2324504","name":"Adro Vello","lat":42.5,"lng":-8.9,"siteType":"archaeological-site","description":"","startYear":0,"endYear":0,"source":"iDAI.gazetteer","territoryYear":null,"declineYear":null},{"id":"idai-2074223","name":"Aeminium","lat":40.2089,"lng":-8.4257,"siteType":"archaeological-site","description":"","startYear":0,"endYear":0,"source":"iDAI.gazetteer","territoryYear":-60,"declineYear":476},{"id":"idai-2053434","name":"Aenona","lat":44.2,"lng":15.2,"siteType":"archaeological-site","description":"","startYear":0,"endYear":0,"source":"iDAI.gazetteer","territoryYear":-133,"declineYear":null},{"id":"idai-2043086","name":"Afamiya","lat":35.4203,"lng":36.4012,"siteType":"archaeological-site","description":"","startYear":0,"endYear":0,"source":"iDAI.gazetteer","territoryYear":-60,"declineYear":null},{"id":"idai-2280229","name":"Ağartı","lat":38.7,"lng":43.2,"siteType":"archaeological-site","description":"","startYear":0,"endYear":0,"source":"iDAI.gazetteer","territoryYear":117,"declineYear":400},{"id":"idai-2077754","name":"Agen","lat":44.2,"lng":0.6333,"siteType":"populated-place","description":"","startYear":0,"endYear":0,"source":"iDAI.gazetteer","territoryYear":-27,"declineYear":476},{"id":"idai-2331878","name":"Aghura","lat":34.5505,"lng":38.2672,"siteType":"archaeological-site","description":"","startYear":0,"endYear":0,"source":"iDAI.gazetteer","territoryYear":117,"declineYear":400},{"id":"idai-2296380","name":"Agia Aikaterini Platz","lat":35.5,"lng":24,"siteType":"archaeological-site","description":"","startYear":0,"endYear":0,"source":"iDAI.gazetteer","territoryYear":-60,"declineYear":null},{"id":"idai-2361267","name":"Agia Eleni","lat":36.7,"lng":24.3,"siteType":"archaeological-site","description":"","startYear":0,"endYear":0,"source":"iDAI.gazetteer","territoryYear":-133,"declineYear":null},{"id":"idai-2290550","name":"Agia Irini","lat":37.7,"lng":24.3,"siteType":"archaeological-site","description":"","startYear":0,"endYear":0,"source":"iDAI.gazetteer","territoryYear":null,"declineYear":null},{"id":"idai-1009002","name":"Agia Marina","lat":38.6,"lng":22.7,"siteType":"archaeological-site","description":"","startYear":0,"endYear":0,"source":"iDAI.gazetteer","territoryYear":-133,"declineYear":null},{"id":"idai-2099591","name":"Agia Marina","lat":38.5,"lng":23.2,"siteType":"archaeological-site","description":"","startYear":0,"endYear":0,"source":"iDAI.gazetteer","territoryYear":-133,"declineYear":null},{"id":"idai-2296343","name":"Agia Triada","lat":35.1,"lng":24.8,"siteType":"archaeological-site","description":"","startYear":0,"endYear":0,"source":"iDAI.gazetteer","territoryYear":-60,"declineYear":null},{"id":"idai-2103740","name":"Agios Christoforos","lat":38.7006,"lng":20.6892,"siteType":"populated-place","description":"","startYear":0,"endYear":0,"source":"iDAI.gazetteer","territoryYear":-133,"declineYear":null},{"id":"idai-2308232","name":"Agios Georgios","lat":40.6333,"lng":22.9529,"siteType":"archaeological-site","description":"","startYear":0,"endYear":0,"source":"iDAI.gazetteer","territoryYear":-133,"declineYear":null},{"id":"idai-2104424","name":"Agios Ioannis Rodakis","lat":38.8,"lng":20.7,"siteType":"archaeological-site","description":"","startYear":0,"endYear":0,"source":"iDAI.gazetteer","territoryYear":-133,"declineYear":null},{"id":"idai-2127852","name":"Agios Konstantinos","lat":37.6,"lng":23.4,"siteType":"archaeological-site","description":"","startYear":0,"endYear":0,"source":"iDAI.gazetteer","territoryYear":null,"declineYear":null},{"id":"idai-2070099","name":"Agios Mamas","lat":36.7,"lng":27,"siteType":"archaeological-site","description":"","startYear":0,"endYear":0,"source":"iDAI.gazetteer","territoryYear":null,"declineYear":null},{"id":"idai-2110732","name":"Agios Stratigos","lat":39.1321,"lng":27.184,"siteType":"archaeological-site","description":"","startYear":0,"endYear":0,"source":"iDAI.gazetteer","territoryYear":-133,"declineYear":null},{"id":"idai-2106290","name":"Agios Sullas","lat":36.3,"lng":28,"siteType":"archaeological-site","description":"","startYear":0,"endYear":0,"source":"iDAI.gazetteer","territoryYear":-133,"declineYear":null},{"id":"idai-2100935","name":"Agios Vasileios","lat":38.8761,"lng":21.5534,"siteType":"populated-place","description":"","startYear":0,"endYear":0,"source":"iDAI.gazetteer","territoryYear":-133,"declineYear":null},{"id":"idai-2090510","name":"Agora","lat":32.8267,"lng":21.8634,"siteType":"archaeological-site","description":"","startYear":0,"endYear":0,"source":"iDAI.gazetteer","territoryYear":-60,"declineYear":null},{"id":"idai-2106398","name":"Agora","lat":36.3639,"lng":25.4783,"siteType":"archaeological-site","description":"","startYear":0,"endYear":0,"source":"iDAI.gazetteer","territoryYear":null,"declineYear":null},{"id":"idai-2127832","name":"Agora","lat":40.7979,"lng":22.4139,"siteType":"archaeological-site","description":"","startYear":0,"endYear":0,"source":"iDAI.gazetteer","territoryYear":-133,"declineYear":null},{"id":"idai-2299051","name":"Agora","lat":37.9052,"lng":22.8799,"siteType":"archaeological-site","description":"","startYear":0,"endYear":0,"source":"iDAI.gazetteer","territoryYear":-133,"declineYear":null},{"id":"idai-2331831","name":"Agora","lat":32.3,"lng":35.9,"siteType":"archaeological-site","description":"","startYear":0,"endYear":0,"source":"iDAI.gazetteer","territoryYear":117,"declineYear":null},{"id":"idai-2123015","name":"Agora der Delier","lat":37.4,"lng":25.3,"siteType":"archaeological-site","description":"","startYear":0,"endYear":0,"source":"iDAI.gazetteer","territoryYear":null,"declineYear":null},{"id":"idai-2121500","name":"Agora der Italiker","lat":37.4,"lng":25.3,"siteType":"archaeological-site","description":"","startYear":0,"endYear":0,"source":"iDAI.gazetteer","territoryYear":null,"declineYear":null},{"id":"idai-2181105","name":"Agora von Athen","lat":37.9745,"lng":23.7232,"siteType":"archaeological-site","description":"","startYear":0,"endYear":0,"source":"iDAI.gazetteer","territoryYear":-133,"declineYear":null},{"id":"idai-2105125","name":"Agora-Altar A","lat":32.8267,"lng":21.8634,"siteType":"archaeological-site","description":"","startYear":0,"endYear":0,"source":"iDAI.gazetteer","territoryYear":-60,"declineYear":null},{"id":"idai-2361308","name":"Agoranomeion","lat":38,"lng":23.7,"siteType":"archaeological-site","description":"","startYear":0,"endYear":0,"source":"iDAI.gazetteer","territoryYear":-133,"declineYear":null},{"id":"idai-2178775","name":"Agrigento","lat":37.3118,"lng":13.5786,"siteType":"populated-place","description":"","startYear":0,"endYear":0,"source":"iDAI.gazetteer","territoryYear":-218,"declineYear":null},{"id":"idai-2074741","name":"Aguilar de la Frontera","lat":37.5151,"lng":-4.6564,"siteType":"populated-place","description":"","startYear":0,"endYear":0,"source":"iDAI.gazetteer","territoryYear":-133,"declineYear":476},{"id":"idai-2042805","name":"Aḫmīm","lat":26.5622,"lng":31.745,"siteType":"archaeological-site","description":"","startYear":0,"endYear":0,"source":"iDAI.gazetteer","territoryYear":-27,"declineYear":null},{"id":"idai-2778820","name":"Ahvaz","lat":31.3,"lng":48.7,"siteType":"archaeological-site","description":"","startYear":0,"endYear":0,"source":"iDAI.gazetteer","territoryYear":null,"declineYear":null},{"id":"idai-2361312","name":"Aiane","lat":40.2,"lng":21.8,"siteType":"archaeological-site","description":"","startYear":0,"endYear":0,"source":"iDAI.gazetteer","territoryYear":-133,"declineYear":null},{"id":"idai-2299072","name":"Aiani","lat":40.1638,"lng":21.8195,"siteType":"archaeological-site","description":"","startYear":0,"endYear":0,"source":"iDAI.gazetteer","territoryYear":-133,"declineYear":null},{"id":"idai-2062813","name":"Aichegg, VB Voitsberg","lat":47.0739,"lng":15.1904,"siteType":"archaeological-site","description":"","startYear":0,"endYear":0,"source":"iDAI.gazetteer","territoryYear":-1,"declineYear":476},{"id":"idai-2127347","name":"Aidonia","lat":37.8414,"lng":22.5781,"siteType":"archaeological-site","description":"","startYear":0,"endYear":0,"source":"iDAI.gazetteer","territoryYear":-133,"declineYear":null},{"id":"idai-2102197","name":"Aigai","lat":38.8337,"lng":27.1935,"siteType":"archaeological-site","description":"","startYear":0,"endYear":0,"source":"iDAI.gazetteer","territoryYear":-133,"declineYear":null},{"id":"idai-2043772","name":"Aigeai","lat":36.7735,"lng":35.7617,"siteType":"archaeological-site","description":"","startYear":0,"endYear":0,"source":"iDAI.gazetteer","territoryYear":-60,"declineYear":null},{"id":"idai-2290549","name":"Aigeira","lat":38.1485,"lng":22.3543,"siteType":"archaeological-site","description":"","startYear":0,"endYear":0,"source":"iDAI.gazetteer","territoryYear":-133,"declineYear":null},{"id":"idai-2287162","name":"Aigiai","lat":36.8,"lng":22.5,"siteType":"archaeological-site","description":"","startYear":0,"endYear":0,"source":"iDAI.gazetteer","territoryYear":-133,"declineYear":null},{"id":"idai-2361320","name":"Aigion","lat":38.3,"lng":22.1,"siteType":"archaeological-site","description":"","startYear":0,"endYear":0,"source":"iDAI.gazetteer","territoryYear":null,"declineYear":null},{"id":"idai-2104103","name":"Aigosthena","lat":38.1,"lng":23.2,"siteType":"archaeological-site","description":"","startYear":0,"endYear":0,"source":"iDAI.gazetteer","territoryYear":-133,"declineYear":null},{"id":"idai-2075107","name":"Aiguacuit","lat":41.6,"lng":2,"siteType":"archaeological-site","description":"","startYear":0,"endYear":0,"source":"iDAI.gazetteer","territoryYear":-133,"declineYear":476},{"id":"idai-2299733","name":"Ain Abu Nekhelleh","lat":29.5,"lng":35.4,"siteType":"archaeological-site","description":"","startYear":0,"endYear":0,"source":"iDAI.gazetteer","territoryYear":117,"declineYear":null},{"id":"idai-2299717","name":"Ain Darat","lat":31.5,"lng":35.2,"siteType":"archaeological-site","description":"","startYear":0,"endYear":0,"source":"iDAI.gazetteer","territoryYear":-1,"declineYear":null},{"id":"idai-2123123","name":"Ain el Khima","lat":36.7964,"lng":10.0294,"siteType":"archaeological-site","description":"","startYear":0,"endYear":0,"source":"iDAI.gazetteer","territoryYear":-133,"declineYear":null},{"id":"idai-2120306","name":"Ain el Rahman (Henchir Sidi Khalifa)","lat":36.2492,"lng":10.3987,"siteType":"archaeological-site","description":"","startYear":0,"endYear":0,"source":"iDAI.gazetteer","territoryYear":-133,"declineYear":null},{"id":"idai-2299790","name":"Ain el-Kerkh, Tell","lat":35.8,"lng":36.5,"siteType":"archaeological-site","description":"","startYear":0,"endYear":0,"source":"iDAI.gazetteer","territoryYear":-60,"declineYear":null},{"id":"idai-2121950","name":"Ain Golea","lat":36.4698,"lng":9.332,"siteType":"archaeological-site","description":"","startYear":0,"endYear":0,"source":"iDAI.gazetteer","territoryYear":-133,"declineYear":null},{"id":"idai-2119714","name":"Aïn Hedja","lat":36.3933,"lng":9.2285,"siteType":"archaeological-site","description":"","startYear":0,"endYear":0,"source":"iDAI.gazetteer","territoryYear":-133,"declineYear":null},{"id":"idai-2299791","name":"Ain Jammam","lat":30,"lng":35.5,"siteType":"archaeological-site","description":"","startYear":0,"endYear":0,"source":"iDAI.gazetteer","territoryYear":117,"declineYear":null},{"id":"idai-2302302","name":"Ain Lebba","lat":36.4,"lng":9.5,"siteType":"archaeological-site","description":"","startYear":0,"endYear":0,"source":"iDAI.gazetteer","territoryYear":-133,"declineYear":null},{"id":"idai-2123502","name":"Aïn Maabed","lat":36.8732,"lng":9.2127,"siteType":"archaeological-site","description":"","startYear":0,"endYear":0,"source":"iDAI.gazetteer","territoryYear":-133,"declineYear":null},{"id":"idai-2120879","name":"Aïn Rchine","lat":36.1847,"lng":9.6748,"siteType":"archaeological-site","description":"","startYear":0,"endYear":0,"source":"iDAI.gazetteer","territoryYear":-133,"declineYear":null},{"id":"idai-2299757","name":"Ain Sakhri Cave","lat":31.6,"lng":35.3,"siteType":"archaeological-site","description":"","startYear":0,"endYear":0,"source":"iDAI.gazetteer","territoryYear":-1,"declineYear":null},{"id":"idai-2123520","name":"Ain Teki","lat":36.3449,"lng":9.1846,"siteType":"archaeological-site","description":"","startYear":0,"endYear":0,"source":"iDAI.gazetteer","territoryYear":-133,"declineYear":null},{"id":"idai-2109063","name":"Ain Zana","lat":35.7794,"lng":6.0753,"siteType":"archaeological-site","description":"","startYear":0,"endYear":0,"source":"iDAI.gazetteer","territoryYear":47,"declineYear":476},{"id":"idai-2123306","name":"Aine Medeker","lat":36.1958,"lng":10.2608,"siteType":"archaeological-site","description":"","startYear":0,"endYear":0,"source":"iDAI.gazetteer","territoryYear":-133,"declineYear":null},{"id":"idai-2123575","name":"Aine Zektoun","lat":36.2698,"lng":10.1396,"siteType":"archaeological-site","description":"","startYear":0,"endYear":0,"source":"iDAI.gazetteer","territoryYear":-133,"declineYear":null},{"id":"idai-2070102","name":"Aineia","lat":40.5,"lng":22.8,"siteType":"archaeological-site","description":"","startYear":0,"endYear":0,"source":"iDAI.gazetteer","territoryYear":null,"declineYear":null},{"id":"idai-2299808","name":"Ais Giorkis","lat":34.9,"lng":32.6,"siteType":"archaeological-site","description":"","startYear":0,"endYear":0,"source":"iDAI.gazetteer","territoryYear":-27,"declineYear":null},{"id":"idai-2109424","name":"Aislingen","lat":48.5056,"lng":10.4549,"siteType":"populated-place","description":"","startYear":0,"endYear":0,"source":"iDAI.gazetteer","territoryYear":-1,"declineYear":400},{"id":"idai-2122219","name":"Aithaia","lat":37.1,"lng":22.05,"siteType":"archaeological-site","description":"","startYear":0,"endYear":0,"source":"iDAI.gazetteer","territoryYear":-133,"declineYear":null},{"id":"idai-2287588","name":"Aizanoí","lat":39.2011,"lng":29.6102,"siteType":"archaeological-site","description":"","startYear":0,"endYear":0,"source":"iDAI.gazetteer","territoryYear":-133,"declineYear":null},{"id":"idai-2287105","name":"Akakesion","lat":37.4,"lng":22.1,"siteType":"archaeological-site","description":"","startYear":0,"endYear":0,"source":"iDAI.gazetteer","territoryYear":-133,"declineYear":null},{"id":"idai-2319600","name":"Akanthos","lat":40.4,"lng":23.9,"siteType":"archaeological-site","description":"","startYear":0,"endYear":0,"source":"iDAI.gazetteer","territoryYear":-133,"declineYear":null},{"id":"idai-2299807","name":"Akanthou","lat":35.4,"lng":33.8,"siteType":"archaeological-site","description":"","startYear":0,"endYear":0,"source":"iDAI.gazetteer","territoryYear":-27,"declineYear":null},{"id":"idai-2227654","name":"Akarçay","lat":36.9191,"lng":38.0257,"siteType":"archaeological-site","description":"","startYear":0,"endYear":0,"source":"iDAI.gazetteer","territoryYear":117,"declineYear":400},{"id":"idai-2284826","name":"Akarçaytepe","lat":40.4,"lng":37,"siteType":"archaeological-site","description":"","startYear":0,"endYear":0,"source":"iDAI.gazetteer","territoryYear":-27,"declineYear":null},{"id":"idai-2104490","name":"Akkale","lat":37.8,"lng":29.1,"siteType":"archaeological-site","description":"","startYear":0,"endYear":0,"source":"iDAI.gazetteer","territoryYear":-133,"declineYear":null},{"id":"idai-2283149","name":"Akkon","lat":32.9281,"lng":35.0765,"siteType":"archaeological-site","description":"","startYear":0,"endYear":0,"source":"iDAI.gazetteer","territoryYear":-60,"declineYear":null},{"id":"idai-2126679","name":"Akona 1","lat":37,"lng":21.8,"siteType":"archaeological-site","description":"","startYear":0,"endYear":0,"source":"iDAI.gazetteer","territoryYear":-133,"declineYear":null},{"id":"idai-2102799","name":"Akraiphia","lat":38.45,"lng":23.2167,"siteType":"archaeological-site","description":"","startYear":0,"endYear":0,"source":"iDAI.gazetteer","territoryYear":-133,"declineYear":null},{"id":"idai-2287165","name":"Akriai","lat":36.8,"lng":22.8,"siteType":"archaeological-site","description":"","startYear":0,"endYear":0,"source":"iDAI.gazetteer","territoryYear":-133,"declineYear":null},{"id":"idai-2072295","name":"Akrillai","lat":37.0305,"lng":14.703,"siteType":"archaeological-site","description":"","startYear":0,"endYear":0,"source":"iDAI.gazetteer","territoryYear":-218,"declineYear":null},{"id":"idai-2359525","name":"Akrokorinth","lat":37.8833,"lng":22.8667,"siteType":"archaeological-site","description":"","startYear":0,"endYear":0,"source":"iDAI.gazetteer","territoryYear":-133,"declineYear":null},{"id":"idai-2296341","name":"Akron Soúnion","lat":37.7,"lng":24,"siteType":"landform","description":"","startYear":0,"endYear":0,"source":"iDAI.gazetteer","territoryYear":-133,"declineYear":null},{"id":"idai-2299102","name":"Akropolis","lat":38,"lng":23.7,"siteType":"archaeological-site","description":"","startYear":0,"endYear":0,"source":"iDAI.gazetteer","territoryYear":-133,"declineYear":null},{"id":"idai-2298507","name":"Akropolis","lat":37.65,"lng":22.8414,"siteType":"archaeological-site","description":"","startYear":0,"endYear":0,"source":"iDAI.gazetteer","territoryYear":-133,"declineYear":null},{"id":"idai-2106592","name":"Akropolis","lat":37.083,"lng":22.4234,"siteType":"archaeological-site","description":"","startYear":0,"endYear":0,"source":"iDAI.gazetteer","territoryYear":-133,"declineYear":null},{"id":"idai-2121200","name":"Akropolis","lat":37.6,"lng":22.8,"siteType":"archaeological-site","description":"","startYear":0,"endYear":0,"source":"iDAI.gazetteer","territoryYear":-133,"declineYear":null},{"id":"idai-2124893","name":"Akropolis","lat":39.4,"lng":22.8,"siteType":"archaeological-site","description":"","startYear":0,"endYear":0,"source":"iDAI.gazetteer","territoryYear":-133,"declineYear":null},{"id":"idai-2124905","name":"Akropolis","lat":37.7305,"lng":22.7577,"siteType":"archaeological-site","description":"","startYear":0,"endYear":0,"source":"iDAI.gazetteer","territoryYear":-133,"declineYear":null},{"id":"idai-2126835","name":"Akropolis","lat":35.0739,"lng":25.6582,"siteType":"archaeological-site","description":"","startYear":0,"endYear":0,"source":"iDAI.gazetteer","territoryYear":-60,"declineYear":null},{"id":"idai-2127378","name":"Akropolis","lat":37.1122,"lng":25.2377,"siteType":"archaeological-site","description":"","startYear":0,"endYear":0,"source":"iDAI.gazetteer","territoryYear":-133,"declineYear":null},{"id":"idai-2362500","name":"Akropolis von Thasos","lat":40.8,"lng":24.7,"siteType":"archaeological-site","description":"","startYear":0,"endYear":0,"source":"iDAI.gazetteer","territoryYear":null,"declineYear":null},{"id":"idai-2290411","name":"Akrotiri","lat":36.3517,"lng":25.4034,"siteType":"archaeological-site","description":"","startYear":0,"endYear":0,"source":"iDAI.gazetteer","territoryYear":-133,"declineYear":200},{"id":"idai-2104795","name":"Akte","lat":37.9475,"lng":23.6371,"siteType":"populated-place","description":"","startYear":0,"endYear":0,"source":"iDAI.gazetteer","territoryYear":-133,"declineYear":null},{"id":"idai-2284829","name":"Akyaka","lat":37.0572,"lng":28.3263,"siteType":"archaeological-site","description":"","startYear":0,"endYear":0,"source":"iDAI.gazetteer","territoryYear":-133,"declineYear":null},{"id":"idai-2042896","name":"Al Bahnasa","lat":28.5356,"lng":30.6596,"siteType":"archaeological-site","description":"","startYear":0,"endYear":0,"source":"iDAI.gazetteer","territoryYear":-27,"declineYear":null},{"id":"idai-2120390","name":"Al Karib","lat":36.3359,"lng":9.1428,"siteType":"archaeological-site","description":"","startYear":0,"endYear":0,"source":"iDAI.gazetteer","territoryYear":-133,"declineYear":null},{"id":"idai-2042869","name":"Al Uqşur","lat":25.6989,"lng":32.6421,"siteType":"populated-place","description":"","startYear":0,"endYear":0,"source":"iDAI.gazetteer","territoryYear":-27,"declineYear":null},{"id":"idai-2296221","name":"al-Andarin","lat":35.5341,"lng":37.3628,"siteType":"archaeological-site","description":"","startYear":0,"endYear":0,"source":"iDAI.gazetteer","territoryYear":-60,"declineYear":null},{"id":"idai-2321565","name":"al-Bab al-Gharbi","lat":32.5212,"lng":36.476,"siteType":"archaeological-site","description":"","startYear":0,"endYear":0,"source":"iDAI.gazetteer","territoryYear":117,"declineYear":null},{"id":"idai-2331882","name":"ِal-Bab ash-Sharqi","lat":34.5499,"lng":38.2711,"siteType":"archaeological-site","description":"","startYear":0,"endYear":0,"source":"iDAI.gazetteer","territoryYear":117,"declineYear":400},{"id":"idai-2299290","name":"al-Bakhra","lat":34.3,"lng":38.1,"siteType":"archaeological-site","description":"","startYear":0,"endYear":0,"source":"iDAI.gazetteer","territoryYear":117,"declineYear":400},{"id":"idai-2281771","name":"al-Bara","lat":35.6886,"lng":36.5305,"siteType":"archaeological-site","description":"","startYear":0,"endYear":0,"source":"iDAI.gazetteer","territoryYear":-60,"declineYear":null},{"id":"idai-2299245","name":"al-Bimaristan an-Nuri","lat":36.1979,"lng":37.1548,"siteType":"archaeological-site","description":"","startYear":0,"endYear":0,"source":"iDAI.gazetteer","territoryYear":-60,"declineYear":null},{"id":"idai-2299362","name":"Al-Burj al-Janubi al-Mutaqaddim","lat":36.1982,"lng":37.1633,"siteType":"archaeological-site","description":"","startYear":0,"endYear":0,"source":"iDAI.gazetteer","territoryYear":-60,"declineYear":null},{"id":"idai-2118625","name":"al-Busayra","lat":35.1558,"lng":40.4256,"siteType":"archaeological-site","description":"","startYear":0,"endYear":0,"source":"iDAI.gazetteer","territoryYear":117,"declineYear":300},{"id":"idai-2292406","name":"al-Fudayn","lat":32.3,"lng":36.2,"siteType":"archaeological-site","description":"","startYear":0,"endYear":0,"source":"iDAI.gazetteer","territoryYear":117,"declineYear":null},{"id":"idai-2089516","name":"al-Ǧīza","lat":30.0081,"lng":31.2109,"siteType":"populated-place","description":"","startYear":0,"endYear":0,"source":"iDAI.gazetteer","territoryYear":-27,"declineYear":null},{"id":"idai-2299291","name":"al-Haditha","lat":31.5,"lng":37.1,"siteType":"archaeological-site","description":"","startYear":0,"endYear":0,"source":"iDAI.gazetteer","territoryYear":200,"declineYear":null},{"id":"idai-2337515","name":"al-hammam","lat":35.7,"lng":36.6,"siteType":"archaeological-site","description":"","startYear":0,"endYear":0,"source":"iDAI.gazetteer","territoryYear":-60,"declineYear":null},{"id":"idai-2367191","name":"al-Hammam ar-Rumani","lat":33.9,"lng":35.5,"siteType":"archaeological-site","description":"","startYear":0,"endYear":0,"source":"iDAI.gazetteer","territoryYear":-60,"declineYear":null},{"id":"idai-2042840","name":"al-Ḥība","lat":28.8167,"lng":30.9167,"siteType":"populated-place","description":"","startYear":0,"endYear":0,"source":"iDAI.gazetteer","territoryYear":-27,"declineYear":null},{"id":"idai-2299292","name":"al-Humayma","lat":30,"lng":35.3,"siteType":"archaeological-site","description":"","startYear":0,"endYear":0,"source":"iDAI.gazetteer","territoryYear":117,"declineYear":null},{"id":"idai-2321563","name":"al-Jami‘ al-ʿUmari","lat":32.5,"lng":36.5,"siteType":"archaeological-site","description":"","startYear":0,"endYear":0,"source":"iDAI.gazetteer","territoryYear":117,"declineYear":null},{"id":"idai-2281818","name":"al-Jamiʿ al-Kabir","lat":35.1345,"lng":36.7453,"siteType":"archaeological-site","description":"","startYear":0,"endYear":0,"source":"iDAI.gazetteer","territoryYear":-60,"declineYear":null},{"id":"idai-2281778","name":"al-Jamiʿ al-ʿAtiq","lat":35.952,"lng":39.021,"siteType":"archaeological-site","description":"","startYear":0,"endYear":0,"source":"iDAI.gazetteer","territoryYear":117,"declineYear":400},{"id":"idai-2088811","name":"al-Kāb","lat":25.1197,"lng":32.7982,"siteType":"archaeological-site","description":"","startYear":0,"endYear":0,"source":"iDAI.gazetteer","territoryYear":-27,"declineYear":null},{"id":"idai-2337529","name":"al-kanisa","lat":35.7,"lng":36.6,"siteType":"archaeological-site","description":"","startYear":0,"endYear":0,"source":"iDAI.gazetteer","territoryYear":-60,"declineYear":null},{"id":"idai-2331808","name":"al-Kanisa ash-Shamaliyya","lat":36.3292,"lng":36.8381,"siteType":"archaeological-site","description":"","startYear":0,"endYear":0,"source":"iDAI.gazetteer","territoryYear":-60,"declineYear":null},{"id":"idai-2043109","name":"al-Kawm","lat":35.1922,"lng":38.8575,"siteType":"archaeological-area","description":"","startYear":0,"endYear":0,"source":"iDAI.gazetteer","territoryYear":117,"declineYear":400},{"id":"idai-2042789","name":"al-Lāhūn","lat":29.2107,"lng":30.9789,"siteType":"archaeological-site","description":"","startYear":0,"endYear":0,"source":"iDAI.gazetteer","territoryYear":-27,"declineYear":null},{"id":"idai-1000301","name":"al-Mabiyat","lat":26.5035,"lng":38.0532,"siteType":"archaeological-site","description":"","startYear":0,"endYear":0,"source":"iDAI.gazetteer","territoryYear":-27,"declineYear":200},{"id":"idai-2408703","name":"al-Madafin al-Janubiyya al-Gharbiyya","lat":34.5424,"lng":38.2535,"siteType":"archaeological-site","description":"","startYear":0,"endYear":0,"source":"iDAI.gazetteer","territoryYear":117,"declineYear":400},{"id":"idai-2337530","name":"al-madfan","lat":35.7,"lng":36.6,"siteType":"archaeological-site","description":"","startYear":0,"endYear":0,"source":"iDAI.gazetteer","territoryYear":-60,"declineYear":null},{"id":"idai-2337521","name":"al-Madfan A","lat":35.7,"lng":36.5,"siteType":"archaeological-site","description":"","startYear":0,"endYear":0,"source":"iDAI.gazetteer","territoryYear":-60,"declineYear":null},{"id":"idai-2337526","name":"al-Madfan B","lat":35.7,"lng":36.5,"siteType":"archaeological-site","description":"","startYear":0,"endYear":0,"source":"iDAI.gazetteer","territoryYear":-60,"declineYear":null},{"id":"idai-2320099","name":"al-Madrasa al-Kamiliyya","lat":36.1888,"lng":37.1598,"siteType":"archaeological-site","description":"","startYear":0,"endYear":0,"source":"iDAI.gazetteer","territoryYear":-60,"declineYear":null},{"id":"idai-2309268","name":"al-Madrasa al-ʿUthmaniyya","lat":36.2032,"lng":37.1616,"siteType":"archaeological-site","description":"","startYear":0,"endYear":0,"source":"iDAI.gazetteer","territoryYear":-60,"declineYear":null},{"id":"idai-2320101","name":"al-Madrasa ash-Sharafiyya","lat":36.1999,"lng":37.1578,"siteType":"archaeological-site","description":"","startYear":0,"endYear":0,"source":"iDAI.gazetteer","territoryYear":-60,"declineYear":null},{"id":"idai-2320103","name":"al-Madrasa az-Zahiriyya","lat":36.1879,"lng":37.1578,"siteType":"archaeological-site","description":"","startYear":0,"endYear":0,"source":"iDAI.gazetteer","territoryYear":-60,"declineYear":null},{"id":"idai-2298630","name":"al-Maghara","lat":35.7343,"lng":36.5867,"siteType":"archaeological-site","description":"","startYear":0,"endYear":0,"source":"iDAI.gazetteer","territoryYear":-60,"declineYear":null},{"id":"idai-2321612","name":"al-Maqabir","lat":34.5539,"lng":38.2537,"siteType":"archaeological-site","description":"","startYear":0,"endYear":0,"source":"iDAI.gazetteer","territoryYear":117,"declineYear":400},{"id":"idai-2331827","name":"Al-Masrah al-Janubi","lat":32.3,"lng":35.9,"siteType":"archaeological-site","description":"","startYear":0,"endYear":0,"source":"iDAI.gazetteer","territoryYear":117,"declineYear":null},{"id":"idai-2299248","name":"al-Matbakh al-ʿAjami","lat":36.2002,"lng":37.1587,"siteType":"archaeological-site","description":"","startYear":0,"endYear":0,"source":"iDAI.gazetteer","territoryYear":-60,"declineYear":null},{"id":"idai-2296431","name":"al-Maydan","lat":36,"lng":39,"siteType":"archaeological-site","description":"","startYear":0,"endYear":0,"source":"iDAI.gazetteer","territoryYear":117,"declineYear":400},{"id":"idai-2281722","name":"al-Qalʿa","lat":32,"lng":35.9,"siteType":"archaeological-site","description":"","startYear":0,"endYear":0,"source":"iDAI.gazetteer","territoryYear":117,"declineYear":null},{"id":"idai-2338659","name":"al-Qism ash-Shamali li-l-Jamiʿ al-Ummawi","lat":33.5,"lng":36.3,"siteType":"archaeological-site","description":"","startYear":0,"endYear":0,"source":"iDAI.gazetteer","territoryYear":-60,"declineYear":null},{"id":"idai-2101716","name":"al-Qurna","lat":25.7253,"lng":32.6032,"siteType":"landform","description":"","startYear":0,"endYear":0,"source":"iDAI.gazetteer","territoryYear":-27,"declineYear":null},{"id":"idai-2281811","name":"Al-Shaykh Sʿad","lat":32.8,"lng":36,"siteType":"archaeological-site","description":"","startYear":0,"endYear":0,"source":"iDAI.gazetteer","territoryYear":117,"declineYear":null},{"id":"idai-2299293","name":"al-Sinnabra","lat":32.7,"lng":35.6,"siteType":"archaeological-site","description":"","startYear":0,"endYear":0,"source":"iDAI.gazetteer","territoryYear":-1,"declineYear":null},{"id":"idai-2107962","name":"Alabanda","lat":37.5919,"lng":27.9853,"siteType":"archaeological-site","description":"","startYear":0,"endYear":0,"source":"iDAI.gazetteer","territoryYear":-133,"declineYear":null},{"id":"idai-2287589","name":"Alaca Höyük","lat":40.2349,"lng":34.702,"siteType":"archaeological-site","description":"","startYear":0,"endYear":0,"source":"iDAI.gazetteer","territoryYear":-27,"declineYear":null},{"id":"idai-2287135","name":"Alalkomenai","lat":38.4,"lng":23,"siteType":"archaeological-site","description":"","startYear":0,"endYear":0,"source":"iDAI.gazetteer","territoryYear":-133,"declineYear":null},{"id":"idai-2044181","name":"Alambra","lat":34.9901,"lng":33.4012,"siteType":"archaeological-site","description":"","startYear":0,"endYear":0,"source":"iDAI.gazetteer","territoryYear":-27,"declineYear":null},{"id":"idai-2075279","name":"Alange (Municipio)","lat":38.7849,"lng":-6.2457,"siteType":"archaeological-site","description":"","startYear":0,"endYear":0,"source":"iDAI.gazetteer","territoryYear":-60,"declineYear":476},{"id":"idai-2071241","name":"Alba","lat":44.6999,"lng":8.0347,"siteType":"populated-place","description":"","startYear":0,"endYear":0,"source":"iDAI.gazetteer","territoryYear":-60,"declineYear":null},{"id":"idai-2295311","name":"Alba Fucens","lat":42.1,"lng":13.4,"siteType":"archaeological-site","description":"","startYear":0,"endYear":0,"source":"iDAI.gazetteer","territoryYear":-298,"declineYear":null},{"id":"idai-2086471","name":"Alba Iulia","lat":46.0667,"lng":23.5833,"siteType":"archaeological-site","description":"","startYear":0,"endYear":0,"source":"iDAI.gazetteer","territoryYear":117,"declineYear":300},{"id":"idai-2072663","name":"Alba Longa","lat":41.7,"lng":12.7,"siteType":"archaeological-site","description":"","startYear":0,"endYear":0,"source":"iDAI.gazetteer","territoryYear":-338,"declineYear":null},{"id":"idai-2073615","name":"Albanbühel, Brixen","lat":46.7,"lng":11.7,"siteType":"archaeological-site","description":"","startYear":0,"endYear":0,"source":"iDAI.gazetteer","territoryYear":-27,"declineYear":null},{"id":"idai-2359903","name":"Albano Laziale","lat":41.73,"lng":12.659,"siteType":"populated-place","description":"","startYear":0,"endYear":0,"source":"iDAI.gazetteer","territoryYear":-500,"declineYear":null},{"id":"idai-2073817","name":"Albi di Val Coperte","lat":46,"lng":11.6,"siteType":"archaeological-site","description":"","startYear":0,"endYear":0,"source":"iDAI.gazetteer","territoryYear":-60,"declineYear":null},{"id":"idai-2070816","name":"Albingaunum","lat":44.0458,"lng":8.2193,"siteType":"archaeological-site","description":"","startYear":0,"endYear":0,"source":"iDAI.gazetteer","territoryYear":-27,"declineYear":476},{"id":"idai-2070777","name":"Albintimilium","lat":43.7894,"lng":7.6252,"siteType":"archaeological-site","description":"","startYear":0,"endYear":0,"source":"iDAI.gazetteer","territoryYear":-27,"declineYear":476},{"id":"idai-2075496","name":"Albufereta, Alicante","lat":38.3752,"lng":-0.4573,"siteType":"archaeological-site","description":"","startYear":0,"endYear":0,"source":"iDAI.gazetteer","territoryYear":-133,"declineYear":476},{"id":"idai-2074856","name":"Alcaide, Antequera","lat":37.2,"lng":-4.5,"siteType":"archaeological-site","description":"","startYear":0,"endYear":0,"source":"iDAI.gazetteer","territoryYear":-133,"declineYear":476},{"id":"idai-2074887","name":"Alcalá del Río","lat":37.5178,"lng":-5.9818,"siteType":"populated-place","description":"","startYear":0,"endYear":0,"source":"iDAI.gazetteer","territoryYear":-133,"declineYear":476},{"id":"idai-2115837","name":"Alcalar , Mexilhoeira Grande","lat":37.1979,"lng":-8.589,"siteType":"archaeological-site","description":"","startYear":0,"endYear":0,"source":"iDAI.gazetteer","territoryYear":-60,"declineYear":476},{"id":"idai-2075303","name":"Alcántara (Municipio)","lat":39.719,"lng":-6.8838,"siteType":"archaeological-site","description":"","startYear":0,"endYear":0,"source":"iDAI.gazetteer","territoryYear":-60,"declineYear":476},{"id":"idai-1008233","name":"Alcazaba de Onda","lat":40,"lng":-0.3,"siteType":"archaeological-site","description":"","startYear":0,"endYear":0,"source":"iDAI.gazetteer","territoryYear":-133,"declineYear":476},{"id":"idai-2320141","name":"Alcazarseguir","lat":35.8444,"lng":-5.5623,"siteType":"archaeological-site","description":"","startYear":0,"endYear":0,"source":"iDAI.gazetteer","territoryYear":47,"declineYear":476},{"id":"idai-2063026","name":"Aldrans, VB Innsbruck-Land","lat":47.2512,"lng":11.446,"siteType":"archaeological-site","description":"","startYear":0,"endYear":0,"source":"iDAI.gazetteer","territoryYear":-1,"declineYear":476},{"id":"idai-2361331","name":"Alea","lat":37.8,"lng":22.5,"siteType":"archaeological-site","description":"","startYear":0,"endYear":0,"source":"iDAI.gazetteer","territoryYear":-133,"declineYear":null},{"id":"idai-2051631","name":"Alenkastell Burginatium","lat":51.7139,"lng":6.3189,"siteType":"archaeological-site","description":"","startYear":0,"endYear":0,"source":"iDAI.gazetteer","territoryYear":84,"declineYear":476},{"id":"idai-2070105","name":"Alepotrypa Spilaia","lat":36.6383,"lng":22.3806,"siteType":"landform","description":"","startYear":0,"endYear":0,"source":"iDAI.gazetteer","territoryYear":-133,"declineYear":null},{"id":"idai-2408715","name":"Alexandria","lat":31,"lng":29.75,"siteType":"archaeological-site","description":"","startYear":0,"endYear":0,"source":"iDAI.gazetteer","territoryYear":-27,"declineYear":null},{"id":"idai-2043783","name":"Alexandria Troas","lat":39.7518,"lng":26.1587,"siteType":"archaeological-site","description":"","startYear":0,"endYear":0,"source":"iDAI.gazetteer","territoryYear":-133,"declineYear":null},{"id":"idai-2052126","name":"Alfbachtal","lat":50.1403,"lng":6.8822,"siteType":"archaeological-site","description":"","startYear":0,"endYear":0,"source":"iDAI.gazetteer","territoryYear":-27,"declineYear":476},{"id":"idai-2110706","name":"Algeciras","lat":36.1333,"lng":-5.4505,"siteType":"populated-place","description":"","startYear":0,"endYear":0,"source":"iDAI.gazetteer","territoryYear":-133,"declineYear":476},{"id":"idai-2277260","name":"Algeciras (workshop)","lat":36.5,"lng":-6.3,"siteType":"archaeological-site","description":"","startYear":0,"endYear":0,"source":"iDAI.gazetteer","territoryYear":-133,"declineYear":476},{"id":"idai-2299111","name":"Aliartos","lat":38.3788,"lng":23.0867,"siteType":"archaeological-site","description":"","startYear":0,"endYear":0,"source":"iDAI.gazetteer","territoryYear":-133,"declineYear":null},{"id":"idai-2122750","name":"Alife","lat":41.3261,"lng":14.334,"siteType":"populated-place","description":"","startYear":0,"endYear":0,"source":"iDAI.gazetteer","territoryYear":-290,"declineYear":null},{"id":"idai-2361332","name":"Alipheira","lat":37.5,"lng":21.9,"siteType":"archaeological-site","description":"","startYear":0,"endYear":0,"source":"iDAI.gazetteer","territoryYear":-133,"declineYear":null},{"id":"idai-2102326","name":"Alipheira","lat":37.5287,"lng":21.8665,"siteType":"populated-place","description":"","startYear":0,"endYear":0,"source":"iDAI.gazetteer","territoryYear":-133,"declineYear":null},{"id":"idai-2284830","name":"Alişar Höyük","lat":39.6,"lng":35.2,"siteType":"archaeological-site","description":"","startYear":0,"endYear":0,"source":"iDAI.gazetteer","territoryYear":-27,"declineYear":null},{"id":"idai-2075305","name":"Aliseda","lat":39.4233,"lng":-6.6923,"siteType":"populated-place","description":"","startYear":0,"endYear":0,"source":"iDAI.gazetteer","territoryYear":-60,"declineYear":476},{"id":"idai-2786208","name":"Allerheiligen bei Wildon","lat":46.9142,"lng":15.5544,"siteType":"archaeological-site","description":"","startYear":0,"endYear":0,"source":"iDAI.gazetteer","territoryYear":-1,"declineYear":null},{"id":"idai-2045420","name":"Alleshausen- Hartöschle","lat":48.116,"lng":9.6402,"siteType":"archaeological-site","description":"","startYear":0,"endYear":0,"source":"iDAI.gazetteer","territoryYear":-1,"declineYear":400},{"id":"idai-2049038","name":"Almerskopf","lat":50.5306,"lng":8.2198,"siteType":"landform","description":"","startYear":0,"endYear":0,"source":"iDAI.gazetteer","territoryYear":null,"declineYear":null},{"id":"idai-2074767","name":"Almuñécar (Municipio)","lat":36.7339,"lng":-3.6907,"siteType":"archaeological-site","description":"","startYear":0,"endYear":0,"source":"iDAI.gazetteer","territoryYear":47,"declineYear":476},{"id":"idai-1008198","name":"Almunia Al-Rummaniyya","lat":37.9,"lng":-4.9,"siteType":"archaeological-site","description":"","startYear":0,"endYear":0,"source":"iDAI.gazetteer","territoryYear":-133,"declineYear":476},{"id":"idai-1008194","name":"Almunia de Turruñuelos","lat":37.9,"lng":-4.8,"siteType":"archaeological-site","description":"","startYear":0,"endYear":0,"source":"iDAI.gazetteer","territoryYear":-133,"declineYear":476},{"id":"idai-2299113","name":"Almyros","lat":39.1437,"lng":22.8128,"siteType":"archaeological-site","description":"","startYear":0,"endYear":0,"source":"iDAI.gazetteer","territoryYear":-133,"declineYear":null},{"id":"idai-2115936","name":"Alt-Schieder","lat":51.9156,"lng":9.1646,"siteType":"archaeological-site","description":"","startYear":0,"endYear":0,"source":"iDAI.gazetteer","territoryYear":null,"declineYear":null},{"id":"idai-2070400","name":"Alt-Thera","lat":36.4,"lng":25.5,"siteType":"archaeological-site","description":"","startYear":0,"endYear":0,"source":"iDAI.gazetteer","territoryYear":null,"declineYear":null},{"id":"idai-2071728","name":"Altamura","lat":40.8276,"lng":16.553,"siteType":"populated-place","description":"","startYear":0,"endYear":0,"source":"iDAI.gazetteer","territoryYear":-272,"declineYear":null},{"id":"idai-2111247","name":"Altarhaus VIII","lat":37.6385,"lng":21.63,"siteType":"archaeological-site","description":"","startYear":0,"endYear":0,"source":"iDAI.gazetteer","territoryYear":-133,"declineYear":null},{"id":"idai-2087076","name":"Altarhof","lat":34,"lng":36.2,"siteType":"archaeological-site","description":"","startYear":0,"endYear":0,"source":"iDAI.gazetteer","territoryYear":-60,"declineYear":null},{"id":"idai-2062816","name":"Altaussee, VB Liezen","lat":47.6384,"lng":13.7628,"siteType":"archaeological-site","description":"","startYear":0,"endYear":0,"source":"iDAI.gazetteer","territoryYear":-1,"declineYear":476},{"id":"idai-2113669","name":"Altbachtal","lat":49.7472,"lng":6.6419,"siteType":"landform","description":"","startYear":0,"endYear":0,"source":"iDAI.gazetteer","territoryYear":-27,"declineYear":476},{"id":"idai-2052285","name":"Altburg (Burg)","lat":49.8486,"lng":7.3924,"siteType":"archaeological-site","description":"","startYear":0,"endYear":0,"source":"iDAI.gazetteer","territoryYear":-27,"declineYear":476},{"id":"idai-2051864","name":"Altenberg","lat":51.0007,"lng":8.0185,"siteType":"archaeological-site","description":"","startYear":0,"endYear":0,"source":"iDAI.gazetteer","territoryYear":null,"declineYear":null},{"id":"idai-2049065","name":"Altenburg (Ringwall in Hessen)","lat":51.2465,"lng":9.2907,"siteType":"archaeological-site","description":"","startYear":0,"endYear":0,"source":"iDAI.gazetteer","territoryYear":null,"declineYear":null},{"id":"idai-2046044","name":"Altenburg (Spessart)","lat":49.9184,"lng":9.2183,"siteType":"archaeological-site","description":"","startYear":0,"endYear":0,"source":"iDAI.gazetteer","territoryYear":null,"declineYear":null},{"id":"idai-2768724","name":"Altes Dorf Hara Foqa","lat":32.7,"lng":35.7,"siteType":"archaeological-site","description":"","startYear":0,"endYear":0,"source":"iDAI.gazetteer","territoryYear":117,"declineYear":null},{"id":"idai-2109122","name":"altes Forum","lat":36.3207,"lng":5.7359,"siteType":"archaeological-site","description":"","startYear":0,"endYear":0,"source":"iDAI.gazetteer","territoryYear":47,"declineYear":476},{"id":"idai-2120260","name":"Althiburos","lat":35.8737,"lng":8.7866,"siteType":"archaeological-site","description":"","startYear":0,"endYear":0,"source":"iDAI.gazetteer","territoryYear":-27,"declineYear":476},{"id":"idai-2345205","name":"Altino","lat":45.546,"lng":12.396,"siteType":"archaeological-site","description":"","startYear":0,"endYear":0,"source":"iDAI.gazetteer","territoryYear":-218,"declineYear":null},{"id":"idai-2073926","name":"Altino-Fornasotti","lat":45.5462,"lng":12.3951,"siteType":"archaeological-site","description":"","startYear":0,"endYear":0,"source":"iDAI.gazetteer","territoryYear":-218,"declineYear":null},{"id":"idai-2256550","name":"Altıntepe","lat":39.6965,"lng":39.6466,"siteType":"archaeological-site","description":"","startYear":0,"endYear":0,"source":"iDAI.gazetteer","territoryYear":117,"declineYear":400},{"id":"idai-2052024","name":"Altrip","lat":49.4314,"lng":8.495,"siteType":"populated-place","description":"","startYear":0,"endYear":0,"source":"iDAI.gazetteer","territoryYear":84,"declineYear":476},{"id":"idai-2069328","name":"Aluston","lat":44.6721,"lng":34.4119,"siteType":"archaeological-site","description":"","startYear":0,"endYear":0,"source":"iDAI.gazetteer","territoryYear":null,"declineYear":null},{"id":"idai-2072008","name":"Alvo di Baunei","lat":40.0818,"lng":9.6475,"siteType":"archaeological-site","description":"","startYear":0,"endYear":0,"source":"iDAI.gazetteer","territoryYear":-218,"declineYear":null},{"id":"idai-2361333","name":"Alyke","lat":40.6,"lng":24.7,"siteType":"archaeological-site","description":"","startYear":0,"endYear":0,"source":"iDAI.gazetteer","territoryYear":47,"declineYear":null},{"id":"idai-2098643","name":"am Landhaus Zeri eingemauert","lat":42.0349,"lng":12.6424,"siteType":"archaeological-site","description":"","startYear":0,"endYear":0,"source":"iDAI.gazetteer","territoryYear":-338,"declineYear":null},{"id":"idai-2100675","name":"Amada","lat":22.7311,"lng":32.2626,"siteType":"populated-place","description":"","startYear":0,"endYear":0,"source":"iDAI.gazetteer","territoryYear":null,"declineYear":null},{"id":"idai-2758117","name":"Amantia","lat":40.4,"lng":19.7,"siteType":"archaeological-site","description":"","startYear":0,"endYear":0,"source":"iDAI.gazetteer","territoryYear":-218,"declineYear":null},{"id":"idai-2276837","name":"Amatus","lat":34.7129,"lng":33.1429,"siteType":"archaeological-site","description":"","startYear":0,"endYear":0,"source":"iDAI.gazetteer","territoryYear":-27,"declineYear":null},{"id":"idai-2078800","name":"Amboise","lat":47.3984,"lng":0.9495,"siteType":"archaeological-site","description":"","startYear":0,"endYear":0,"source":"iDAI.gazetteer","territoryYear":-27,"declineYear":476},{"id":"idai-2361339","name":"Ambracus","lat":39,"lng":21,"siteType":"archaeological-site","description":"","startYear":0,"endYear":0,"source":"iDAI.gazetteer","territoryYear":-133,"declineYear":null},{"id":"idai-2074519","name":"Ambrona, Miño de Medinaceli","lat":41.1604,"lng":-2.4981,"siteType":"archaeological-site","description":"","startYear":0,"endYear":0,"source":"iDAI.gazetteer","territoryYear":-133,"declineYear":476},{"id":"idai-2320125","name":"Amiternum","lat":42.4005,"lng":13.306,"siteType":"archaeological-site","description":"","startYear":0,"endYear":0,"source":"iDAI.gazetteer","territoryYear":-290,"declineYear":null},{"id":"idai-2179806","name":"Amnissos","lat":35.3309,"lng":25.2061,"siteType":"archaeological-site","description":"","startYear":0,"endYear":0,"source":"iDAI.gazetteer","territoryYear":-60,"declineYear":null},{"id":"idai-2138139","name":"Amöneburg- Klein Roßdorf (Wüstung)","lat":50.7795,"lng":8.9025,"siteType":"archaeological-site","description":"","startYear":0,"endYear":0,"source":"iDAI.gazetteer","territoryYear":null,"declineYear":null},{"id":"idai-2289372","name":"Amouda","lat":37.2,"lng":36.2,"siteType":"archaeological-site","description":"","startYear":0,"endYear":0,"source":"iDAI.gazetteer","territoryYear":-60,"declineYear":null},{"id":"idai-2063029","name":"Ampass, VB Innsbruck-Land","lat":47.2621,"lng":11.461,"siteType":"archaeological-site","description":"","startYear":0,"endYear":0,"source":"iDAI.gazetteer","territoryYear":-1,"declineYear":476},{"id":"idai-2361344","name":"Ampelos?","lat":35,"lng":26.2,"siteType":"archaeological-site","description":"","startYear":0,"endYear":0,"source":"iDAI.gazetteer","territoryYear":null,"declineYear":null},{"id":"idai-2293923","name":"Amphipolis","lat":40.8201,"lng":23.8474,"siteType":"archaeological-site","description":"","startYear":0,"endYear":0,"source":"iDAI.gazetteer","territoryYear":-133,"declineYear":null},{"id":"idai-2072756","name":"Amphiteatrum Flavium","lat":41.8902,"lng":12.4923,"siteType":"archaeological-site","description":"","startYear":0,"endYear":0,"source":"iDAI.gazetteer","territoryYear":-500,"declineYear":null},{"id":"idai-2361353","name":"Amphitheater","lat":37.9,"lng":22.9,"siteType":"archaeological-site","description":"","startYear":0,"endYear":0,"source":"iDAI.gazetteer","territoryYear":-133,"declineYear":null},{"id":"idai-2361724","name":"Amphitheater","lat":35.1,"lng":25,"siteType":"archaeological-site","description":"","startYear":0,"endYear":0,"source":"iDAI.gazetteer","territoryYear":-60,"declineYear":null},{"id":"idai-2090709","name":"Amphitheater","lat":40.3514,"lng":18.1705,"siteType":"archaeological-site","description":"","startYear":0,"endYear":0,"source":"iDAI.gazetteer","territoryYear":-272,"declineYear":null},{"id":"idai-2093135","name":"Amphitheater","lat":44.8732,"lng":13.8501,"siteType":"archaeological-site","description":"","startYear":0,"endYear":0,"source":"iDAI.gazetteer","territoryYear":-133,"declineYear":null},{"id":"idai-2120272","name":"Amphitheater","lat":35.401,"lng":8.1239,"siteType":"archaeological-site","description":"","startYear":0,"endYear":0,"source":"iDAI.gazetteer","territoryYear":-27,"declineYear":476},{"id":"idai-2120288","name":"Amphitheater","lat":35.6191,"lng":11.0424,"siteType":"archaeological-site","description":"","startYear":0,"endYear":0,"source":"iDAI.gazetteer","territoryYear":-133,"declineYear":476},{"id":"idai-2120295","name":"Amphitheater","lat":34.6555,"lng":10.6731,"siteType":"archaeological-site","description":"","startYear":0,"endYear":0,"source":"iDAI.gazetteer","territoryYear":-133,"declineYear":476},{"id":"idai-2120330","name":"Amphitheater","lat":35.2964,"lng":10.7069,"siteType":"archaeological-site","description":"","startYear":0,"endYear":0,"source":"iDAI.gazetteer","territoryYear":-133,"declineYear":476},{"id":"idai-2120359","name":"Amphitheater","lat":36.5976,"lng":9.8608,"siteType":"archaeological-site","description":"","startYear":0,"endYear":0,"source":"iDAI.gazetteer","territoryYear":-133,"declineYear":null},{"id":"idai-2120386","name":"Amphitheater","lat":35.6781,"lng":10.8663,"siteType":"archaeological-site","description":"","startYear":0,"endYear":0,"source":"iDAI.gazetteer","territoryYear":-133,"declineYear":476},{"id":"idai-2108139","name":"Amyklaion Heiligtum","lat":37.0364,"lng":22.4504,"siteType":"archaeological-site","description":"","startYear":0,"endYear":0,"source":"iDAI.gazetteer","territoryYear":-133,"declineYear":null},{"id":"idai-2108143","name":"Amyklaion Heiligtum-Terrassierungsmauer","lat":37.0365,"lng":22.4507,"siteType":"archaeological-site","description":"","startYear":0,"endYear":0,"source":"iDAI.gazetteer","territoryYear":-133,"declineYear":null},{"id":"idai-2106612","name":"Amyklaion Hügel","lat":37.0364,"lng":22.4504,"siteType":"landform","description":"","startYear":0,"endYear":0,"source":"iDAI.gazetteer","territoryYear":-133,"declineYear":null},{"id":"idai-2299341","name":"an-Nabi Ham","lat":33.9,"lng":36.2,"siteType":"archaeological-site","description":"","startYear":0,"endYear":0,"source":"iDAI.gazetteer","territoryYear":-60,"declineYear":null},{"id":"idai-2761705","name":"an-Nawaʿir al-Kilaniyya","lat":35.135,"lng":36.7529,"siteType":"archaeological-site","description":"","startYear":0,"endYear":0,"source":"iDAI.gazetteer","territoryYear":-60,"declineYear":null},{"id":"idai-2086597","name":"Anagni","lat":41.7435,"lng":13.1554,"siteType":"populated-place","description":"","startYear":0,"endYear":0,"source":"iDAI.gazetteer","territoryYear":-338,"declineYear":null},{"id":"idai-2345149","name":"Ancona","lat":43.6171,"lng":13.5179,"siteType":"populated-place","description":"","startYear":0,"endYear":0,"source":"iDAI.gazetteer","territoryYear":-264,"declineYear":-133},{"id":"idai-2294201","name":"Andania","lat":37.2665,"lng":21.985,"siteType":"archaeological-site","description":"","startYear":0,"endYear":0,"source":"iDAI.gazetteer","territoryYear":-133,"declineYear":null},{"id":"idai-2071027","name":"Andes","lat":45.1251,"lng":10.8247,"siteType":"populated-place","description":"","startYear":0,"endYear":0,"source":"iDAI.gazetteer","territoryYear":-218,"declineYear":null},{"id":"idai-2126153","name":"Andiskari","lat":34.9584,"lng":24.8808,"siteType":"populated-place","description":"","startYear":0,"endYear":0,"source":"iDAI.gazetteer","territoryYear":-60,"declineYear":null},{"id":"idai-2102269","name":"Andritsaina","lat":37.4838,"lng":21.9053,"siteType":"archaeological-site","description":"","startYear":0,"endYear":0,"source":"iDAI.gazetteer","territoryYear":-133,"declineYear":null},{"id":"idai-2338661","name":"Andron","lat":35.7,"lng":36.6,"siteType":"archaeological-site","description":"","startYear":0,"endYear":0,"source":"iDAI.gazetteer","territoryYear":-60,"declineYear":null},{"id":"idai-2361360","name":"Andros","lat":37.8,"lng":24.8,"siteType":"archaeological-site","description":"","startYear":0,"endYear":0,"source":"iDAI.gazetteer","territoryYear":null,"declineYear":null},{"id":"idai-1009001","name":"Anemomylos","lat":38.5726,"lng":22.6918,"siteType":"archaeological-site","description":"","startYear":0,"endYear":0,"source":"iDAI.gazetteer","territoryYear":-133,"declineYear":null},{"id":"idai-2179807","name":"Anemospilia","lat":35.2554,"lng":25.1446,"siteType":"archaeological-site","description":"","startYear":0,"endYear":0,"source":"iDAI.gazetteer","territoryYear":-60,"declineYear":null},{"id":"idai-2121567","name":"Anfushi Nekropole","lat":31.1905,"lng":29.8834,"siteType":"archaeological-site","description":"","startYear":0,"endYear":0,"source":"iDAI.gazetteer","territoryYear":-27,"declineYear":null},{"id":"idai-2361361","name":"Angeia?","lat":39.1,"lng":22,"siteType":"archaeological-site","description":"","startYear":0,"endYear":0,"source":"iDAI.gazetteer","territoryYear":-133,"declineYear":null},{"id":"idai-2046917","name":"Anger- Höglwörth","lat":47.8166,"lng":12.8505,"siteType":"populated-place","description":"","startYear":0,"endYear":0,"source":"iDAI.gazetteer","territoryYear":-1,"declineYear":476},{"id":"idai-2107783","name":"Angístri","lat":39.3,"lng":22.95,"siteType":"archaeological-site","description":"","startYear":0,"endYear":0,"source":"iDAI.gazetteer","territoryYear":null,"declineYear":null},{"id":"idai-2042808","name":"Aniba","lat":22.7306,"lng":32.0031,"siteType":"archaeological-site","description":"","startYear":0,"endYear":0,"source":"iDAI.gazetteer","territoryYear":200,"declineYear":null},{"id":"idai-1009005","name":"Aniforitis (-Sperrmauer)","lat":38.4314,"lng":23.5505,"siteType":"archaeological-site","description":"","startYear":0,"endYear":0,"source":"iDAI.gazetteer","territoryYear":-133,"declineYear":null},{"id":"idai-2361365","name":"Anopolis","lat":35.2,"lng":24.1,"siteType":"archaeological-site","description":"","startYear":0,"endYear":0,"source":"iDAI.gazetteer","territoryYear":84,"declineYear":102},{"id":"idai-2074341","name":"Anta da Lajinha, Mação","lat":39.7084,"lng":-7.9833,"siteType":"archaeological-site","description":"","startYear":0,"endYear":0,"source":"iDAI.gazetteer","territoryYear":-60,"declineYear":476},{"id":"idai-2120083","name":"Antemnae","lat":41.9375,"lng":12.5007,"siteType":"archaeological-site","description":"","startYear":0,"endYear":0,"source":"iDAI.gazetteer","territoryYear":-500,"declineYear":null},{"id":"idai-2104230","name":"Anthedon","lat":38.4984,"lng":23.4614,"siteType":"archaeological-site","description":"","startYear":0,"endYear":0,"source":"iDAI.gazetteer","territoryYear":-133,"declineYear":null},{"id":"idai-2127367","name":"Anthia","lat":37.1136,"lng":22.0406,"siteType":"populated-place","description":"","startYear":0,"endYear":0,"source":"iDAI.gazetteer","territoryYear":-133,"declineYear":null},{"id":"idai-2295305","name":"Antigoneia","lat":40.1,"lng":20.2,"siteType":"archaeological-site","description":"","startYear":0,"endYear":0,"source":"iDAI.gazetteer","territoryYear":-133,"declineYear":null},{"id":"idai-2284816","name":"antike Festung bei Insuyu","lat":37.6559,"lng":30.3754,"siteType":"archaeological-site","description":"","startYear":0,"endYear":0,"source":"iDAI.gazetteer","territoryYear":47,"declineYear":null},{"id":"idai-2106271","name":"Antiker Hafen","lat":41.15,"lng":-8.6167,"siteType":"archaeological-site","description":"","startYear":0,"endYear":0,"source":"iDAI.gazetteer","territoryYear":-133,"declineYear":476},{"id":"idai-2126331","name":"Antikes Stadtgebiet","lat":37.6303,"lng":22.7218,"siteType":"archaeological-site","description":"","startYear":0,"endYear":0,"source":"iDAI.gazetteer","territoryYear":-133,"declineYear":null},{"id":"idai-2104057","name":"Antikyra","lat":38.3833,"lng":22.6333,"siteType":"archaeological-site","description":"","startYear":0,"endYear":0,"source":"iDAI.gazetteer","territoryYear":-133,"declineYear":null},{"id":"idai-2284836","name":"Antiocheia am Kragos","lat":36.2,"lng":32.4,"siteType":"archaeological-site","description":"","startYear":0,"endYear":0,"source":"iDAI.gazetteer","territoryYear":-60,"declineYear":null},{"id":"idai-2283111","name":"Antiochia ad Orontem","lat":36.2066,"lng":36.1572,"siteType":"archaeological-site","description":"","startYear":0,"endYear":0,"source":"iDAI.gazetteer","territoryYear":-60,"declineYear":null},{"id":"idai-2068727","name":"Antonivka","lat":47.882,"lng":37.3576,"siteType":"archaeological-site","description":"","startYear":0,"endYear":0,"source":"iDAI.gazetteer","territoryYear":null,"declineYear":null},{"id":"idai-2068728","name":"Antonovka","lat":55.3127,"lng":49.1436,"siteType":"archaeological-site","description":"","startYear":0,"endYear":0,"source":"iDAI.gazetteer","territoryYear":null,"declineYear":null},{"id":"idai-2086718","name":"Aosta","lat":45.7349,"lng":7.3131,"siteType":"populated-place","description":"","startYear":0,"endYear":0,"source":"iDAI.gazetteer","territoryYear":-27,"declineYear":null},{"id":"idai-2099621","name":"Aperi","lat":35.55,"lng":27.1833,"siteType":"archaeological-site","description":"","startYear":0,"endYear":0,"source":"iDAI.gazetteer","territoryYear":-133,"declineYear":null},{"id":"idai-2295301","name":"Apesokari","lat":35,"lng":25,"siteType":"archaeological-site","description":"","startYear":0,"endYear":0,"source":"iDAI.gazetteer","territoryYear":-60,"declineYear":null},{"id":"idai-2062164","name":"Apetlon, VB Neusiedl am See","lat":47.7439,"lng":16.8302,"siteType":"archaeological-site","description":"","startYear":0,"endYear":0,"source":"iDAI.gazetteer","territoryYear":14,"declineYear":476},{"id":"idai-2292410","name":"Aphaia-Tempel","lat":37.8,"lng":23.5,"siteType":"archaeological-site","description":"","startYear":0,"endYear":0,"source":"iDAI.gazetteer","territoryYear":null,"declineYear":null},{"id":"idai-2102712","name":"Aphidnai","lat":38.1,"lng":24,"siteType":"archaeological-site","description":"","startYear":0,"endYear":0,"source":"iDAI.gazetteer","territoryYear":null,"declineYear":null},{"id":"idai-2125736","name":"Aphrati","lat":35.0138,"lng":25.4007,"siteType":"archaeological-site","description":"","startYear":0,"endYear":0,"source":"iDAI.gazetteer","territoryYear":-60,"declineYear":null},{"id":"idai-2283134","name":"Aphrodisias","lat":37.7085,"lng":28.7238,"siteType":"archaeological-site","description":"","startYear":0,"endYear":0,"source":"iDAI.gazetteer","territoryYear":-133,"declineYear":null},{"id":"idai-2284840","name":"Aphrodisias in Kilikien","lat":36.2,"lng":33.7,"siteType":"archaeological-site","description":"","startYear":0,"endYear":0,"source":"iDAI.gazetteer","territoryYear":-60,"declineYear":null},{"id":"idai-2361383","name":"Aphrodite Heiligtum","lat":37.9,"lng":22.9,"siteType":"archaeological-site","description":"","startYear":0,"endYear":0,"source":"iDAI.gazetteer","territoryYear":-133,"declineYear":null},{"id":"idai-2361386","name":"Aphrodite Tempel","lat":40.6,"lng":22.9,"siteType":"archaeological-site","description":"","startYear":0,"endYear":0,"source":"iDAI.gazetteer","territoryYear":null,"declineYear":null},{"id":"idai-2319615","name":"Apice","lat":41.1201,"lng":14.931,"siteType":"populated-place","description":"","startYear":0,"endYear":0,"source":"iDAI.gazetteer","territoryYear":-290,"declineYear":null},{"id":"idai-2126626","name":"Aplomata","lat":37.1,"lng":25.4,"siteType":"archaeological-site","description":"","startYear":0,"endYear":0,"source":"iDAI.gazetteer","territoryYear":-133,"declineYear":null},{"id":"idai-2361401","name":"Apollon Heiligtum","lat":37,"lng":27,"siteType":"archaeological-site","description":"","startYear":0,"endYear":0,"source":"iDAI.gazetteer","territoryYear":-133,"declineYear":null},{"id":"idai-2361391","name":"Apollon Tempel","lat":40.1,"lng":22.2,"siteType":"archaeological-site","description":"","startYear":0,"endYear":0,"source":"iDAI.gazetteer","territoryYear":-133,"declineYear":null},{"id":"idai-2105657","name":"Apollon-Heiligtum","lat":38.4824,"lng":22.5011,"siteType":"archaeological-site","description":"","startYear":0,"endYear":0,"source":"iDAI.gazetteer","territoryYear":-133,"declineYear":null},{"id":"idai-2101801","name":"Apollon-Heiligtum","lat":32.8267,"lng":21.8634,"siteType":"archaeological-site","description":"","startYear":0,"endYear":0,"source":"iDAI.gazetteer","territoryYear":-60,"declineYear":null},{"id":"idai-2103594","name":"Apollon-Heiligtum","lat":37.9059,"lng":22.8794,"siteType":"archaeological-site","description":"","startYear":0,"endYear":0,"source":"iDAI.gazetteer","territoryYear":-133,"declineYear":null},{"id":"idai-2769742","name":"Apollonia","lat":40.7,"lng":19.5,"siteType":"archaeological-site","description":"","startYear":0,"endYear":0,"source":"iDAI.gazetteer","territoryYear":-218,"declineYear":null},{"id":"idai-2285000","name":"Apollonia in Lykien","lat":36.2,"lng":29.8,"siteType":"archaeological-site","description":"","startYear":0,"endYear":0,"source":"iDAI.gazetteer","territoryYear":47,"declineYear":null},{"id":"idai-2088674","name":"Apollontempel","lat":37.3851,"lng":27.2567,"siteType":"archaeological-site","description":"","startYear":0,"endYear":0,"source":"iDAI.gazetteer","territoryYear":-133,"declineYear":null},{"id":"idai-2090514","name":"Apollontempel","lat":32.8267,"lng":21.8634,"siteType":"archaeological-site","description":"","startYear":0,"endYear":0,"source":"iDAI.gazetteer","territoryYear":-60,"declineYear":null},{"id":"idai-2104333","name":"Apollontempel - Umgebung","lat":41.8888,"lng":12.4857,"siteType":"archaeological-site","description":"","startYear":0,"endYear":0,"source":"iDAI.gazetteer","territoryYear":-500,"declineYear":null},{"id":"idai-2126129","name":"Apolychnos","lat":35.0783,"lng":24.889,"siteType":"populated-place","description":"","startYear":0,"endYear":0,"source":"iDAI.gazetteer","territoryYear":-60,"declineYear":null},{"id":"idai-2125911","name":"Apostoli","lat":35.51,"lng":23.9759,"siteType":"populated-place","description":"","startYear":0,"endYear":0,"source":"iDAI.gazetteer","territoryYear":-60,"declineYear":null},{"id":"idai-2361406","name":"Apotheke","lat":39.1,"lng":26.1,"siteType":"archaeological-site","description":"","startYear":0,"endYear":0,"source":"iDAI.gazetteer","territoryYear":-133,"declineYear":null},{"id":"idai-2043372","name":"Apsaros","lat":41.573,"lng":41.5736,"siteType":"archaeological-site","description":"","startYear":0,"endYear":0,"source":"iDAI.gazetteer","territoryYear":117,"declineYear":300},{"id":"idai-2110965","name":"Apsidenhaus 2","lat":37.6385,"lng":21.63,"siteType":"archaeological-site","description":"","startYear":0,"endYear":0,"source":"iDAI.gazetteer","territoryYear":-133,"declineYear":null},{"id":"idai-2112535","name":"Apsidenhaus 5","lat":37.6385,"lng":21.63,"siteType":"archaeological-site","description":"","startYear":0,"endYear":0,"source":"iDAI.gazetteer","territoryYear":-133,"declineYear":null},{"id":"idai-2053436","name":"Apsorus","lat":44.5306,"lng":14.4686,"siteType":"populated-place","description":"","startYear":0,"endYear":0,"source":"iDAI.gazetteer","territoryYear":14,"declineYear":84},{"id":"idai-2361407","name":"Aptera","lat":35.5,"lng":24.1,"siteType":"archaeological-site","description":"","startYear":0,"endYear":0,"source":"iDAI.gazetteer","territoryYear":null,"declineYear":null},{"id":"idai-2362643","name":"Aquädukt","lat":35.2,"lng":25.4,"siteType":"archaeological-site","description":"","startYear":0,"endYear":0,"source":"iDAI.gazetteer","territoryYear":-60,"declineYear":null},{"id":"idai-2072645","name":"Aquae Caeretanae","lat":42.0371,"lng":11.8722,"siteType":"archaeological-site","description":"","startYear":0,"endYear":0,"source":"iDAI.gazetteer","territoryYear":-264,"declineYear":null},{"id":"idai-2320170","name":"Aquileia","lat":45.7683,"lng":13.3678,"siteType":"populated-place","description":"","startYear":0,"endYear":0,"source":"iDAI.gazetteer","territoryYear":-218,"declineYear":null},{"id":"idai-2061551","name":"Aquincum","lat":47.564,"lng":19.0496,"siteType":"archaeological-site","description":"","startYear":0,"endYear":0,"source":"iDAI.gazetteer","territoryYear":14,"declineYear":476},{"id":"idai-2324509","name":"Aquino, Via San Costanzo","lat":41.4939,"lng":13.699,"siteType":"archaeological-site","description":"","startYear":0,"endYear":0,"source":"iDAI.gazetteer","territoryYear":-298,"declineYear":null},{"id":"idai-2075328","name":"Aquis Querquennis, Baños de Bande","lat":42,"lng":-8,"siteType":"archaeological-site","description":"","startYear":0,"endYear":0,"source":"iDAI.gazetteer","territoryYear":-133,"declineYear":476},{"id":"idai-2407096","name":"ar-Raqqa Ost","lat":35.9658,"lng":39.0425,"siteType":"archaeological-area","description":"","startYear":0,"endYear":0,"source":"iDAI.gazetteer","territoryYear":117,"declineYear":400},{"id":"idai-2281838","name":"ar-Rifada","lat":36.3133,"lng":36.8246,"siteType":"archaeological-site","description":"","startYear":0,"endYear":0,"source":"iDAI.gazetteer","territoryYear":-60,"declineYear":null},{"id":"idai-2299122","name":"ar-Rushayda","lat":32.6693,"lng":36.8453,"siteType":"populated-place","description":"","startYear":0,"endYear":0,"source":"iDAI.gazetteer","territoryYear":117,"declineYear":null},{"id":"idai-2093751","name":"Ara Pacis","lat":41.9064,"lng":12.4755,"siteType":"archaeological-site","description":"","startYear":0,"endYear":0,"source":"iDAI.gazetteer","territoryYear":-500,"declineYear":null},{"id":"idai-2287177","name":"Arainon","lat":36.7,"lng":22.5,"siteType":"populated-place","description":"","startYear":0,"endYear":0,"source":"iDAI.gazetteer","territoryYear":-133,"declineYear":null},{"id":"idai-2053438","name":"Arausona","lat":43.804,"lng":15.7925,"siteType":"archaeological-site","description":"","startYear":0,"endYear":0,"source":"iDAI.gazetteer","territoryYear":-133,"declineYear":null},{"id":"idai-2299231","name":"Archanes","lat":35.2338,"lng":25.1617,"siteType":"archaeological-site","description":"","startYear":0,"endYear":0,"source":"iDAI.gazetteer","territoryYear":-60,"declineYear":null},{"id":"idai-2099486","name":"Archäologiepark Belginum","lat":49.8554,"lng":7.1645,"siteType":"archaeological-site","description":"","startYear":0,"endYear":0,"source":"iDAI.gazetteer","territoryYear":-27,"declineYear":476},{"id":"idai-2047484","name":"Archäologischer Park Cambodunum","lat":47.7276,"lng":10.323,"siteType":"archaeological-site","description":"","startYear":0,"endYear":0,"source":"iDAI.gazetteer","territoryYear":-1,"declineYear":400},{"id":"idai-2098163","name":"Archäologischer Park Xanten","lat":51.6681,"lng":6.444,"siteType":"archaeological-site","description":"","startYear":0,"endYear":0,"source":"iDAI.gazetteer","territoryYear":84,"declineYear":476},{"id":"idai-2075433","name":"Archena (Municipio)","lat":38.1163,"lng":-1.3004,"siteType":"archaeological-site","description":"","startYear":0,"endYear":0,"source":"iDAI.gazetteer","territoryYear":-133,"declineYear":476},{"id":"idai-2098784","name":"Arco di Portogallo","lat":41.9031,"lng":12.4796,"siteType":"archaeological-site","description":"","startYear":0,"endYear":0,"source":"iDAI.gazetteer","territoryYear":-500,"declineYear":null},{"id":"idai-2109261","name":"Arcóbriga, Monreal de Ariza","lat":41.2968,"lng":-2.1382,"siteType":"archaeological-site","description":"","startYear":0,"endYear":0,"source":"iDAI.gazetteer","territoryYear":-133,"declineYear":476},{"id":"idai-2125810","name":"Area ß 24","lat":35.2,"lng":26.3,"siteType":"archaeological-site","description":"","startYear":0,"endYear":0,"source":"iDAI.gazetteer","territoryYear":-60,"declineYear":null},{"id":"idai-2769743","name":"Areal des westlichen Stadteingangs, Gadara","lat":32.7,"lng":35.7,"siteType":"archaeological-site","description":"","startYear":0,"endYear":0,"source":"iDAI.gazetteer","territoryYear":117,"declineYear":null},{"id":"idai-2081380","name":"Aregenua","lat":49.1042,"lng":-0.4314,"siteType":"archaeological-site","description":"","startYear":0,"endYear":0,"source":"iDAI.gazetteer","territoryYear":-27,"declineYear":476},{"id":"idai-2070820","name":"Arene Candide","lat":44.1623,"lng":8.3285,"siteType":"archaeological-site","description":"","startYear":0,"endYear":0,"source":"iDAI.gazetteer","territoryYear":-60,"declineYear":null},{"id":"idai-2071656","name":"Arenosola","lat":40.5064,"lng":14.9547,"siteType":"archaeological-site","description":"","startYear":0,"endYear":0,"source":"iDAI.gazetteer","territoryYear":-272,"declineYear":null},{"id":"idai-2119663","name":"Areopag","lat":38,"lng":23.7,"siteType":"landform","description":"","startYear":0,"endYear":0,"source":"iDAI.gazetteer","territoryYear":-133,"declineYear":null},{"id":"idai-2277103","name":"Arezzo","lat":43.4662,"lng":11.8822,"siteType":"populated-place","description":"","startYear":0,"endYear":0,"source":"iDAI.gazetteer","territoryYear":-264,"declineYear":null},{"id":"idai-2078801","name":"Argentomagus","lat":46.5994,"lng":1.5157,"siteType":"archaeological-site","description":"","startYear":0,"endYear":0,"source":"iDAI.gazetteer","territoryYear":-27,"declineYear":476},{"id":"idai-2089524","name":"Argirocastro","lat":40.0758,"lng":20.1389,"siteType":"archaeological-site","description":"","startYear":0,"endYear":0,"source":"iDAI.gazetteer","territoryYear":-133,"declineYear":null},{"id":"idai-2295308","name":"Argissa Magoula","lat":39.7,"lng":22.3,"siteType":"populated-place","description":"","startYear":0,"endYear":0,"source":"iDAI.gazetteer","territoryYear":-133,"declineYear":null},{"id":"idai-2295310","name":"Argos","lat":37.6,"lng":22.7,"siteType":"archaeological-site","description":"","startYear":0,"endYear":0,"source":"iDAI.gazetteer","territoryYear":-133,"declineYear":null},{"id":"idai-2361418","name":"Argos Amphilochikon","lat":38.9,"lng":21.2,"siteType":"archaeological-site","description":"","startYear":0,"endYear":0,"source":"iDAI.gazetteer","territoryYear":-133,"declineYear":null},{"id":"idai-2299068","name":"Argos Orestiko","lat":40.4526,"lng":21.2585,"siteType":"populated-place","description":"","startYear":0,"endYear":0,"source":"iDAI.gazetteer","territoryYear":-133,"declineYear":null},{"id":"idai-2108440","name":"Argostoli","lat":38.2,"lng":20.5,"siteType":"populated-place","description":"","startYear":0,"endYear":0,"source":"iDAI.gazetteer","territoryYear":-133,"declineYear":200},{"id":"idai-2124289","name":"Argyroupoli","lat":35.2852,"lng":24.3342,"siteType":"populated-place","description":"","startYear":0,"endYear":0,"source":"iDAI.gazetteer","territoryYear":-60,"declineYear":null},{"id":"idai-2050746","name":"Arholzen- Lohe (Wüstung )","lat":51.865,"lng":9.5585,"siteType":"archaeological-site","description":"","startYear":0,"endYear":0,"source":"iDAI.gazetteer","territoryYear":null,"declineYear":null},{"id":"idai-2361421","name":"Arisba","lat":39.2,"lng":26.2,"siteType":"archaeological-site","description":"","startYear":0,"endYear":0,"source":"iDAI.gazetteer","territoryYear":-133,"declineYear":-60},{"id":"idai-2126389","name":"Arkades","lat":35.1,"lng":25.3,"siteType":"archaeological-site","description":"","startYear":0,"endYear":0,"source":"iDAI.gazetteer","territoryYear":-60,"declineYear":null},{"id":"idai-2070126","name":"Arkesine","lat":36.7867,"lng":25.803,"siteType":"populated-place","description":"","startYear":0,"endYear":0,"source":"iDAI.gazetteer","territoryYear":-133,"declineYear":-27},{"id":"idai-2070821","name":"Arma di Nasino","lat":44.1137,"lng":8.032,"siteType":"archaeological-site","description":"","startYear":0,"endYear":0,"source":"iDAI.gazetteer","territoryYear":-133,"declineYear":null},{"id":"idai-2042811","name":"Armant","lat":25.619,"lng":32.5461,"siteType":"archaeological-site","description":"","startYear":0,"endYear":0,"source":"iDAI.gazetteer","territoryYear":-27,"declineYear":null},{"id":"idai-2049418","name":"Arnheider Kapelle (Wüstung Arnheiden)","lat":49.8266,"lng":9.0521,"siteType":"archaeological-site","description":"","startYear":0,"endYear":0,"source":"iDAI.gazetteer","territoryYear":84,"declineYear":476},{"id":"idai-2074799","name":"Aroche (Municipio)","lat":37.9421,"lng":-6.9576,"siteType":"archaeological-site","description":"","startYear":0,"endYear":0,"source":"iDAI.gazetteer","territoryYear":-133,"declineYear":476},{"id":"idai-2061731","name":"Arrabona","lat":47.6869,"lng":17.6345,"siteType":"archaeological-site","description":"","startYear":0,"endYear":0,"source":"iDAI.gazetteer","territoryYear":14,"declineYear":476},{"id":"idai-2075306","name":"Arroyo de la Luz (Municipio)","lat":39.4851,"lng":-6.584,"siteType":"archaeological-site","description":"","startYear":0,"endYear":0,"source":"iDAI.gazetteer","territoryYear":-60,"declineYear":476},{"id":"idai-2324496","name":"Arsameia am Nymphaios","lat":37.9428,"lng":38.6569,"siteType":"archaeological-site","description":"","startYear":0,"endYear":0,"source":"iDAI.gazetteer","territoryYear":-1,"declineYear":null},{"id":"idai-2043804","name":"Arslantepe","lat":38.4,"lng":38.4,"siteType":"archaeological-site","description":"","startYear":0,"endYear":0,"source":"iDAI.gazetteer","territoryYear":-1,"declineYear":null},{"id":"idai-2361445","name":"Artemis Heiligtum","lat":39.9,"lng":25.1,"siteType":"archaeological-site","description":"","startYear":0,"endYear":0,"source":"iDAI.gazetteer","territoryYear":-133,"declineYear":null},{"id":"idai-2308204","name":"Artemis Orthia-Heiligtum","lat":37.0828,"lng":22.435,"siteType":"archaeological-site","description":"","startYear":0,"endYear":0,"source":"iDAI.gazetteer","territoryYear":-133,"declineYear":null},{"id":"idai-2126396","name":"Artemis-Heiligtum","lat":37.9261,"lng":23.9938,"siteType":"archaeological-site","description":"","startYear":0,"endYear":0,"source":"iDAI.gazetteer","territoryYear":-133,"declineYear":null},{"id":"idai-2126485","name":"Artemis-Heiligtum","lat":37.4,"lng":25.3,"siteType":"archaeological-site","description":"","startYear":0,"endYear":0,"source":"iDAI.gazetteer","territoryYear":null,"declineYear":null},{"id":"idai-2105023","name":"Artemisheiligtum","lat":39.6065,"lng":19.9189,"siteType":"archaeological-site","description":"","startYear":0,"endYear":0,"source":"iDAI.gazetteer","territoryYear":-133,"declineYear":14},{"id":"idai-2090518","name":"Artemistempel","lat":32.8267,"lng":21.8634,"siteType":"archaeological-site","description":"","startYear":0,"endYear":0,"source":"iDAI.gazetteer","territoryYear":-60,"declineYear":null},{"id":"idai-2180627","name":"Artena","lat":41.7417,"lng":12.9122,"siteType":"populated-place","description":"","startYear":0,"endYear":0,"source":"iDAI.gazetteer","territoryYear":-338,"declineYear":null},{"id":"idai-2125420","name":"Artsa","lat":35.2999,"lng":25.2467,"siteType":"archaeological-site","description":"","startYear":0,"endYear":0,"source":"iDAI.gazetteer","territoryYear":-60,"declineYear":null},{"id":"idai-2283139","name":"Arykanda","lat":36.5139,"lng":30.06,"siteType":"archaeological-site","description":"","startYear":0,"endYear":0,"source":"iDAI.gazetteer","territoryYear":47,"declineYear":null},{"id":"idai-2338662","name":"as-Salaa al-Gharbia","lat":33.5,"lng":36.3,"siteType":"archaeological-site","description":"","startYear":0,"endYear":0,"source":"iDAI.gazetteer","territoryYear":-60,"declineYear":null},{"id":"idai-2309273","name":"as-Satura","lat":36.1999,"lng":37.1635,"siteType":"archaeological-site","description":"","startYear":0,"endYear":0,"source":"iDAI.gazetteer","territoryYear":-60,"declineYear":null},{"id":"idai-2338571","name":"as-Siq","lat":30.3,"lng":35.5,"siteType":"archaeological-site","description":"","startYear":0,"endYear":0,"source":"iDAI.gazetteer","territoryYear":117,"declineYear":null},{"id":"idai-2110381","name":"Aşağıbey Köyü","lat":39.3,"lng":27,"siteType":"archaeological-site","description":"","startYear":0,"endYear":0,"source":"iDAI.gazetteer","territoryYear":-133,"declineYear":null},{"id":"idai-2050728","name":"Aschenstein (Freden an der Leine)","lat":51.9088,"lng":9.9233,"siteType":"landform","description":"","startYear":0,"endYear":0,"source":"iDAI.gazetteer","territoryYear":null,"declineYear":null},{"id":"idai-2047684","name":"Aschheim","lat":48.1711,"lng":11.7168,"siteType":"populated-place","description":"","startYear":0,"endYear":0,"source":"iDAI.gazetteer","territoryYear":-1,"declineYear":400},{"id":"idai-2051974","name":"Asciburgium","lat":51.4317,"lng":6.67,"siteType":"archaeological-site","description":"","startYear":0,"endYear":0,"source":"iDAI.gazetteer","territoryYear":84,"declineYear":476},{"id":"idai-2338747","name":"Ascoli Piceno","lat":42.8548,"lng":13.5735,"siteType":"populated-place","description":"","startYear":0,"endYear":0,"source":"iDAI.gazetteer","territoryYear":-264,"declineYear":null},{"id":"idai-2361451","name":"Asea","lat":37.4,"lng":22.3,"siteType":"archaeological-site","description":"","startYear":0,"endYear":0,"source":"iDAI.gazetteer","territoryYear":-133,"declineYear":null},{"id":"idai-2296248","name":"Asea","lat":37.4,"lng":22.3,"siteType":"archaeological-site","description":"","startYear":0,"endYear":0,"source":"iDAI.gazetteer","territoryYear":-133,"declineYear":null},{"id":"idai-2331806","name":"ash-Shariʿ al-Mustaqim","lat":33.5091,"lng":36.3108,"siteType":"archaeological-site","description":"","startYear":0,"endYear":0,"source":"iDAI.gazetteer","territoryYear":-60,"declineYear":null},{"id":"idai-2042787","name":"Asher","lat":25.7,"lng":32.7,"siteType":"archaeological-site","description":"","startYear":0,"endYear":0,"source":"iDAI.gazetteer","territoryYear":-27,"declineYear":null},{"id":"idai-2299676","name":"Asikli Höyük","lat":38.3492,"lng":34.2304,"siteType":"archaeological-site","description":"","startYear":0,"endYear":0,"source":"iDAI.gazetteer","territoryYear":-27,"declineYear":null},{"id":"idai-2296252","name":"Asine","lat":37.5277,"lng":22.8747,"siteType":"archaeological-site","description":"","startYear":0,"endYear":0,"source":"iDAI.gazetteer","territoryYear":-133,"declineYear":null},{"id":"idai-2361453","name":"Asklepieion","lat":37.1,"lng":25.1,"siteType":"archaeological-site","description":"","startYear":0,"endYear":0,"source":"iDAI.gazetteer","territoryYear":null,"declineYear":null},{"id":"idai-2070245","name":"Asklepieion","lat":36.8757,"lng":27.257,"siteType":"populated-place","description":"","startYear":0,"endYear":0,"source":"iDAI.gazetteer","territoryYear":-133,"declineYear":null},{"id":"idai-2101335","name":"Asklepieion","lat":38,"lng":23.7,"siteType":"archaeological-site","description":"","startYear":0,"endYear":0,"source":"iDAI.gazetteer","territoryYear":-133,"declineYear":null},{"id":"idai-2103120","name":"Asklepieion","lat":39.1187,"lng":27.1657,"siteType":"archaeological-site","description":"","startYear":0,"endYear":0,"source":"iDAI.gazetteer","territoryYear":-133,"declineYear":null},{"id":"idai-2103954","name":"Asklepieion","lat":36.9,"lng":27.3,"siteType":"archaeological-site","description":"","startYear":0,"endYear":0,"source":"iDAI.gazetteer","territoryYear":null,"declineYear":null},{"id":"idai-2105775","name":"Asklepieion","lat":37.5033,"lng":23.3484,"siteType":"archaeological-site","description":"","startYear":0,"endYear":0,"source":"iDAI.gazetteer","territoryYear":-133,"declineYear":null},{"id":"idai-2099629","name":"Askra","lat":38.3167,"lng":23.1167,"siteType":"archaeological-site","description":"","startYear":0,"endYear":0,"source":"iDAI.gazetteer","territoryYear":-133,"declineYear":null},{"id":"idai-2361456","name":"Asopos","lat":36.7,"lng":22.8,"siteType":"archaeological-site","description":"","startYear":0,"endYear":0,"source":"iDAI.gazetteer","territoryYear":null,"declineYear":null},{"id":"idai-2069978","name":"Asow","lat":47.1,"lng":39.4167,"siteType":"archaeological-site","description":"","startYear":0,"endYear":0,"source":"iDAI.gazetteer","territoryYear":-27,"declineYear":200},{"id":"idai-2070129","name":"Asprochaliko","lat":39.3,"lng":20.8,"siteType":"archaeological-site","description":"","startYear":0,"endYear":0,"source":"iDAI.gazetteer","territoryYear":-133,"declineYear":null},{"id":"idai-2122167","name":"Asprópirgos","lat":38.1,"lng":23.6,"siteType":"populated-place","description":"","startYear":0,"endYear":0,"source":"iDAI.gazetteer","territoryYear":-133,"declineYear":null},{"id":"idai-2073766","name":"Assat-Longhini","lat":45.8725,"lng":10.7628,"siteType":"archaeological-site","description":"","startYear":0,"endYear":0,"source":"iDAI.gazetteer","territoryYear":-27,"declineYear":null},{"id":"idai-2051171","name":"Asseburg (Wolfenbüttel)","lat":52.1394,"lng":10.6352,"siteType":"archaeological-site","description":"","startYear":0,"endYear":0,"source":"iDAI.gazetteer","territoryYear":null,"declineYear":null},{"id":"idai-2361464","name":"Asseros","lat":40.8,"lng":23,"siteType":"archaeological-site","description":"","startYear":0,"endYear":0,"source":"iDAI.gazetteer","territoryYear":-133,"declineYear":null},{"id":"idai-2287708","name":"Assos","lat":39.4934,"lng":26.3332,"siteType":"archaeological-site","description":"","startYear":0,"endYear":0,"source":"iDAI.gazetteer","territoryYear":-133,"declineYear":null},{"id":"idai-2299693","name":"Assouad, Tell (Jezirah)","lat":36.6,"lng":39,"siteType":"archaeological-site","description":"","startYear":0,"endYear":0,"source":"iDAI.gazetteer","territoryYear":117,"declineYear":400},{"id":"idai-2283157","name":"Assur","lat":35.4596,"lng":43.2612,"siteType":"archaeological-site","description":"","startYear":0,"endYear":0,"source":"iDAI.gazetteer","territoryYear":117,"declineYear":200},{"id":"idai-2361465","name":"Astakos","lat":38.6,"lng":21.1,"siteType":"archaeological-site","description":"","startYear":0,"endYear":0,"source":"iDAI.gazetteer","territoryYear":-133,"declineYear":null},{"id":"idai-2126180","name":"Asteri","lat":35.3683,"lng":24.597,"siteType":"populated-place","description":"","startYear":0,"endYear":0,"source":"iDAI.gazetteer","territoryYear":-60,"declineYear":null},{"id":"idai-2125216","name":"Astritsi","lat":35.1899,"lng":25.2259,"siteType":"populated-place","description":"","startYear":0,"endYear":0,"source":"iDAI.gazetteer","territoryYear":-60,"declineYear":null},{"id":"idai-2086890","name":"Astros","lat":37.4034,"lng":22.7212,"siteType":"archaeological-site","description":"","startYear":0,"endYear":0,"source":"iDAI.gazetteer","territoryYear":-133,"declineYear":null},{"id":"idai-2075000","name":"Asturica Augusta","lat":42.4589,"lng":-6.0633,"siteType":"archaeological-site","description":"","startYear":0,"endYear":0,"source":"iDAI.gazetteer","territoryYear":-133,"declineYear":476},{"id":"idai-2299692","name":"Aswad, Tell","lat":33.3929,"lng":36.5518,"siteType":"archaeological-site","description":"","startYear":0,"endYear":0,"source":"iDAI.gazetteer","territoryYear":-60,"declineYear":null},{"id":"idai-2042815","name":"Aswān","lat":24.0889,"lng":32.8998,"siteType":"populated-place","description":"","startYear":0,"endYear":0,"source":"iDAI.gazetteer","territoryYear":-27,"declineYear":null},{"id":"idai-2042814","name":"Asyūt","lat":27.181,"lng":31.1837,"siteType":"archaeological-site","description":"","startYear":0,"endYear":0,"source":"iDAI.gazetteer","territoryYear":-27,"declineYear":null},{"id":"idai-2042912","name":"At Tarāmisah","lat":26.1399,"lng":32.7063,"siteType":"landform","description":"","startYear":0,"endYear":0,"source":"iDAI.gazetteer","territoryYear":-27,"declineYear":null},{"id":"idai-2042843","name":"aṭ-Ṭārif","lat":25.7385,"lng":32.6368,"siteType":"populated-place","description":"","startYear":0,"endYear":0,"source":"iDAI.gazetteer","territoryYear":-27,"declineYear":null},{"id":"idai-2281894","name":"at-Tayyiba (Tadmur)","lat":35.0889,"lng":38.916,"siteType":"archaeological-site","description":"","startYear":0,"endYear":0,"source":"iDAI.gazetteer","territoryYear":117,"declineYear":400},{"id":"idai-2331879","name":"at-Tetrabil","lat":34.5516,"lng":38.268,"siteType":"archaeological-site","description":"","startYear":0,"endYear":0,"source":"iDAI.gazetteer","territoryYear":117,"declineYear":400},{"id":"idai-2296335","name":"Atalanti","lat":38.7,"lng":23,"siteType":"populated-place","description":"","startYear":0,"endYear":0,"source":"iDAI.gazetteer","territoryYear":-133,"declineYear":null},{"id":"idai-2109731","name":"Ategua, Córdoba","lat":37.8,"lng":-4.6,"siteType":"archaeological-site","description":"","startYear":0,"endYear":0,"source":"iDAI.gazetteer","territoryYear":-133,"declineYear":476},{"id":"idai-2125391","name":"Atelier de Sceaux","lat":35.293,"lng":25.4933,"siteType":"archaeological-site","description":"","startYear":0,"endYear":0,"source":"iDAI.gazetteer","territoryYear":-60,"declineYear":null},{"id":"idai-2108814","name":"Athena-Chalkioikos-Heiligtum","lat":37.0733,"lng":22.4297,"siteType":"archaeological-site","description":"","startYear":0,"endYear":0,"source":"iDAI.gazetteer","territoryYear":-133,"declineYear":null},{"id":"idai-2287108","name":"Athenaion","lat":37.2788,"lng":22.2583,"siteType":"archaeological-site","description":"","startYear":0,"endYear":0,"source":"iDAI.gazetteer","territoryYear":-133,"declineYear":null},{"id":"idai-2070134","name":"Athina","lat":37.9795,"lng":23.7162,"siteType":"archaeological-site","description":"","startYear":0,"endYear":0,"source":"iDAI.gazetteer","territoryYear":-133,"declineYear":null},{"id":"idai-2314436","name":"Atina, Cimitero di San Marco","lat":41.6,"lng":13.8,"siteType":"archaeological-site","description":"","startYear":0,"endYear":0,"source":"iDAI.gazetteer","territoryYear":-290,"declineYear":null},{"id":"idai-2319609","name":"Atina, Piazza Saturno","lat":41.6198,"lng":13.8004,"siteType":"archaeological-site","description":"","startYear":0,"endYear":0,"source":"iDAI.gazetteer","territoryYear":-290,"declineYear":null},{"id":"idai-2319608","name":"Atina, Via Planca","lat":41.6192,"lng":13.7996,"siteType":"archaeological-site","description":"","startYear":0,"endYear":0,"source":"iDAI.gazetteer","territoryYear":-290,"declineYear":null},{"id":"idai-2299720","name":"Atlit Yam","lat":32.7107,"lng":34.9426,"siteType":"archaeological-site","description":"","startYear":0,"endYear":0,"source":"iDAI.gazetteer","territoryYear":-1,"declineYear":null},{"id":"idai-2337507","name":"Atri","lat":42.5799,"lng":13.9767,"siteType":"populated-place","description":"","startYear":0,"endYear":0,"source":"iDAI.gazetteer","territoryYear":-298,"declineYear":null},{"id":"idai-2126234","name":"Atsipades","lat":35.0707,"lng":25.0761,"siteType":"populated-place","description":"","startYear":0,"endYear":0,"source":"iDAI.gazetteer","territoryYear":-60,"declineYear":null},{"id":"idai-2086921","name":"Attalos-Stoa","lat":38,"lng":23.7,"siteType":"archaeological-site","description":"","startYear":0,"endYear":0,"source":"iDAI.gazetteer","territoryYear":-133,"declineYear":null},{"id":"idai-2062337","name":"Au am Leithaberge, VB Bruck a.d. Leitha","lat":47.9245,"lng":16.5577,"siteType":"populated-place","description":"","startYear":0,"endYear":0,"source":"iDAI.gazetteer","territoryYear":14,"declineYear":476},{"id":"idai-2122295","name":"Auerberg","lat":47.7351,"lng":10.7364,"siteType":"landform","description":"","startYear":0,"endYear":0,"source":"iDAI.gazetteer","territoryYear":-1,"declineYear":400},{"id":"idai-2078608","name":"Augustodunum","lat":46.9534,"lng":4.2983,"siteType":"archaeological-site","description":"","startYear":0,"endYear":0,"source":"iDAI.gazetteer","territoryYear":-27,"declineYear":476},{"id":"idai-2078007","name":"Augustoritum","lat":45.85,"lng":1.25,"siteType":"archaeological-site","description":"","startYear":0,"endYear":0,"source":"iDAI.gazetteer","territoryYear":-27,"declineYear":476},{"id":"idai-2288000","name":"Aula Arqueológica de Yecla de Yeltes","lat":40.9593,"lng":-6.4879,"siteType":"archaeological-site","description":"","startYear":0,"endYear":0,"source":"iDAI.gazetteer","territoryYear":-60,"declineYear":476},{"id":"idai-2287045","name":"Aulis","lat":38.4233,"lng":23.5931,"siteType":"archaeological-site","description":"","startYear":0,"endYear":0,"source":"iDAI.gazetteer","territoryYear":-133,"declineYear":null},{"id":"idai-2075241","name":"Aumedina, Tivissa","lat":41,"lng":0.7,"siteType":"archaeological-site","description":"","startYear":0,"endYear":0,"source":"iDAI.gazetteer","territoryYear":-133,"declineYear":476},{"id":"idai-2361636","name":"Ausgrabung (Metrostation Eleonas)","lat":38,"lng":23.7,"siteType":"archaeological-site","description":"","startYear":0,"endYear":0,"source":"iDAI.gazetteer","territoryYear":-133,"declineYear":null},{"id":"idai-2362479","name":"Ausgrabung am Syntagma-Platz","lat":38,"lng":23.7,"siteType":"archaeological-site","description":"","startYear":0,"endYear":0,"source":"iDAI.gazetteer","territoryYear":-133,"declineYear":null},{"id":"idai-2307673","name":"Ausonia, Via San Michele","lat":41.3556,"lng":13.7485,"siteType":"archaeological-site","description":"","startYear":0,"endYear":0,"source":"iDAI.gazetteer","territoryYear":-338,"declineYear":null},{"id":"idai-2068739","name":"Avdeevo","lat":51.6904,"lng":35.791,"siteType":"archaeological-site","description":"","startYear":0,"endYear":0,"source":"iDAI.gazetteer","territoryYear":null,"declineYear":null},